%time,field.transforms0.header.seq,field.transforms0.header.stamp,field.transforms0.header.frame_id,field.transforms0.child_frame_id,field.transforms0.transform.translation.x,field.transforms0.transform.translation.y,field.transforms0.transform.translation.z,field.transforms0.transform.rotation.x,field.transforms0.transform.rotation.y,field.transforms0.transform.rotation.z,field.transforms0.transform.rotation.w
1573178454529004332,0,1573178454240691304,map,grasp_lab,-1.37653008174e-19,6.59998273749e-19,6.47113617807e-20,3.51662590291e-21,4.81176132634e-22,-1.48165739498e-21,1.0
1573178454529170094,0,1573178454240691304,grasp_lab,tag_7,0.469,-0.018,-2.54,-6.08260108947e-21,-1.05622177671e-21,-3.18678416988e-21,1.0
1573178454529256751,0,1573178454240691304,grasp_lab,tag_8,-0.85560703037,-0.00396972274475,-1.21601589665,0.00254742832864,0.0345296322728,-0.00525331345446,0.999386620784
1573178454529267075,0,1573178454240691304,grasp_lab,tag_14,-1.21998205008,0.0380300218337,-3.06829908946,0.00246664981046,0.0404059073626,0.00205426845395,0.99917819145
1573178454529271791,0,1573178454240691304,grasp_lab,tag_9,-0.6460465746,0.0238872534352,-3.11411231921,0.0102765473762,0.038798685782,-0.020245326742,0.99898907967
1573178454529278916,0,1573178454240691304,map,rig,0.00350676312976,0.00325907029851,-0.00219698155967,0.999351710445,-0.0059860486506,-0.0354708418267,0.00146472929584
1573178454529284990,0,1573178454240691304,rig,cam0,3.00433967656e-24,1.90504496955e-23,-2.80784167037e-24,-3.63804605959e-23,1.36198444564e-23,-7.5636805735e-24,1.0
1573178454752941853,0,1573178454468065884,map,grasp_lab,-1.60553873878e-19,6.59954121951e-19,6.46955103915e-20,3.48145137929e-21,5.68885637371e-22,-1.37732367113e-21,1.0
1573178454752965817,0,1573178454468065884,grasp_lab,tag_7,0.469,-0.018,-2.54,-5.85687054411e-21,-9.66138280489e-22,-3.41131567438e-21,1.0
1573178454752973395,0,1573178454468065884,grasp_lab,tag_8,-0.855700636422,-0.00388845550154,-1.21614040291,0.00251564070154,0.0344897936056,-0.00525021119763,0.999388093271
1573178454752983304,0,1573178454468065884,grasp_lab,tag_14,-1.21993572023,0.0379972051614,-3.06844253003,0.00234440587609,0.0403838352879,0.00207210097467,0.999179341263
1573178454752988939,0,1573178454468065884,grasp_lab,tag_9,-0.646002996505,0.0238514068894,-3.11423439995,0.010252904921,0.0387584683349,-0.0202502491303,0.998990783983
1573178454752998155,0,1573178454468065884,map,rig,0.00324493964248,0.00344540414591,-0.00222436286315,0.999353367944,-0.00598894258188,-0.0354220468077,0.00150237997284
1573178454753007488,0,1573178454468065884,rig,cam0,4.63227553179e-24,2.04187533661e-23,-3.45020451633e-24,-3.87962693817e-23,1.3793284724e-23,-7.16812513273e-24,1.0
1573178454963102535,0,1573178454657764351,map,grasp_lab,-1.6334589026e-19,7.19139259882e-19,6.05590090102e-20,3.47926671887e-21,7.23654252642e-22,-1.5727241739e-21,1.0
1573178454963117299,0,1573178454657764351,grasp_lab,tag_7,0.469,-0.018,-2.54,-6.1658234074e-21,-1.11169407013e-21,-4.1467274059e-21,1.0
1573178454963123086,0,1573178454657764351,grasp_lab,tag_8,-0.855670363729,-0.00408857213245,-1.21609646995,0.00259474616667,0.0345005334334,-0.00524026799939,0.999387572505
1573178454963127983,0,1573178454657764351,grasp_lab,tag_14,-1.21994476588,0.0380228044327,-3.06835907719,0.00236379518262,0.0403749725565,0.00209630310462,0.999179603263
1573178454963132583,0,1573178454657764351,grasp_lab,tag_9,-0.646023674777,0.0238965429439,-3.11420137732,0.0103974406088,0.038789729763,-0.0202433900536,0.998988215773
1573178454963136898,0,1573178454657764351,map,rig,0.00327710177622,0.00310159692742,-0.00227450160086,0.99935332927,-0.00595755597535,-0.035431347093,0.00143193807109
1573178454963147076,0,1573178454657764351,rig,cam0,4.67753279339e-24,1.95576413554e-23,-3.43318745581e-24,-3.09464839783e-23,1.39167543706e-23,-7.16066993411e-24,1.0
1573178455183524477,0,1573178454894167039,map,grasp_lab,-1.81956064725e-19,6.65553144219e-19,7.01851422137e-20,3.27266315928e-21,7.08457544547e-22,-1.30747556218e-21,1.0
1573178455183537513,0,1573178454894167039,grasp_lab,tag_7,0.469,-0.018,-2.54,-4.87917818726e-21,-6.91212406692e-22,-3.39955992072e-21,1.0
1573178455183543842,0,1573178454894167039,grasp_lab,tag_8,-0.855694265035,-0.00395720458385,-1.21611932003,0.00253948960511,0.0344993131487,-0.00523528568912,0.999387782679
1573178455183547854,0,1573178454894167039,grasp_lab,tag_14,-1.21995099242,0.0379575964879,-3.06842512193,0.00234066977424,0.0403846244157,0.00210384241743,0.999179251798
1573178455183556372,0,1573178454894167039,grasp_lab,tag_9,-0.646014527729,0.0238304498739,-3.11421334354,0.0103414834079,0.0387505733079,-0.0202386239087,0.998990412813
1573178455183564853,0,1573178454894167039,map,rig,0.00321689606047,0.00333638710767,-0.00224671192487,0.999353637934,-0.00597186574026,-0.035418051516,0.00148485494753
1573178455183571346,0,1573178454894167039,rig,cam0,4.47968978633e-24,1.94959680597e-23,-3.35442048629e-24,-2.99637469466e-23,1.57821504452e-23,-7.0908427336e-24,1.0
1573178455393667378,0,1573178455127848369,map,grasp_lab,-1.93477028729e-19,6.19226998516e-19,7.24394607804e-20,4.13371755722e-21,7.4402454479e-22,-1.63418636422e-21,1.0
1573178455397731846,0,1573178455127848369,grasp_lab,tag_7,0.469,-0.018,-2.54,-3.98759904288e-21,-7.67432012366e-22,-4.1415460857e-21,1.0
1573178455397814644,0,1573178455127848369,grasp_lab,tag_8,-0.855830172535,-0.00404900579861,-1.21628328325,0.00256106053788,0.0344266262305,-0.0052318159017,0.999390252343
1573178455397870097,0,1573178455127848369,grasp_lab,tag_14,-1.21988963612,0.0379931829252,-3.06863105218,0.00240097351682,0.0403335689609,0.0021009161277,0.999181177111
1573178455397887362,0,1573178455127848369,grasp_lab,tag_9,-0.645949524375,0.0238685075812,-3.11436787613,0.0103524448833,0.0387047029695,-0.0202211635383,0.998992431102
1573178455397924076,0,1573178455127848369,map,rig,0.00294971120868,0.0031992672368,-0.00227564038512,0.999355640487,-0.00596984806299,-0.0353629933541,0.00145720354405
1573178455397968605,0,1573178455127848369,rig,cam0,6.80762694165e-24,2.09497092447e-23,-2.80921317528e-24,-3.23663406309e-23,1.52221530986e-23,-7.57978949914e-24,1.0
1573178455635181102,0,1573178455342172914,map,grasp_lab,-1.82758478165e-19,5.64767244004e-19,6.89963296653e-20,5.120317475e-21,5.96242225212e-22,-2.01250374399e-21,1.0
1573178455635196356,0,1573178455342172914,grasp_lab,tag_7,0.469,-0.018,-2.54,-3.5979229751e-21,-6.67664878425e-22,-3.50799667682e-21,1.0
1573178455635208496,0,1573178455342172914,grasp_lab,tag_8,-0.855769402585,-0.0041196641503,-1.21619815189,0.00258621923316,0.0344433021154,-0.00523671929557,0.999389587288
1573178455635214277,0,1573178455342172914,grasp_lab,tag_14,-1.2199167198,0.0380398733581,-3.06853367715,0.00241920717393,0.0403712007642,0.00209898806846,0.999179617403
1573178455635271780,0,1573178455342172914,grasp_lab,tag_9,-0.645980385961,0.0239133337547,-3.11430324523,0.0103821794704,0.0387722871111,-0.0202253503551,0.998989417013
1573178455635278559,0,1573178455342172914,map,rig,0.00316393617024,0.00302307955989,-0.00223533130213,0.999354201546,-0.00596841013195,-0.0354054174237,0.00141927818957
1573178455635284156,0,1573178455342172914,rig,cam0,4.54209294935e-24,2.15124134094e-23,-3.13814139927e-24,-3.5848371043e-23,1.39918773955e-23,-7.02983180267e-24,1.0
1573178455850309568,0,1573178455561083462,map,grasp_lab,-1.76618423433e-19,6.7462847477e-19,7.74058237391e-20,6.0795597566e-21,5.89375364444e-22,-2.22958368101e-21,1.0
1573178455850391224,0,1573178455561083462,grasp_lab,tag_7,0.469,-0.018,-2.54,-5.21667968236e-21,-8.28102206815e-22,-4.7077485648e-21,1.0
1573178455850401762,0,1573178455561083462,grasp_lab,tag_8,-0.855779534727,-0.00441975227247,-1.21621190343,0.00267643106808,0.0344283297811,-0.00522160958981,0.999389944726
1573178455850406077,0,1573178455561083462,grasp_lab,tag_14,-1.21991428491,0.038103531176,-3.06854229199,0.00253937721723,0.0403867610164,0.00210975632924,0.99917866772
1573178455850409804,0,1573178455561083462,grasp_lab,tag_9,-0.645976699867,0.0240022700042,-3.11430967061,0.0104805679272,0.0387449802084,-0.0202114720361,0.998989729979
1573178455850427797,0,1573178455561083462,map,rig,0.00313924389527,0.00252834247327,-0.00223926195365,0.999354693569,-0.00594308985884,-0.035399528525,0.00132268837638
1573178455850439002,0,1573178455561083462,rig,cam0,4.04581101714e-24,2.70009483196e-23,-3.51457344153e-24,-4.0367154097e-23,1.44300167809e-23,-6.0067818399e-24,1.0
1573178456067692701,0,1573178455790127945,map,grasp_lab,-1.69795957133e-19,6.47917255865e-19,7.50279933152e-20,5.10861161714e-21,6.81804041184e-22,-2.34274775471e-21,1.0
1573178456067715413,0,1573178455790127945,grasp_lab,tag_7,0.469,-0.018,-2.54,-4.01225719315e-21,-3.86690679477e-22,-4.22488710683e-21,1.0
1573178456067725620,0,1573178455790127945,grasp_lab,tag_8,-0.855794309472,-0.00426201730527,-1.21623167694,0.00261473208983,0.0344119518701,-0.00522871114666,0.999390634999
1573178456067731244,0,1573178455790127945,grasp_lab,tag_14,-1.21990617189,0.0380887083377,-3.06855290802,0.00245479384768,0.0403957745168,0.00209931164071,0.999178536739
1573178456067742697,0,1573178455790127945,grasp_lab,tag_9,-0.645973492846,0.02397076716,-3.11433309028,0.0104384000741,0.038750184473,-0.0202274666187,0.998989645893
1573178456067748447,0,1573178455790127945,map,rig,0.00316576509421,0.00279389792709,-0.00227156589654,0.999354321901,-0.00596511947882,-0.0354042194225,0.00137764099271
1573178456067752245,0,1573178455790127945,rig,cam0,3.21140473503e-24,2.42400728971e-23,-4.01498156413e-24,-3.72545304878e-23,1.37901866813e-23,-5.76028675991e-24,1.0
1573178456290077413,0,1573178456024562502,map,grasp_lab,-1.78789688957e-19,6.09527511024e-19,7.99993375969e-20,4.4507636781e-21,4.44298359699e-22,-2.48326120002e-21,1.0
1573178456290089000,0,1573178456024562502,grasp_lab,tag_7,0.469,-0.018,-2.54,-4.23661646123e-21,-5.28075948297e-22,-3.84945644479e-21,1.0
1573178456290098909,0,1573178456024562502,grasp_lab,tag_8,-0.855790431398,-0.00417474561823,-1.21624224911,0.00257148722595,0.034402935871,-0.00522687774088,0.999391067203
1573178456290104241,0,1573178456024562502,grasp_lab,tag_14,-1.21991936162,0.0380491594111,-3.06858922205,0.0023992412009,0.0404194578986,0.00210971385456,0.999177691991
1573178456290109219,0,1573178456024562502,grasp_lab,tag_9,-0.645974051772,0.0239298552781,-3.11433794935,0.0103451090219,0.0387404627146,-0.0202236710771,0.998991070228
1573178456290114204,0,1573178456024562502,map,rig,0.00328447876628,0.00292880212831,-0.00229465723721,0.999353552552,-0.00597171702478,-0.0354238491807,0.00140232180594
1573178456290118523,0,1573178456024562502,rig,cam0,4.07597875599e-24,2.08116521045e-23,-3.89895145539e-24,-3.51037769415e-23,1.21111728599e-23,-7.8863171779e-24,1.0
1573178456502981327,0,1573178456215524036,map,grasp_lab,-1.54638291264e-19,4.83643318189e-19,5.70376546209e-20,4.65394968244e-21,7.39331796705e-22,-2.18263782725e-21,1.0
1573178456502999295,0,1573178456215524036,grasp_lab,tag_7,0.469,-0.018,-2.54,-4.214156199e-21,-4.7180634294e-22,-3.67264972145e-21,1.0
1573178456503004046,0,1573178456215524036,grasp_lab,tag_8,-0.855715832713,-0.00403941378341,-1.21614069662,0.0025436634919,0.0344064082855,-0.00524438301459,0.999390927161
1573178456503008215,0,1573178456215524036,grasp_lab,tag_14,-1.21995208031,0.0380443393848,-3.06847090768,0.0023405700498,0.0404445006966,0.00210391796001,0.999176830008
1573178456503012106,0,1573178456215524036,grasp_lab,tag_9,-0.64601288308,0.023908850902,-3.11426937603,0.010361261134,0.0388081436705,-0.0202418013697,0.998987908701
1573178456503016076,0,1573178456215524036,map,rig,0.00335791263576,0.00313717651161,-0.00224812103003,0.999352876335,-0.00598537589005,-0.0354387936532,0.00144766753295
1573178456503026067,0,1573178456215524036,rig,cam0,1.62255071243e-24,2.36888043745e-23,-4.7877180778e-24,-3.40644929937e-23,1.33462237779e-23,-8.82210252148e-24,1.0
1573178456689315262,0,1573178456418149757,map,grasp_lab,-1.67371211853e-19,4.94427673317e-19,7.24114016272e-20,3.56705081166e-21,8.31097056143e-22,-2.139632575e-21,1.0
1573178456689327071,0,1573178456418149757,grasp_lab,tag_7,0.469,-0.018,-2.54,-3.82883364005e-21,-6.79562610554e-22,-3.94980008884e-21,1.0
1573178456689331400,0,1573178456418149757,grasp_lab,tag_8,-0.855756040882,-0.00406308665407,-1.21619293052,0.00255001011873,0.0343906024803,-0.00524157776523,0.999391469731
1573178456689335355,0,1573178456418149757,grasp_lab,tag_14,-1.21993719299,0.0380422469699,-3.06854254339,0.0023978670082,0.040440879358,0.00209592023669,0.999176857533
1573178456689339122,0,1573178456418149757,grasp_lab,tag_9,-0.645996368034,0.0239104292969,-3.11433189324,0.0103653444371,0.0388223243199,-0.0202370694254,0.998987411227
1573178456689342858,0,1573178456418149757,map,rig,0.00310374066937,0.00330953985432,-0.00233273830179,0.999354369815,-0.00598390464696,-0.0353960575172,0.00146817187378
1573178456689346795,0,1573178456418149757,rig,cam0,2.64461279975e-24,1.95180807092e-23,-4.14234711662e-24,-3.69929552894e-23,1.37362342528e-23,-7.71800457349e-24,1.0
1573178456887583446,0,1573178456634825574,map,grasp_lab,-1.57613066908e-19,4.23885460331e-19,7.5703760803e-20,4.84838508216e-21,7.24109620534e-22,-1.84690725392e-21,1.0
1573178456887596109,0,1573178456634825574,grasp_lab,tag_7,0.469,-0.018,-2.54,-3.50184777531e-21,-5.47623235819e-22,-3.02057800318e-21,1.0
1573178456887600623,0,1573178456634825574,grasp_lab,tag_8,-0.855735810026,-0.00405761864914,-1.21615958785,0.00255049366416,0.0343747880903,-0.00524536542954,0.999391992697
1573178456887606927,0,1573178456634825574,grasp_lab,tag_14,-1.21994666916,0.0380462124461,-3.06850783173,0.00240895558829,0.0404479238368,0.00208929971275,0.999176559581
1573178456887611295,0,1573178456634825574,grasp_lab,tag_9,-0.646002738979,0.023912117453,-3.11428692502,0.0104211265359,0.0387793913924,-0.0202516702104,0.998988202522
1573178456887615333,0,1573178456634825574,map,rig,0.00336574487914,0.00320741937549,-0.00228649056672,0.999352940861,-0.00596056220843,-0.0354409301718,0.00145318914649
1573178456887619403,0,1573178456634825574,rig,cam0,9.92465020615e-25,1.35142533612e-23,-3.34255547462e-24,-3.72745582912e-23,1.34409081433e-23,-6.60021932393e-24,1.0
1573178457099168279,0,1573178456812661684,map,grasp_lab,-1.60995372114e-19,4.69518321286e-19,6.03133429257e-20,4.31648243557e-21,6.21935590504e-22,-1.86482646071e-21,1.0
1573178457099495620,0,1573178456812661684,grasp_lab,tag_7,0.469,-0.018,-2.54,-4.27569091244e-21,-8.29469826158e-22,-3.60564911261e-21,1.0
1573178457099513837,0,1573178456812661684,grasp_lab,tag_8,-0.85568441547,-0.0040102531083,-1.21607989397,0.00258275736565,0.0343942591879,-0.00524939732912,0.999391218756
1573178457099517829,0,1573178456812661684,grasp_lab,tag_14,-1.21997835037,0.0380331831765,-3.06844458114,0.00241231828296,0.0404821021709,0.00208026584976,0.99917518615
1573178457099521883,0,1573178456812661684,grasp_lab,tag_9,-0.646027658281,0.0238953875161,-3.11421874549,0.0103665950335,0.0387766291732,-0.0202527823441,0.998988854565
1573178457099525731,0,1573178456812661684,map,rig,0.00347770413759,0.00322606494246,-0.00236565568926,0.999351971474,-0.00598614488786,-0.0354635866055,0.00146191832354
1573178457099619371,0,1573178456812661684,rig,cam0,1.41220692271e-24,1.53744760222e-23,-3.78422861703e-24,-3.66502811312e-23,1.29326483e-23,-6.78796636425e-24,1.0
1573178457307772532,0,1573178457029701446,map,grasp_lab,-1.6603532834e-19,3.70153270036e-19,6.1948439697e-20,3.84318107475e-21,6.35450769543e-22,-1.99743858033e-21,1.0
1573178457309146844,0,1573178457029701446,grasp_lab,tag_7,0.469,-0.018,-2.54,-4.51908037708e-21,-8.79135695103e-22,-3.57190044472e-21,1.0
1573178457309154624,0,1573178457029701446,grasp_lab,tag_8,-0.855675962338,-0.00382644898818,-1.21607155546,0.00251975850972,0.0343850494863,-0.00525855261949,0.999391648361
1573178457309161513,0,1573178457029701446,grasp_lab,tag_14,-1.21996569021,0.0379831353633,-3.06839663635,0.00233604780289,0.0404652858602,0.00207235268992,0.999176065003
1573178457311881673,0,1573178457029701446,grasp_lab,tag_9,-0.646032475195,0.023833102054,-3.11421727046,0.0102297183695,0.0388015077539,-0.0202460198491,0.99898943665
1573178457311890761,0,1573178457029701446,map,rig,0.00336927234781,0.00359616470171,-0.00221097357762,0.999352667252,-0.0059734871681,-0.0354432776909,0.00152904326304
1573178457311895012,0,1573178457029701446,rig,cam0,1.15906049151e-24,1.84704189825e-23,-3.9302948086e-24,-4.16313077104e-23,1.21947378532e-23,-5.68085724473e-24,1.0
1573178457605341313,0,1573178457244535110,map,grasp_lab,1.57232549877e-21,-1.58801355141e-21,-5.22575993934e-22,-8.54048736344e-24,1.90137765149e-23,4.14070676819e-23,1.0
1573178457605355666,0,1573178457244535110,grasp_lab,tag_7,0.469,-0.018,-2.54,-8.19562517906e-24,9.06782058904e-23,5.28724949902e-23,1.0
1573178457605361549,0,1573178457244535110,grasp_lab,tag_8,-0.855612860118,-0.00392701347141,-1.21600119137,0.00257676689782,0.0344011489976,-0.00526118561099,0.999390935093
1573178457605365943,0,1573178457244535110,grasp_lab,tag_14,-1.21999042203,0.0380153710809,-3.0683173511,0.00237095044932,0.0404981070459,0.00207181997784,0.999174654143
1573178457605370694,0,1573178457244535110,grasp_lab,tag_9,-0.646053674282,0.0238702725634,-3.11413528649,0.0103012459485,0.0387893330399,-0.0202498577909,0.998989096654
1573178457605374999,0,1573178457244535110,map,rig,0.00341031786332,0.00335795978311,-0.00219156457923,0.999352270327,-0.00598426417755,-0.0354545509644,0.00148431451935
1573178457605379538,0,1573178457244535110,rig,cam0,6.76645126297e-26,7.81652461345e-28,-2.40756469569e-26,1.54868848243e-28,-1.35759608264e-26,-2.73248598714e-29,1.0
1573178457766055610,0,1573178457464724048,map,grasp_lab,4.44544525566e-21,-1.97563451991e-20,4.54220093946e-21,-1.74987706701e-22,-2.26440188161e-23,-1.67402991636e-23,1.0
1573178457766082537,0,1573178457464724048,grasp_lab,tag_7,0.469,-0.018,-2.54,1.75585450881e-22,-5.8143376628e-23,-1.24645994068e-22,1.0
1573178457766205390,0,1573178457464724048,grasp_lab,tag_8,-0.855614673363,-0.00388940178162,-1.21600632763,0.00255664904095,0.0343846934781,-0.0052591750168,0.999391563642
1573178457766349695,0,1573178457464724048,grasp_lab,tag_14,-1.21999107958,0.0379932018996,-3.06833076572,0.00235690801796,0.0405010000111,0.00207477537833,0.999174563973
1573178457766358090,0,1573178457464724048,grasp_lab,tag_9,-0.646051134816,0.0238481641336,-3.11413950928,0.0103443561293,0.0387841215662,-0.0202594713269,0.99898865861
1573178457766373680,0,1573178457464724048,map,rig,0.00344030073742,0.00345157647725,-0.00220524304025,0.99935201611,-0.00597421612378,-0.0354625941811,0.00150367943993
1573178457766381616,0,1573178457464724048,rig,cam0,8.10612934076e-26,-3.7571359206e-25,1.2563888731e-25,8.31748247074e-25,-6.67654448294e-25,4.9700768758e-25,1.0
1573178457978146320,0,1573178457711950796,map,grasp_lab,-1.26574225777e-23,-1.16753429113e-20,-6.75478611504e-21,-1.35827793825e-22,4.12628286452e-23,-2.36861062789e-23,1.0
1573178457978338600,0,1573178457711950796,grasp_lab,tag_7,0.469,-0.018,-2.54,2.69762402411e-23,1.64841103935e-22,-1.08998022e-22,1.0
1573178457985030437,0,1573178457711950796,grasp_lab,tag_8,-0.855520676929,-0.00403042627042,-1.21588233796,0.00260105288589,0.0344075365009,-0.00524960595847,0.999390713181
1573178457985130807,0,1573178457711950796,grasp_lab,tag_14,-1.22002875007,0.0380303713438,-3.06817621786,0.00238644236778,0.0405352037143,0.00208704605007,0.999173081298
1573178457985177197,0,1573178457711950796,grasp_lab,tag_9,-0.646094450987,0.0238947218246,-3.11403135722,0.010371626463,0.0388364523726,-0.0202458832108,0.998986618301
1573178457985213272,0,1573178457711950796,map,rig,0.00357839613071,0.00319945111021,-0.00214385103417,0.999351092918,-0.00596238466927,-0.0354926795632,0.0014535301263
1573178457985226642,0,1573178457711950796,rig,cam0,-5.60923983215e-25,-1.77848604321e-24,1.79613585989e-25,4.78449263098e-24,1.0039400204e-24,-2.8106342879e-25,1.0
1573178458207409993,0,1573178457933713026,map,grasp_lab,-2.29919770898e-20,2.71578469183e-20,-1.11595679593e-20,1.98543427099e-23,1.26621616621e-22,-4.52776037242e-22,1.0
1573178458207422822,0,1573178457933713026,grasp_lab,tag_7,0.469,-0.018,-2.54,-4.3076073008e-22,1.00587399856e-23,-3.10496757221e-22,1.0
1573178458207738328,0,1573178457933713026,grasp_lab,tag_8,-0.855463045097,-0.00396941278297,-1.21581251966,0.00257076289034,0.034429132539,-0.00525328067079,0.999390028494
1573178458207753043,0,1573178457933713026,grasp_lab,tag_14,-1.22005771661,0.0380156664638,-3.06811117178,0.00234728629687,0.0405577205637,0.00207975699363,0.999172275516
1573178458207757149,0,1573178457933713026,grasp_lab,tag_9,-0.646116819548,0.0238756497498,-3.11395926273,0.0103607748234,0.0387977599329,-0.0202536611933,0.998988076694
1573178458207763477,0,1573178457933713026,map,rig,0.00362860706996,0.00327847793471,-0.00210824471681,0.999350585298,-0.00597101880602,-0.035504955074,0.00146722991644
1573178458207767155,0,1573178457933713026,rig,cam0,1.53875071925e-24,-5.75233454839e-24,7.68150151376e-25,5.88076818998e-24,7.34459414752e-25,5.18293505738e-25,1.0
1573178458413049591,0,1573178458155531752,map,grasp_lab,4.94713431824e-21,-1.09172511088e-19,2.87085249333e-21,1.92479730239e-22,2.88101077088e-22,2.55118080017e-22,1.0
1573178458413060496,0,1573178458155531752,grasp_lab,tag_7,0.469,-0.018,-2.54,-4.93917862363e-22,4.28694929778e-22,-1.55273457458e-22,1.0
1573178458413064488,0,1573178458155531752,grasp_lab,tag_8,-0.855526823758,-0.00387215650604,-1.21590288593,0.00255537483065,0.0344068085404,-0.00526495110541,0.99939077536
1573178458413068354,0,1573178458155531752,grasp_lab,tag_14,-1.22002024138,0.0380133451877,-3.06821186915,0.00237508788097,0.0405246899098,0.00206294697796,0.999173584877
1573178458413072295,0,1573178458155531752,grasp_lab,tag_9,-0.646080647836,0.0238612584189,-3.11403476475,0.01030558957,0.0387687343071,-0.0202609139808,0.998989627288
1573178458413083599,0,1573178458155531752,map,rig,0.00339760713587,0.00342364797004,-0.00216287492382,0.999352028643,-0.00599482177553,-0.035459034135,0.00149728346053
1573178458413089588,0,1573178458155531752,rig,cam0,1.20257266998e-25,-1.28884763155e-23,3.60707407227e-25,1.77532549506e-23,1.52455750935e-24,3.87693800146e-27,1.0
1573178458621062118,0,1573178458341215695,map,grasp_lab,3.56596967891e-21,-9.93805103547e-20,-2.46350289034e-21,6.47797005581e-22,2.08416368923e-22,9.2656208126e-23,1.0
1573178458624123114,0,1573178458341215695,grasp_lab,tag_7,0.469,-0.018,-2.54,-2.5892839306e-22,2.06629898582e-22,9.97683155503e-23,1.0
1573178458624133336,0,1573178458341215695,grasp_lab,tag_8,-0.855490931467,-0.0039443313246,-1.21585311655,0.00259065074074,0.0344246814207,-0.00526319406483,0.999390078311
1573178458624145333,0,1573178458341215695,grasp_lab,tag_14,-1.22002255795,0.0380410756646,-3.06811399494,0.0023879227365,0.0405084410228,0.00207646763758,0.999174185171
1573178458624279381,0,1573178458341215695,grasp_lab,tag_9,-0.646101238774,0.023892252634,-3.11400096917,0.0103475790416,0.0388329034784,-0.0202619598411,0.99898667969
1573178458624317787,0,1573178458341215695,map,rig,0.00355763774463,0.00328154920773,-0.00211271415075,0.999351000875,-0.00600093294104,-0.0354882729807,0.00146571999259
1573178458624373233,0,1573178458341215695,rig,cam0,1.9902747241e-24,-4.76497222624e-24,1.98183528683e-25,5.47628398623e-24,1.13619486797e-24,-1.44021636488e-25,1.0
1573178458835085289,0,1573178458567457499,map,grasp_lab,-7.78790966289e-21,-2.21845128355e-19,-6.97854431292e-21,1.44478193615e-21,7.14675080865e-23,2.7014704779e-22,1.0
1573178458835104182,0,1573178458567457499,grasp_lab,tag_7,0.469,-0.018,-2.54,6.23143908473e-22,3.73605313347e-22,2.68585410032e-22,1.0
1573178458835258871,0,1573178458567457499,grasp_lab,tag_8,-0.855431975659,-0.00384298956678,-1.21578050081,0.00255783173707,0.0344563310324,-0.00526387304844,0.999389068576
1573178458835329633,0,1573178458567457499,grasp_lab,tag_14,-1.22004824486,0.0380001493189,-3.06801899231,0.00238174536486,0.0405211529157,0.00207019743888,0.999173697481
1573178458835400687,0,1573178458567457499,grasp_lab,tag_9,-0.646124297345,0.0238475583108,-3.11390301718,0.0104272461223,0.0387982568484,-0.0202833999012,0.998986762421
1573178458835543916,0,1573178458567457499,map,rig,0.00361943984645,0.00348911272231,-0.00208475293597,0.999350554973,-0.00598993956966,-0.03550077032,0.00151135890401
1573178458835552790,0,1573178458567457499,rig,cam0,2.15421250597e-24,-6.4525724883e-24,6.71569291638e-25,-1.22442898708e-24,2.85560344745e-24,-1.8801701767e-24,1.0
1573178459052546672,0,1573178458787194454,map,grasp_lab,-1.88533965084e-20,-3.51560580228e-19,-3.30358638184e-21,1.72758009339e-21,1.45945704867e-22,2.21333550485e-22,1.0
1573178459055908974,0,1573178458787194454,grasp_lab,tag_7,0.469,-0.018,-2.54,1.25968195835e-21,2.01881219181e-22,2.21014280732e-22,1.0
1573178459055919584,0,1573178458787194454,grasp_lab,tag_8,-0.855445704146,-0.00390583900215,-1.21579593135,0.00257064935152,0.0344553982459,-0.00525675139149,0.999389105333
1573178459055923625,0,1573178458787194454,grasp_lab,tag_14,-1.22004053131,0.0380168989603,-3.06802320509,0.00239231002796,0.0405085013406,0.00207064310975,0.999174184319
1573178459055927512,0,1573178458787194454,grasp_lab,tag_9,-0.646117809822,0.0238682740719,-3.11390095439,0.0104380463856,0.0387663165458,-0.0202815423714,0.998987927319
1573178459055931308,0,1573178458787194454,map,rig,0.00354993721988,0.00337922057313,-0.00204260297899,0.999350986066,-0.00598738180291,-0.0354900639352,0.00148770604319
1573178459055996671,0,1573178458787194454,rig,cam0,2.42212458413e-24,-2.19027325181e-24,3.98021478758e-25,2.28609822754e-24,2.97998683636e-24,-5.24604467524e-25,1.0
1573178459261004624,0,1573178458997906344,map,grasp_lab,-1.30823999043e-20,-4.15245682691e-19,-1.29118285393e-20,1.86000271594e-21,1.91801928311e-22,5.00754637628e-22,1.0
1573178459261247204,0,1573178458997906344,grasp_lab,tag_7,0.469,-0.018,-2.54,1.82579864969e-21,3.43364884309e-22,8.86892151285e-23,1.0
1573178459261379961,0,1573178458997906344,grasp_lab,tag_8,-0.855388979646,-0.00382619045119,-1.2157332225,0.00253965156208,0.0344953442151,-0.00525636012038,0.999387808649
1573178459261506885,0,1573178458997906344,grasp_lab,tag_14,-1.22005848983,0.0379943231365,-3.06792590734,0.00236384168981,0.0405301930099,0.00206559205557,0.99917338287
1573178459261638560,0,1573178458997906344,grasp_lab,tag_9,-0.646143654059,0.0238408752894,-3.11383814209,0.0104138394348,0.0387530729976,-0.0202847949769,0.99898862775
1573178459261818873,0,1573178458997906344,map,rig,0.00365736825901,0.00352070385116,-0.00208022682185,0.999350086157,-0.00598579367268,-0.035514459773,0.00151615301664
1573178459261931933,0,1573178458997906344,rig,cam0,2.9446487815e-24,-1.65138609056e-25,6.98860634038e-25,3.725046365e-24,3.6487815955e-24,5.10301791295e-25,1.0
1573178459471567512,0,1573178459182536421,map,grasp_lab,-2.90980250717e-20,-3.99155577597e-19,-1.26539681838e-20,1.57372017792e-21,1.05170436447e-22,4.08974993906e-22,1.0
1573178459471584685,0,1573178459182536421,grasp_lab,tag_7,0.469,-0.018,-2.54,1.35124033014e-21,1.3496105445e-22,2.61645240386e-22,1.0
1573178459471590973,0,1573178459182536421,grasp_lab,tag_8,-0.855392828634,-0.00379498607816,-1.21574678337,0.00253315424581,0.0345001980383,-0.00525572250093,0.999387660943
1573178459471597134,0,1573178459182536421,grasp_lab,tag_14,-1.22005233009,0.0379771478866,-3.06794068676,0.00236319477543,0.0405374429381,0.0020708995159,0.999173079304
1573178459471601542,0,1573178459182536421,grasp_lab,tag_9,-0.646140925613,0.0238241244656,-3.11386369051,0.0102985987575,0.0387418493802,-0.0202708088575,0.998990541636
1573178459471605880,0,1573178459182536421,map,rig,0.00363154571808,0.00357355123513,-0.00205153808667,0.999350329124,-0.00599609691762,-0.0355053509612,0.00152857951041
1573178459471653263,0,1573178459182536421,rig,cam0,3.09442839499e-24,1.47185690191e-24,4.00539673852e-25,8.89371276913e-24,3.74973018014e-24,5.66117654644e-25,1.0
1573178459690962357,0,1573178459400753362,map,grasp_lab,-2.90686587254e-20,-4.28038969582e-19,-1.27452085974e-20,1.46798051238e-21,3.94673030831e-23,1.25884583844e-22,1.0
1573178459691075790,0,1573178459400753362,grasp_lab,tag_7,0.469,-0.018,-2.54,1.53812621828e-21,1.42389843379e-22,2.4357595759e-22,1.0
1573178459691086467,0,1573178459400753362,grasp_lab,tag_8,-0.855373957369,-0.00374041359992,-1.21572771823,0.00253123078222,0.0345269365551,-0.00525907073682,0.999386724796
1573178459691090657,0,1573178459400753362,grasp_lab,tag_14,-1.22005362707,0.0379664489651,-3.06789508973,0.00234276578693,0.0405484651604,0.00206872200552,0.99917268468
1573178459691094801,0,1573178459400753362,grasp_lab,tag_9,-0.646152724141,0.0238092662641,-3.11385597672,0.0102870461224,0.0387532134274,-0.0202756652352,0.998990121338
1573178459691098962,0,1573178459400753362,map,rig,0.00359815408448,0.00366568894064,-0.00205672242208,0.999350468845,-0.00598442326643,-0.0355028506645,0.0015410035647
1573178459691190231,0,1573178459400753362,rig,cam0,3.29862068233e-24,4.84514363693e-24,3.51283916282e-25,1.19851631635e-23,3.78975673752e-24,2.43817374024e-25,1.0
1573178459900251052,0,1573178459614584145,map,grasp_lab,-2.91536421759e-20,-3.70505663639e-19,-1.01676266802e-20,1.30846554879e-21,7.17830734608e-23,2.7283396285e-22,1.0
1573178459900267152,0,1573178459614584145,grasp_lab,tag_7,0.469,-0.018,-2.54,-4.88738119689e-22,2.23504345212e-22,1.95732545526e-22,1.0
1573178459900283722,0,1573178459614584145,grasp_lab,tag_8,-0.855332824756,-0.00393694341395,-1.21568748079,0.00260822595187,0.0345594272911,-0.00524839276311,0.999385459928
1573178459900305051,0,1573178459614584145,grasp_lab,tag_14,-1.22007274582,0.0380146850405,-3.06784589754,0.00239770835856,0.0405821923244,0.00207994496935,0.999171161758
1573178459900313705,0,1573178459614584145,grasp_lab,tag_9,-0.646170428342,0.0238710169516,-3.11382036158,0.0103998918797,0.0387414983223,-0.0202707248238,0.998989507588
1573178459900321318,0,1573178459614584145,map,rig,0.0036235832116,0.00331222903661,-0.00205709963556,0.999350263286,-0.00600307517582,-0.035508153637,0.00147830433477
1573178459900325788,0,1573178459614584145,rig,cam0,4.40451264779e-24,-1.15796130221e-25,8.54662431915e-25,5.85883510127e-24,3.42883682773e-24,1.37186823171e-24,1.0
1573178460104521541,0,1573178459828050213,map,grasp_lab,-1.05757626276e-20,-5.59168433231e-19,-1.24000188433e-20,4.29633044497e-21,1.13108627156e-22,8.62074193036e-23,1.0
1573178460106005449,0,1573178459828050213,grasp_lab,tag_7,0.469,-0.018,-2.54,4.07067494945e-21,3.71342586516e-22,4.52197512487e-22,1.0
1573178460106014760,0,1573178459828050213,grasp_lab,tag_8,-0.855339601182,-0.0038073061439,-1.21569918123,0.0025767520011,0.0345822534669,-0.00525322695547,0.99938472657
1573178460106034031,0,1573178459828050213,grasp_lab,tag_14,-1.22007537825,0.0379859763191,-3.06786109823,0.00239992437852,0.0405848952429,0.00205873187131,0.999171090587
1573178460106039762,0,1573178459828050213,grasp_lab,tag_9,-0.646172855208,0.0238324498098,-3.11384107218,0.0103909238748,0.0387695900242,-0.0202766613351,0.998988390621
1573178460106045401,0,1573178459828050213,map,rig,0.00364043794593,0.00360647559859,-0.00200677532267,0.999349965579,-0.00598591152715,-0.0355170893302,0.00153346835177
1573178460106057989,0,1573178459828050213,rig,cam0,3.66118461906e-24,-3.04607696586e-24,7.17973201469e-25,1.44797821899e-23,5.60499426063e-24,1.90230728233e-25,1.0
1573178460316140781,0,1573178460054609527,map,grasp_lab,-2.46444691083e-20,-4.54639707947e-19,-3.00058193904e-20,3.54859732477e-21,2.22974048424e-22,3.98746583582e-22,1.0
1573178460316153561,0,1573178460054609527,grasp_lab,tag_7,0.469,-0.018,-2.54,3.00429672659e-21,2.58687777368e-22,7.80176873358e-22,1.0
1573178460316195261,0,1573178460054609527,grasp_lab,tag_8,-0.85529851719,-0.00382552874276,-1.21566096658,0.00260733033809,0.0346225322528,-0.00525588123929,0.999383238703
1573178460316237189,0,1573178460054609527,grasp_lab,tag_14,-1.22009456526,0.0380026436952,-3.06781611718,0.0024201876675,0.0405976430948,0.00205760827338,0.999170526144
1573178460316275274,0,1573178460054609527,grasp_lab,tag_9,-0.646190488258,0.0238465660876,-3.11380551813,0.010489690504,0.0387694228368,-0.0202856941027,0.99898718153
1573178460316297753,0,1573178460054609527,map,rig,0.00366513514957,0.00347813905565,-0.00201431178667,0.999349859676,-0.00600362494572,-0.0355181691648,0.00150801620637
1573178460316322085,0,1573178460054609527,rig,cam0,4.94435570615e-24,9.70298262912e-24,7.9018285836e-25,2.28320808336e-23,6.62779479903e-24,1.08494577472e-24,1.0
1573178460554346156,0,1573178460255437897,map,grasp_lab,-3.14227115891e-20,-4.5325169416e-19,-3.76410182417e-20,3.94851864419e-21,5.44776236954e-23,4.83355023777e-22,1.0
1573178460554618749,0,1573178460255437897,grasp_lab,tag_7,0.469,-0.018,-2.54,2.60659987924e-21,3.33441791098e-23,1.10863284513e-21,1.0
1573178460554823801,0,1573178460255437897,grasp_lab,tag_8,-0.855262014813,-0.00397827914683,-1.21562127112,0.00267022566892,0.0346548267142,-0.00524872402171,0.999381990921
1573178460554834775,0,1573178460255437897,grasp_lab,tag_14,-1.22011217953,0.0380487046201,-3.0677749473,0.0024822654328,0.0406123877009,0.00205962632984,0.999169770491
1573178460554945620,0,1573178460255437897,grasp_lab,tag_9,-0.646207360049,0.0239010572053,-3.11377962537,0.0105525953392,0.0387911480757,-0.0202869712626,0.998985649727
1573178460555000312,0,1573178460255437897,map,rig,0.00364568404139,0.00320059296258,-0.00206704774255,0.999350044853,-0.00598898712205,-0.035517729178,0.00145285916496
1573178460555065434,0,1573178460255437897,rig,cam0,4.01950399988e-24,1.62963280188e-23,7.80247123944e-25,1.60665726494e-23,1.7596558639e-24,3.86936641594e-24,1.0
1573178460784565848,0,1573178460467295381,map,grasp_lab,1.80007437051e-21,-4.14431655587e-19,-3.31994578396e-20,3.89821177645e-21,-7.62799521348e-23,4.20797584264e-22,1.0
1573178460784578157,0,1573178460467295381,grasp_lab,tag_7,0.469,-0.018,-2.54,1.95254705415e-21,4.50258351179e-23,9.68762081385e-22,1.0
1573178460784582778,0,1573178460467295381,grasp_lab,tag_8,-0.855230017586,-0.0040000388978,-1.21559686102,0.00269732531253,0.0346915349419,-0.00525007788236,0.999380637456
1573178460784675974,0,1573178460467295381,grasp_lab,tag_14,-1.22011953243,0.038059852895,-3.06772837941,0.00247028571213,0.0406195928132,0.00205725716128,0.999169512176
1573178460784802492,0,1573178460467295381,grasp_lab,tag_9,-0.646221410404,0.0239120207634,-3.11376240738,0.0105836919045,0.0387997557283,-0.0202877926754,0.998984969802
1573178460784881319,0,1573178460467295381,map,rig,0.00383255949222,0.0031679545811,-0.00198741840473,0.999348886892,-0.00598824045894,-0.0355505579877,0.00144950697238
1573178460784889501,0,1573178460467295381,rig,cam0,4.85612171344e-24,2.01349860362e-23,5.2621042691e-25,1.17244942995e-23,2.41568723337e-24,3.96622990934e-24,1.0
1573178461012579440,0,1573178460707836618,map,grasp_lab,-1.99135621865e-20,-4.5502554721e-19,-4.01049867153e-20,5.05240483041e-21,2.38834676389e-22,9.60462663953e-23,1.0
1573178461012591045,0,1573178460707836618,grasp_lab,tag_7,0.469,-0.018,-2.54,2.91990657997e-21,-9.86359121961e-24,9.39629829219e-22,1.0
1573178461012600177,0,1573178460707836618,grasp_lab,tag_8,-0.855165096903,-0.00399649272574,-1.21552761027,0.00270509459067,0.0347403365421,-0.00525153060147,0.999378913579
1573178461012605757,0,1573178460707836618,grasp_lab,tag_14,-1.22015404362,0.0380705223066,-3.06765677101,0.00253531955977,0.0406502693004,0.00203936380018,0.999168138381
1573178461012610482,0,1573178460707836618,grasp_lab,tag_9,-0.646249697996,0.0239194357913,-3.11369525615,0.0106234613809,0.0388156497217,-0.0202954962231,0.998983773761
1573178461012616058,0,1573178460707836618,map,rig,0.00387816961859,0.00319250449775,-0.00203550299152,0.999348352192,-0.00599467895118,-0.0355644084835,0.00145177267906
1573178461012628836,0,1573178460707836618,rig,cam0,6.0276848789e-24,2.03768658355e-23,1.86085841949e-24,1.14028177856e-23,5.04306872817e-24,4.2454747604e-24,1.0
1573178461235095324,0,1573178460935539090,map,grasp_lab,-7.64044555842e-21,-2.72393401778e-19,-3.54457198403e-20,2.85629888525e-21,2.03213037259e-22,9.53204923609e-22,1.0
1573178461235109219,0,1573178460935539090,grasp_lab,tag_7,0.469,-0.018,-2.54,5.1476382834e-22,8.86353955251e-23,1.93154748834e-21,1.0
1573178461235114794,0,1573178460935539090,grasp_lab,tag_8,-0.855171598877,-0.00423287826654,-1.21553286729,0.00279982279163,0.034764096727,-0.00523711721395,0.999377902084
1573178461235120165,0,1573178460935539090,grasp_lab,tag_14,-1.22015782814,0.038118860198,-3.06765714584,0.00258060585112,0.0406444553476,0.00206536528693,0.999168205554
1573178461235131903,0,1573178460935539090,grasp_lab,tag_9,-0.64624810437,0.0239862033376,-3.11368029349,0.0107453152479,0.0388193169627,-0.0202822012798,0.998982598018
1573178461235136569,0,1573178460935539090,map,rig,0.00395962336381,0.00278631879276,-0.00192633592742,0.999348119134,-0.00598320290486,-0.0355758723604,0.00137672520738
1573178461235141045,0,1573178460935539090,rig,cam0,6.31486151344e-24,1.33221878277e-23,1.68740126624e-24,1.49866406489e-23,6.55944231042e-24,9.04611227144e-24,1.0
1573178461447243013,0,1573178461158507521,map,grasp_lab,-4.11820130529e-20,-2.07405833371e-19,-1.13526365638e-20,2.85778450304e-21,4.4957344579e-22,7.72500743897e-22,1.0
1573178461447374947,0,1573178461158507521,grasp_lab,tag_7,0.469,-0.018,-2.54,1.14239436482e-21,3.74306664958e-22,1.27530344291e-21,1.0
1573178461447384180,0,1573178461158507521,grasp_lab,tag_8,-0.855095824147,-0.00407310744605,-1.21545761698,0.00275444334856,0.0348091504026,-0.00524424935098,0.999376422545
1573178461447461599,0,1573178461158507521,grasp_lab,tag_14,-1.22018661761,0.0380960514193,-3.06756162897,0.00251443512759,0.0406625275025,0.00206339351466,0.999167643031
1573178461447569422,0,1573178461158507521,grasp_lab,tag_9,-0.646278429756,0.0239478681502,-3.11360514534,0.0106994351605,0.0388372066392,-0.020302737775,0.998981977969
1573178461447651521,0,1573178461158507521,map,rig,0.00410051680868,0.00306950977082,-0.00196817338062,0.99934702652,-0.00598789245776,-0.0356037637438,0.00142749332342
1573178461447707679,0,1573178461158507521,rig,cam0,6.99044533693e-24,1.03726492941e-23,1.90907814972e-24,4.14479811225e-24,9.62471404469e-24,9.07399509043e-24,1.0
1573178461649853209,0,1573178461394741878,map,grasp_lab,-1.22331960423e-20,-2.55450144897e-19,-1.25594107217e-20,1.95746915172e-21,2.12033009642e-22,8.10165552304e-22,1.0
1573178461649873323,0,1573178461394741878,grasp_lab,tag_7,0.469,-0.018,-2.54,-1.31474789833e-22,2.36694738089e-22,1.43843082972e-21,1.0
1573178461649878845,0,1573178461394741878,grasp_lab,tag_8,-0.855103102035,-0.00399096609899,-1.21546139284,0.00271252297075,0.0348377061504,-0.00524436834974,0.999375541551
1573178461649884563,0,1573178461394741878,grasp_lab,tag_14,-1.22018830453,0.0380833130652,-3.06756729409,0.00248370488083,0.0406606962004,0.00206017680529,0.999167801056
1573178461649889624,0,1573178461394741878,grasp_lab,tag_9,-0.646276703262,0.0239276822142,-3.11359836761,0.0106653707871,0.038838550757,-0.0203080300405,0.998982182402
1573178461649893808,0,1573178461394741878,map,rig,0.00404389690861,0.0032102250588,-0.00203202431062,0.999347212398,-0.00599070801048,-0.0355969623631,0.00145490936378
1573178461649909156,0,1573178461394741878,rig,cam0,6.31049379116e-24,1.87933579855e-23,1.66061489146e-24,2.1282777843e-23,6.63048036954e-24,9.36268101665e-24,1.0
1573178461861049962,0,1573178461575001827,map,grasp_lab,-3.72225991051e-20,-1.972982441e-19,-1.49777298635e-20,2.57288557489e-21,-8.03005765598e-24,9.89755711495e-22,1.0
1573178461861149938,0,1573178461575001827,grasp_lab,tag_7,0.469,-0.018,-2.54,3.32978149664e-22,-4.14178967336e-22,1.73837914252e-21,1.0
1573178461861159810,0,1573178461575001827,grasp_lab,tag_8,-0.855082234527,-0.00411409557828,-1.21544446127,0.00274395672345,0.0348720670764,-0.00523890603417,0.999374285992
1573178461861215926,0,1573178461575001827,grasp_lab,tag_14,-1.22019273397,0.0381209603618,-3.06752573644,0.0025124982488,0.0406553114545,0.00206502365956,0.999167938177
1573178461861346528,0,1573178461575001827,grasp_lab,tag_9,-0.646284948837,0.0239720790827,-3.11357357778,0.0107886584703,0.0388180247899,-0.0203049433737,0.998981719089
1573178461861354788,0,1573178461575001827,map,rig,0.00411085188845,0.00293085679269,-0.00202100218314,0.999346936518,-0.00598460978273,-0.0356079287141,0.00140011769853
1573178461861433393,0,1573178461575001827,rig,cam0,9.52925132589e-24,1.52639556241e-23,2.9068739326e-24,2.45594853713e-23,4.85561384262e-24,1.01922925461e-23,1.0
1573178462068143991,0,1573178461795212429,map,grasp_lab,8.52099074369e-21,-1.57913778056e-19,-2.89354507764e-20,1.84747218072e-21,-2.52872128084e-22,7.92982269766e-22,1.0
1573178462068163350,0,1573178461795212429,grasp_lab,tag_7,0.469,-0.018,-2.54,-9.08351702496e-22,-4.03071229869e-22,8.49143797721e-22,1.0
1573178462068238474,0,1573178461795212429,grasp_lab,tag_8,-0.8550324546,-0.00398537707633,-1.21539136942,0.0027099062058,0.0349041048242,-0.00524877626493,0.999373208678
1573178462068303591,0,1573178461795212429,grasp_lab,tag_14,-1.22021323818,0.0381080534824,-3.0674616426,0.00250891042044,0.040674537908,0.00205318644703,0.999167189093
1573178462068396770,0,1573178461795212429,grasp_lab,tag_9,-0.646306928487,0.0239463503281,-3.11353028059,0.0107053815433,0.0388300905058,-0.0203100892244,0.998982041457
1573178462068457061,0,1573178461795212429,map,rig,0.00424400235894,0.0031241519131,-0.00194814951684,0.999345870855,-0.00600469254491,-0.0356329287487,0.00143821464688
1573178462068533136,0,1573178461795212429,rig,cam0,8.81023262578e-24,2.50580565747e-23,1.83152234046e-24,1.98244212612e-23,4.16466698046e-24,1.09101318314e-23,1.0
1573178462281861514,0,1573178461992808280,map,grasp_lab,-4.76744554004e-20,-1.21196672066e-19,-1.45518900072e-20,3.02051733591e-21,-4.09325684383e-22,3.46308695425e-22,1.0
1573178462281875889,0,1573178461992808280,grasp_lab,tag_7,0.469,-0.018,-2.54,2.18206770833e-22,-8.04689550868e-22,3.16449719517e-22,1.0
1573178462281881380,0,1573178461992808280,grasp_lab,tag_8,-0.855055985381,-0.0039443278688,-1.21541305759,0.00270385686438,0.0349107475106,-0.0052551022293,0.999372959794
1573178462281885769,0,1573178461992808280,grasp_lab,tag_14,-1.22020852604,0.0381211393564,-3.06749509595,0.00250264846285,0.0406823116791,0.00205206014473,0.999166890623
1573178462281889743,0,1573178461992808280,grasp_lab,tag_9,-0.646297787112,0.0239509474138,-3.1135444405,0.0107539918043,0.0388211237585,-0.0203244804348,0.998981575158
1573178462281893821,0,1573178461992808280,map,rig,0.00416151220964,0.00318625781003,-0.00195379651347,0.999346375862,-0.00600487387924,-0.0356183381681,0.00144793918392
1573178462281897953,0,1573178461992808280,rig,cam0,1.10242667704e-23,1.73938705808e-23,2.26876364821e-24,1.47660603707e-23,3.5409581838e-24,9.8318675761e-24,1.0
1573178462491867641,0,1573178462211289241,map,grasp_lab,-2.65106990994e-20,-2.34370041035e-19,-1.85960015185e-20,3.10225579447e-21,-1.7765242808e-22,5.25622920898e-22,1.0
1573178462492114732,0,1573178462211289241,grasp_lab,tag_7,0.469,-0.018,-2.54,1.42452058565e-21,-2.53487749158e-22,6.4653937953e-22,1.0
1573178462492276083,0,1573178462211289241,grasp_lab,tag_8,-0.855083006583,-0.00384634879134,-1.21544595887,0.00267517441277,0.0349091011858,-0.00525746371476,0.999373082073
1573178462492347027,0,1573178462211289241,grasp_lab,tag_14,-1.22018987709,0.0380927050611,-3.06752086212,0.00246876194278,0.0406414700638,0.00204474234268,0.999168652007
1573178462492404922,0,1573178462211289241,grasp_lab,tag_9,-0.646285109873,0.023917017484,-3.11357468326,0.0107111111467,0.0388254766117,-0.0203237010379,0.998981882538
1573178462492551691,0,1573178462211289241,map,rig,0.00413722000035,0.00336957091993,-0.00192510585821,0.99934650819,-0.00601212699193,-0.0356120006977,0.00148199293777
1573178462492601246,0,1573178462211289241,rig,cam0,9.17164047583e-24,1.34373684561e-23,7.58755481074e-25,2.09150315709e-23,5.31411442125e-24,1.19631312545e-23,1.0
1573178462709938807,0,1573178462412118456,map,grasp_lab,-2.1524484871e-20,-1.62272557443e-19,-2.16814176059e-20,4.35444884303e-21,-1.99102575832e-22,4.93930051353e-22,1.0
1573178462709955136,0,1573178462412118456,grasp_lab,tag_7,0.469,-0.018,-2.54,9.87517655595e-22,-1.99101484008e-22,3.35084050009e-22,1.0
1573178462709961463,0,1573178462412118456,grasp_lab,tag_8,-0.855113540798,-0.00396507257606,-1.21548827761,0.00272462636041,0.0349143774811,-0.00525182098326,0.999372793823
1573178462709967078,0,1573178462412118456,grasp_lab,tag_14,-1.22017583373,0.0381211117062,-3.06756335458,0.00251679226367,0.0406226620855,0.00204861079019,0.999169289098
1573178462709972257,0,1573178462412118456,grasp_lab,tag_9,-0.646271187767,0.0239535903816,-3.11361090258,0.0107372890458,0.0388274859845,-0.0203138615396,0.998981723549
1573178462709977965,0,1573178462412118456,map,rig,0.00407576169957,0.00316831888775,-0.00196212204679,0.999347017782,-0.00600118702048,-0.035601108752,0.00144390471749
1573178462709981873,0,1573178462412118456,rig,cam0,8.45863327608e-24,1.55587205661e-23,7.46359384078e-25,1.75779284663e-23,2.83627890786e-24,7.80131548274e-24,1.0
1573178462911754599,0,1573178462637087366,map,grasp_lab,-1.33926902733e-20,-2.8217438371e-19,-1.94481896022e-20,2.70169612778e-21,-9.04045172156e-23,5.7212864931e-22,1.0
1573178462911770778,0,1573178462637087366,grasp_lab,tag_7,0.469,-0.018,-2.54,5.42652630719e-22,6.49210317191e-23,6.24148854541e-22,1.0
1573178462911786439,0,1573178462637087366,grasp_lab,tag_8,-0.855123046777,-0.00386547503416,-1.21550336685,0.00270472936148,0.034931009386,-0.00526129982089,0.999372216817
1573178462911792250,0,1573178462637087366,grasp_lab,tag_14,-1.22017009928,0.0381151634251,-3.06757137111,0.00251866870218,0.0406130849035,0.00203665910829,0.999169698131
1573178462911798113,0,1573178462637087366,grasp_lab,tag_9,-0.64626947235,0.0239366690079,-3.11363096386,0.010666712471,0.0388543908539,-0.0203246854405,0.998981213396
1573178462911802614,0,1573178462637087366,map,rig,0.00408178276213,0.00331273992811,-0.00190603158011,0.999347012751,-0.00601252638042,-0.0355982428514,0.00147062525885
1573178462911813970,0,1573178462637087366,rig,cam0,7.99936803309e-24,1.37291839397e-23,6.29993254735e-25,1.54232709074e-23,2.65000124684e-24,6.4656545648e-24,1.0
1573178463119395753,0,1573178462855798106,map,grasp_lab,-3.78834425512e-20,-5.78274685111e-19,-8.78312226751e-21,3.35720504667e-22,-2.52318727452e-22,3.9661654326e-22,1.0
1573178463119407566,0,1573178462855798106,grasp_lab,tag_7,0.469,-0.018,-2.54,4.83060040535e-21,-2.18840871145e-22,6.83834444345e-22,1.0
1573178463119503355,0,1573178462855798106,grasp_lab,tag_8,-0.855162332997,-0.00374996859266,-1.21555645395,0.0027186685333,0.0349487035143,-0.00527104020282,0.999371509049
1573178463119511065,0,1573178462855798106,grasp_lab,tag_14,-1.22015808125,0.0380795942939,-3.0676556276,0.0024922952301,0.0405966311192,0.00202905502636,0.999170448393
1573178463119515112,0,1573178462855798106,grasp_lab,tag_9,-0.64624817634,0.0238940839459,-3.11367090746,0.0106932738263,0.0388017899236,-0.0203333882931,0.998982796806
1573178463119519165,0,1573178462855798106,map,rig,0.00402440351968,0.00357319691072,-0.00207973149316,0.999347343844,-0.00602472880989,-0.0355845629882,0.00152573620547
1573178463119523023,0,1573178462855798106,rig,cam0,8.34967040153e-24,9.10583325154e-24,9.26667406825e-25,2.76829635786e-23,3.18409130329e-24,1.09682422589e-23,1.0
1573178463331380726,0,1573178463050654543,map,grasp_lab,-4.5359258637e-20,-2.26089126928e-19,-1.93751470822e-20,1.15537267138e-21,-7.08449354496e-22,4.91578526752e-22,1.0
1573178463331392633,0,1573178463050654543,grasp_lab,tag_7,0.469,-0.018,-2.54,-1.50059097172e-22,-3.84430621792e-22,2.54209456234e-22,1.0
1573178463331396928,0,1573178463050654543,grasp_lab,tag_8,-0.855159536789,-0.00380922761052,-1.21554742761,0.0027519716844,0.0349659509068,-0.00527030570842,0.999370818469
1573178463331676309,0,1573178463050654543,grasp_lab,tag_14,-1.22015692337,0.0380968170345,-3.06763315434,0.00252603725764,0.0406034398342,0.00203102574736,0.999170082991
1573178463331696692,0,1573178463050654543,grasp_lab,tag_9,-0.646253654995,0.0239153958259,-3.11367221323,0.0106357123946,0.0388389897235,-0.02032660765,0.998982103704
1573178463331702223,0,1573178463050654543,map,rig,0.00400100439202,0.00346464193319,-0.00200061865721,0.999347440456,-0.00600185726786,-0.035586751737,0.001501354046
1573178463331707609,0,1573178463050654543,rig,cam0,8.22560005272e-24,4.95344755819e-24,7.22776566392e-25,4.23537583601e-23,1.64232369113e-24,1.04305192193e-23,1.0
1573178463536987081,0,1573178463267394686,map,grasp_lab,-5.34956903816e-20,-2.37659626236e-19,-1.80767925849e-20,6.79163707681e-22,-6.07110828191e-22,5.64807568595e-22,1.0
1573178463537001976,0,1573178463267394686,grasp_lab,tag_7,0.469,-0.018,-2.54,-9.40072423128e-22,-5.64086925112e-22,3.71195640611e-22,1.0
1573178463537215341,0,1573178463267394686,grasp_lab,tag_8,-0.855150602689,-0.00381008525805,-1.21553848488,0.00275893409629,0.0349793869152,-0.00526715803621,0.999370345678
1573178463537328539,0,1573178463267394686,grasp_lab,tag_14,-1.22016612495,0.0380848515221,-3.06763281919,0.00249579607955,0.0406183379463,0.00204092317506,0.999169533291
1573178463537342676,0,1573178463267394686,grasp_lab,tag_9,-0.646256953271,0.0239062261913,-3.11365583205,0.0105720175174,0.0388356831089,-0.0203170401565,0.998983102981
1573178463537348172,0,1573178463267394686,map,rig,0.00407224818002,0.00345504817614,-0.00191827850327,0.999347144643,-0.00600664110529,-0.0355942353989,0.00150171965916
1573178463537352744,0,1573178463267394686,rig,cam0,1.05322470979e-23,5.61800664532e-24,2.8137334936e-25,5.06813310413e-23,5.79469964952e-24,1.03443625801e-23,1.0
1573178463757160332,0,1573178463484609670,map,grasp_lab,-7.90878926471e-20,-2.54442280927e-19,-1.91402552966e-20,3.78006717717e-22,-5.56078857831e-22,3.91973501832e-22,1.0
1573178463757367110,0,1573178463484609670,grasp_lab,tag_7,0.469,-0.018,-2.54,-9.47588036988e-22,-1.0832405069e-21,1.0036557677e-22,1.0
1573178463757491316,0,1573178463484609670,grasp_lab,tag_8,-0.855162552565,-0.00379720343606,-1.21553796639,0.00275442987657,0.0349868439369,-0.00526284915069,0.999370119769
1573178463757601455,0,1573178463484609670,grasp_lab,tag_14,-1.22016729093,0.0380759099866,-3.06764241391,0.00245511056653,0.040616394966,0.00204757799787,0.999169699459
1573178463757715421,0,1573178463484609670,grasp_lab,tag_9,-0.646255190607,0.0238978766896,-3.11365826143,0.0106113850621,0.0388613624898,-0.0203239453354,0.998981546505
1573178463757843245,0,1573178463484609670,map,rig,0.00399010471539,0.00349966655696,-0.00194198820632,0.999347560451,-0.0060098694518,-0.035581836928,0.00150591193718
1573178463757953347,0,1573178463484609670,rig,cam0,9.25989019337e-24,5.95411250115e-24,-1.63773183448e-25,5.34458254711e-23,8.98891693786e-24,9.90670369355e-24,1.0
1573178463968204946,0,1573178463677921922,map,grasp_lab,-6.34283924372e-20,-2.66927404689e-19,-2.32314273169e-20,3.22394690935e-22,-9.71609156991e-22,3.66373485909e-22,1.0
1573178463968241579,0,1573178463677921922,grasp_lab,tag_7,0.469,-0.018,-2.54,-8.64044350402e-22,-1.43112669842e-21,6.85044351769e-23,1.0
1573178463968249113,0,1573178463677921922,grasp_lab,tag_8,-0.855187883937,-0.00377976526538,-1.21556522712,0.00275423157418,0.0349954288179,-0.0052623792546,0.999369822205
1573178463968312934,0,1573178463677921922,grasp_lab,tag_14,-1.22016094054,0.0380633648837,-3.06768245833,0.00244293835586,0.0406177869629,0.00204610357646,0.999169675728
1573178463968417516,0,1573178463677921922,grasp_lab,tag_9,-0.646245604393,0.0238861955612,-3.11368078881,0.0105738277447,0.0388342320427,-0.0203218283228,0.99898304284
1573178463968445823,0,1573178463677921922,map,rig,0.00396579576958,0.0035397058342,-0.00202960741257,0.999347756832,-0.00600470936999,-0.0355768426491,0.00151414886845
1573178463968514391,0,1573178463677921922,rig,cam0,1.39222146598e-23,6.0609112519e-24,1.1273417008e-24,5.35132247528e-23,2.15899176306e-24,9.98913459795e-24,1.0
1573178464178783647,0,1573178463898392309,map,grasp_lab,-6.95611915605e-20,-3.26759877517e-19,-2.7992973108e-20,8.39935878916e-22,-9.50723553927e-22,9.38870375449e-22,1.0
1573178464178797977,0,1573178463898392309,grasp_lab,tag_7,0.469,-0.018,-2.54,-2.76972747631e-22,-1.2130161914e-21,3.14142657888e-22,1.0
1573178464178802617,0,1573178463898392309,grasp_lab,tag_8,-0.855243161206,-0.00391290350886,-1.2156247126,0.00280745698145,0.0349843048684,-0.00525574498119,0.999370098483
1573178464178807402,0,1573178463898392309,grasp_lab,tag_14,-1.2201406945,0.0380910945552,-3.06776288332,0.00247696518994,0.0405893350695,0.00205526073757,0.999170729368
1573178464178811228,0,1573178463898392309,grasp_lab,tag_9,-0.646220727355,0.0239245903248,-3.11373154215,0.01061622868,0.0388286675729,-0.0203171711057,0.998982904169
1573178464178814923,0,1573178463898392309,map,rig,0.00384399594961,0.00332559473474,-0.00199505510135,0.999348690865,-0.00600211302749,-0.0355526610862,0.00147546457423
1573178464178849619,0,1573178463898392309,rig,cam0,1.10281934983e-23,1.55643638949e-23,6.72126651313e-25,5.34883805191e-23,3.36709046869e-24,1.06238762649e-23,1.0
1573178464389443672,0,1573178464124292460,map,grasp_lab,-8.84218618572e-20,-4.09855463485e-19,-3.8810204501e-20,3.55183105625e-22,-1.30648256617e-21,9.07902105109e-22,1.0
1573178464389456367,0,1573178464124292460,grasp_lab,tag_7,0.469,-0.018,-2.54,6.35429481155e-23,-1.96759328358e-21,3.3786274497e-22,1.0
1573178464389460377,0,1573178464124292460,grasp_lab,tag_8,-0.855227906924,-0.00392376136097,-1.21561426025,0.00281675211683,0.0350014318276,-0.00525816449778,0.999369459901
1573178464389464948,0,1573178464124292460,grasp_lab,tag_14,-1.22014803357,0.0381102351113,-3.06775459019,0.00249854957419,0.0406057328753,0.00205084389639,0.999170018439
1573178464389479983,0,1573178464124292460,grasp_lab,tag_9,-0.646226594223,0.0239411262495,-3.11372669315,0.0105828461445,0.0388545573448,-0.0203139221369,0.998982317816
1573178464389487191,0,1573178464124292460,map,rig,0.0038811411346,0.00322995165931,-0.00201476188832,0.999348252042,-0.00600502459299,-0.0355652239077,0.00145796728051
1573178464389491392,0,1573178464124292460,rig,cam0,1.04423750133e-23,2.99180409054e-24,9.20820359891e-25,5.8519361689e-23,4.4998790875e-25,1.30732138188e-23,1.0
1573178464588564149,0,1573178464312402105,map,grasp_lab,-9.33502430017e-20,-4.08076858662e-19,-3.51127771085e-20,1.34030805863e-21,-1.17111442152e-21,9.87216383956e-22,1.0
1573178464588592193,0,1573178464312402105,grasp_lab,tag_7,0.469,-0.018,-2.54,8.09639063681e-22,-1.6481975042e-21,5.44568068136e-22,1.0
1573178464588599995,0,1573178464312402105,grasp_lab,tag_8,-0.855212939579,-0.00399744845765,-1.21559954901,0.00284737018195,0.0350257701166,-0.00525400416514,0.999368542306
1573178464588604678,0,1573178464312402105,grasp_lab,tag_14,-1.22015311553,0.0381320965312,-3.06771991485,0.00252075361816,0.0406094147711,0.00205448904693,0.999169805543
1573178464588609340,0,1573178464312402105,grasp_lab,tag_9,-0.646235220461,0.0239673951684,-3.11370871461,0.010553982694,0.0388639144648,-0.0203050706534,0.998982439139
1573178464588613535,0,1573178464312402105,map,rig,0.00386842708989,0.0031348583074,-0.00204842391355,0.999348461615,-0.00599304863275,-0.0355623117247,0.00143444081324
1573178464588617863,0,1573178464312402105,rig,cam0,1.06154950271e-23,-8.1589173108e-25,8.61526796348e-25,5.43280322773e-23,2.16937853067e-24,1.38347972135e-23,1.0
1573178464782024734,0,1573178464536428692,map,grasp_lab,-9.24046410687e-20,-4.44069841076e-19,-3.6663089939e-20,1.57658588383e-21,-1.08357173197e-21,8.44611694116e-22,1.0
1573178464782036513,0,1573178464536428692,grasp_lab,tag_7,0.469,-0.018,-2.54,8.98634541335e-22,-1.7427885059e-21,4.47934256073e-22,1.0
1573178464782239299,0,1573178464536428692,grasp_lab,tag_8,-0.855175651891,-0.00395067410388,-1.21555709938,0.00284479715247,0.0350460735915,-0.0052611430509,0.999367800276
1573178464782248595,0,1573178464536428692,grasp_lab,tag_14,-1.22016116423,0.0381334863979,-3.06764439849,0.00250857445595,0.0406192817171,0.00204949711163,0.999169445374
1573178464782252879,0,1573178464536428692,grasp_lab,tag_9,-0.646251469211,0.0239625259239,-3.113661997,0.010530051579,0.0388599203777,-0.0203087174988,0.998982772922
1573178464782257076,0,1573178464536428692,map,rig,0.0039731478521,0.00320396939012,-0.00196816017559,0.999347829907,-0.00600460680292,-0.0355773742753,0.00145258258838
1573178464782261256,0,1573178464536428692,rig,cam0,1.1025303066e-23,1.73760535047e-25,1.27699431438e-24,5.51782109572e-23,3.47848454863e-24,1.35363089758e-23,1.0
1573178464995768469,0,1573178464717913165,map,grasp_lab,-9.10243624223e-20,-5.71323432285e-19,-3.6875467536e-20,2.43017741953e-21,-1.05274392694e-21,8.88614819679e-22,1.0
1573178464995782572,0,1573178464717913165,grasp_lab,tag_7,0.469,-0.018,-2.54,2.01223264395e-21,-1.85604235664e-21,6.01411486997e-22,1.0
1573178464995801274,0,1573178464717913165,grasp_lab,tag_8,-0.85516410427,-0.00385813787705,-1.21554413034,0.00281421563356,0.035050356102,-0.00526636650982,0.99936770916
1573178464995811488,0,1573178464717913165,grasp_lab,tag_14,-1.22016051629,0.0381149938765,-3.06761761048,0.00248365778459,0.0406125187382,0.00203956834976,0.99916980285
1573178464995817043,0,1573178464717913165,grasp_lab,tag_9,-0.646256570016,0.0239366826151,-3.11365177241,0.0105243881754,0.0388547241521,-0.0203171286453,0.998982863691
1573178464995821923,0,1573178464717913165,map,rig,0.00368664676074,0.00351516182025,-0.00169441939175,0.999349272281,-0.00600926699548,-0.0355338972516,0.00150427641269
1573178464995839232,0,1573178464717913165,rig,cam0,1.1360949233e-23,9.42957766118e-25,1.42362443911e-24,5.35305547467e-23,3.58073814905e-24,1.305078661e-23,1.0
1573178465191542183,0,1573178464939187149,map,grasp_lab,-1.02133560934e-19,-4.97071510424e-19,-3.30475542658e-20,1.0232719354e-21,-9.26404756181e-22,9.08943189235e-22,1.0
1573178465191554729,0,1573178464939187149,grasp_lab,tag_7,0.469,-0.018,-2.54,2.0319083871e-22,-1.71978468483e-21,1.42400879696e-22,1.0
1573178465191563864,0,1573178464939187149,grasp_lab,tag_8,-0.855171567187,-0.00380814986783,-1.21556602285,0.0028025058197,0.0350578645322,-0.00526694037495,0.999367475674
1573178465191570450,0,1573178464939187149,grasp_lab,tag_14,-1.22015466981,0.0380981585263,-3.06763945755,0.00245681470721,0.0406075567779,0.0020385608668,0.999170072942
1573178465191575186,0,1573178464939187149,grasp_lab,tag_9,-0.646249784317,0.0239168778434,-3.11366535521,0.0105391533099,0.038849333731,-0.0203187532398,0.99898288463
1573178465191579512,0,1573178464939187149,map,rig,0.00396148071248,0.00349866533947,-0.00198618641141,0.999347699621,-0.00600914950337,-0.0355779862722,0.0015074075494
1573178465191583882,0,1573178464939187149,rig,cam0,1.18773420056e-23,6.65250127546e-25,1.70549019391e-24,5.34083506797e-23,5.24802426492e-24,1.33173508723e-23,1.0
1573178465385991045,0,1573178465121813053,map,grasp_lab,-9.77539406215e-20,-4.84538943403e-19,-3.21825567699e-20,-3.15818124952e-22,-1.01873872732e-21,1.1770709128e-21,1.0
1573178465386003953,0,1573178465121813053,grasp_lab,tag_7,0.469,-0.018,-2.54,-5.29696268349e-22,-2.03083204938e-21,3.72729962838e-22,1.0
1573178465386008610,0,1573178465121813053,grasp_lab,tag_8,-0.855173536556,-0.00372346090398,-1.21557541078,0.00277667487286,0.0350692391213,-0.00526772731167,0.999367144544
1573178465386012444,0,1573178465121813053,grasp_lab,tag_14,-1.22015052883,0.0380631923228,-3.06764133196,0.00243905642349,0.0406054827174,0.0020338804757,0.999170210278
1573178465386016067,0,1573178465121813053,grasp_lab,tag_9,-0.646248249859,0.0238794609715,-3.11367020979,0.0105179271067,0.0388471207683,-0.0203232385846,0.998983103156
1573178465386020489,0,1573178465121813053,map,rig,0.00396820908092,0.00362353924036,-0.00205433416301,0.999347596245,-0.00600866011811,-0.0355799409742,0.0015315621859
