%time,field.transforms0.header.seq,field.transforms0.header.stamp,field.transforms0.header.frame_id,field.transforms0.child_frame_id,field.transforms0.transform.translation.x,field.transforms0.transform.translation.y,field.transforms0.transform.translation.z,field.transforms0.transform.rotation.x,field.transforms0.transform.rotation.y,field.transforms0.transform.rotation.z,field.transforms0.transform.rotation.w
1573179028197979176,0,1573179027936553785,map,grasp_lab,-3.31271368215e-20,-8.2065662812e-20,3.27993675027e-21,-1.50576369102e-21,-4.02909378263e-22,-4.1633560536e-22,1.0
1573179028199160619,0,1573179027936553785,grasp_lab,tag_7,0.469,-0.018,-2.54,-4.26710119064e-22,1.59074212405e-23,-5.35919270169e-22,1.0
1573179028199172677,0,1573179027936553785,grasp_lab,tag_9,-0.645856207772,0.023893233322,-3.11280048326,0.00892615921839,0.0370184970628,-0.0204902531594,0.999064614568
1573179028199185829,0,1573179027936553785,grasp_lab,tag_8,-0.855394075932,-0.00221811593785,-1.21587752191,0.00234535676784,0.0346796180352,-0.00550730824619,0.999380554619
1573179028199194826,0,1573179027936553785,grasp_lab,tag_14,-1.22019603557,0.0383378636254,-3.06839497898,0.0022999406985,0.0396345828334,0.00216192062467,0.999209255469
1573179028199205382,0,1573179027936553785,map,rig,0.00775390601697,0.00610513526663,0.00490379843264,0.999426700286,-0.00678922818928,-0.0331195424483,0.00180915569468
1573179028199213823,0,1573179027936553785,rig,cam0,-4.27275044226e-24,1.99086894474e-24,-7.53554365761e-25,-2.32890216222e-24,3.33713493579e-24,-1.88434429511e-24,1.0
1573179028419279610,0,1573179028124160883,map,grasp_lab,-5.32099468347e-20,-2.03546138814e-19,-1.45215493411e-21,-1.46856106865e-21,-5.53784517171e-22,-5.12343438616e-22,1.0
1573179028419299671,0,1573179028124160883,grasp_lab,tag_7,0.469,-0.018,-2.54,9.7586369052e-22,-2.891708301e-22,-4.96453977841e-22,1.0
1573179028419313100,0,1573179028124160883,grasp_lab,tag_9,-0.645846852708,0.0238889166432,-3.11281881922,0.0089829174441,0.0370012866337,-0.0205089710384,0.999064359333
1573179028419320763,0,1573179028124160883,grasp_lab,tag_8,-0.855409165769,-0.00216475245188,-1.21589872076,0.00232758034922,0.0346712569345,-0.00550976509171,0.999380872741
1573179028419325532,0,1573179028124160883,grasp_lab,tag_14,-1.22018854061,0.0383414391732,-3.0684279555,0.00228441891289,0.0396209596988,0.00215806719801,0.999209839688
1573179028419331369,0,1573179028124160883,map,rig,0.0076072665255,0.00618543387525,0.00488146880068,0.999427473284,-0.00679995144884,-0.033093025825,0.00182700475455
1573179028419335637,0,1573179028124160883,rig,cam0,-3.66711027284e-24,-4.76459899681e-24,-6.89049576138e-25,-5.59658272712e-24,3.00345675833e-24,-1.09046001116e-24,1.0
1573179028633408434,0,1573179028341905887,map,grasp_lab,-5.32022735084e-20,-1.97831649789e-19,7.36840857948e-21,-9.00141746867e-22,-4.73271553666e-22,-2.91326415461e-22,1.0
1573179028633697067,0,1573179028341905887,grasp_lab,tag_7,0.469,-0.018,-2.54,1.03019114723e-21,-2.23145800422e-22,-1.51515650122e-22,1.0
1573179028633758723,0,1573179028341905887,grasp_lab,tag_9,-0.645842019321,0.0238900500677,-3.11282232141,0.00895608018826,0.0370161415725,-0.0205043350275,0.999064145156
1573179028634352406,0,1573179028341905887,grasp_lab,tag_8,-0.855421404723,-0.00217445057066,-1.21591102393,0.00233578366661,0.0346680830171,-0.00550857427847,0.999380970273
1573179028634395898,0,1573179028341905887,grasp_lab,tag_14,-1.22018053306,0.0383409352289,-3.06842722122,0.00227254736592,0.0396061316943,0.00216399954818,0.999210441782
1573179028639448097,0,1573179028341905887,map,rig,0.00756452647331,0.00615829467093,0.00484204949814,0.999427834805,-0.0068010727715,-0.0330821197259,0.00182257540922
1573179028639506515,0,1573179028341905887,rig,cam0,-4.27465827429e-24,-2.55209361645e-24,-6.42638745446e-25,-2.96374935308e-24,3.50813367508e-24,-4.30930816001e-25,1.0
1573179028830263092,0,1573179028569630889,map,grasp_lab,-4.36777538124e-20,-2.54932059322e-19,6.47120066389e-21,-8.23344862089e-22,-1.49899350606e-22,-3.41910114849e-22,1.0
1573179028830428164,0,1573179028569630889,grasp_lab,tag_7,0.469,-0.018,-2.54,1.50358832636e-21,2.14675819989e-23,-1.90766512961e-22,1.0
1573179028830547411,0,1573179028569630889,grasp_lab,tag_9,-0.645841785288,0.0239006739797,-3.11280110319,0.00906661511095,0.0370133384667,-0.0205185217032,0.999062960745
1573179028830659993,0,1573179028569630889,grasp_lab,tag_8,-0.855432887489,-0.00220001801917,-1.21590677764,0.00234798991445,0.0346748287118,-0.00550571660553,0.999380723389
1573179028830772020,0,1573179028569630889,grasp_lab,tag_14,-1.22018496466,0.0383503789072,-3.06842259738,0.0023017158464,0.0396121162557,0.00216109518647,0.999210144073
1573179028830932719,0,1573179028569630889,map,rig,0.00753284398457,0.00615290254919,0.00485487996714,0.999427949697,-0.00678909900516,-0.0330815012823,0.00181542620624
1573179028831046747,0,1573179028569630889,rig,cam0,-3.97174927915e-24,-2.16978885192e-24,-7.24833085866e-25,-6.30926663947e-24,7.11245929559e-24,-7.19510347432e-25,1.0
1573179029050520638,0,1573179028756999904,map,grasp_lab,-4.45938328257e-20,-1.95938571477e-19,1.70491842792e-20,-1.17750695099e-21,-1.02902653532e-22,-2.90629349229e-22,1.0
1573179029050602005,0,1573179028756999904,grasp_lab,tag_7,0.469,-0.018,-2.54,1.03554136575e-21,-1.23703345058e-22,-1.86836907199e-22,1.0
1573179029050611608,0,1573179028756999904,grasp_lab,tag_9,-0.645846734409,0.0238686780118,-3.11279491974,0.00903437312331,0.0370260219584,-0.0205225975595,0.999062699128
1573179029050634242,0,1573179028756999904,grasp_lab,tag_8,-0.855420624996,-0.00209044984634,-1.21589480654,0.00232139060971,0.0346773316915,-0.00551594388409,0.999380642286
1573179029050639053,0,1573179028756999904,grasp_lab,tag_14,-1.22018934088,0.0383269682585,-3.06841293656,0.0022379856267,0.0396135630696,0.00215955987498,0.999210234807
1573179029050643301,0,1573179028756999904,map,rig,0.00758899695096,0.00636307152512,0.00486905671416,0.999427475876,-0.00680331721644,-0.0330902545,0.00186289990523
1573179029050651521,0,1573179028756999904,rig,cam0,-4.10439705998e-24,-1.16748917989e-24,-1.8186028054e-25,-6.59321997973e-24,1.06126109301e-24,-3.44025426085e-25,1.0
1573179029292322399,0,1573179028997447627,map,grasp_lab,-6.10029398212e-20,-2.20983684508e-19,2.1173241018e-20,-1.19554975743e-21,-3.47729973352e-22,-1.4382605271e-22,1.0
1573179029292443698,0,1573179028997447627,grasp_lab,tag_7,0.469,-0.018,-2.54,1.32294684927e-21,-2.02057281096e-22,3.6900646849e-22,1.0
1573179029292553136,0,1573179028997447627,grasp_lab,tag_9,-0.645827583072,0.0238443830135,-3.11282955127,0.00904628540689,0.03700419825,-0.020533080135,0.999063184515
1573179029292656525,0,1573179028997447627,grasp_lab,tag_8,-0.855460046668,-0.00201338124519,-1.21594083597,0.00228470826361,0.034661314874,-0.0055181708716,0.999381270161
1573179029292730406,0,1573179028997447627,grasp_lab,tag_14,-1.22016864567,0.0383083398365,-3.06846222054,0.00220972603367,0.0395853110731,0.00215590106311,0.999211425249
1573179029292835016,0,1573179028997447627,map,rig,0.00748788165134,0.00645778033327,0.00481526266246,0.999428088492,-0.00680524720895,-0.0330704840265,0.00187819836925
1573179029292935547,0,1573179028997447627,rig,cam0,-5.00802253043e-24,-3.57171235307e-24,-4.00212910075e-28,-9.87389329034e-24,6.33674488547e-25,-1.05550472925e-24,1.0
1573179029539170957,0,1573179029227971210,map,grasp_lab,-6.91517706312e-20,-1.77428098466e-19,2.64879786543e-20,-1.10861764087e-21,-6.4065395093e-22,-6.86506182774e-23,1.0
1573179029539405905,0,1573179029227971210,grasp_lab,tag_7,0.469,-0.018,-2.54,1.04199570727e-21,-2.09047676162e-22,1.91033477777e-22,1.0
1573179029539552909,0,1573179029227971210,grasp_lab,tag_9,-0.645812591669,0.0238492801031,-3.11285609405,0.00904814887286,0.0370039227271,-0.0205349561998,0.999063139285
1573179029539679985,0,1573179029227971210,grasp_lab,tag_8,-0.855486985546,-0.00203790472971,-1.2159760629,0.00229341681154,0.0346471703116,-0.00551848223602,0.999381738968
1573179029539800997,0,1573179029227971210,grasp_lab,tag_14,-1.22015373291,0.0383104157997,-3.0685004256,0.00222416228115,0.0395757835607,0.00216069483717,0.999211760267
1573179029539967646,0,1573179029227971210,map,rig,0.00749078858085,0.00642889969449,0.00485446086745,0.999428199657,-0.00680662719884,-0.0330671352102,0.00187299916199
1573179029540108725,0,1573179029227971210,rig,cam0,-4.96181462383e-24,-3.37149968284e-24,-1.32614945594e-25,-8.44200781488e-24,1.30243476311e-25,-1.32809228087e-24,1.0
1573179029784622590,0,1573179029463331352,map,grasp_lab,-8.19664299218e-20,-2.52460878054e-19,2.59049846531e-20,9.4822189913e-22,-4.92793329207e-22,2.8400217029e-22,1.0
1573179029784819389,0,1573179029463331352,grasp_lab,tag_7,0.469,-0.018,-2.54,3.8341589871e-22,-1.379545799e-22,-7.6279631694e-22,1.0
1573179029784940473,0,1573179029463331352,grasp_lab,tag_9,-0.645770577983,0.02392061973,-3.11296474526,0.00905127740822,0.0369754636208,-0.0205183773508,0.999064505254
1573179029785052029,0,1573179029463331352,grasp_lab,tag_8,-0.855579713358,-0.00222403675518,-1.21608917045,0.00236136813218,0.0346035125775,-0.00551180140894,0.999383130187
1573179029785160846,0,1573179029463331352,grasp_lab,tag_14,-1.22010499547,0.0383722292613,-3.0686166309,0.00226626360295,0.0395210676496,0.00217089316108,0.999213809194
1573179029785349100,0,1573179029463331352,map,rig,0.0072597223188,0.00613517983051,0.00481049677413,0.99942986898,-0.00679316583244,-0.0330224798648,0.00181816198813
1573179029785462408,0,1573179029463331352,rig,cam0,-5.87092615272e-24,-1.29649475091e-23,2.71623706542e-26,-1.74021847464e-23,5.80947916288e-25,-8.98940849946e-26,1.0
1573179030036001528,0,1573179029687500926,map,grasp_lab,-7.51940781558e-20,-2.73899216881e-20,2.68495762023e-20,-1.14910324265e-21,-7.83022597365e-22,-1.63277532311e-22,1.0
1573179030036191474,0,1573179029687500926,grasp_lab,tag_7,0.469,-0.018,-2.54,-1.52227819976e-21,1.66431458919e-22,-5.81749276625e-22,1.0
1573179030036313386,0,1573179029687500926,grasp_lab,tag_9,-0.645737546355,0.0239411426926,-3.1130235513,0.00908665858512,0.0369366904589,-0.0205172162298,0.999065642174
1573179030036419545,0,1573179029687500926,grasp_lab,tag_8,-0.855644364046,-0.00228154828037,-1.21616669989,0.00239033082191,0.0345734562626,-0.00551077685715,0.999384107228
1573179030036528538,0,1573179029687500926,grasp_lab,tag_14,-1.22008224141,0.0383898176301,-3.06872944853,0.0022582221957,0.0395073367224,0.0021776280068,0.999214355738
1573179030036686867,0,1573179029687500926,map,rig,0.00710058478323,0.00598535936739,0.00476383765004,0.999430869212,-0.00679778141714,-0.0329928005558,0.0017896775987
1573179030036805605,0,1573179029687500926,rig,cam0,-7.63562000247e-24,1.57335671798e-24,-6.72270857376e-25,-2.62851767638e-24,6.43625490351e-25,-5.9537698481e-24,1.0
1573179030270217614,0,1573179029930356843,map,grasp_lab,-7.57974938633e-20,1.02425795171e-20,2.89263998033e-20,-1.51757543378e-21,-7.19708769313e-22,-4.33842931531e-22,1.0
1573179030270435903,0,1573179029930356843,grasp_lab,tag_7,0.469,-0.018,-2.54,-2.09930863489e-21,-5.7645369709e-24,-8.67414029225e-22,1.0
1573179030270592132,0,1573179029930356843,grasp_lab,tag_9,-0.645737672611,0.0239512372996,-3.11301228273,0.00908512599854,0.0369237866605,-0.0205092584723,0.999066296489
1573179030270718895,0,1573179029930356843,grasp_lab,tag_8,-0.855644246632,-0.00231950136863,-1.21616135523,0.0023973168902,0.0345777646135,-0.00550547148467,0.999383970679
1573179030270841011,0,1573179029930356843,grasp_lab,tag_14,-1.22008293948,0.0383957345203,-3.06872300616,0.00228405963905,0.0394993277348,0.00218178293195,0.999214604579
1573179030271032894,0,1573179029930356843,map,rig,0.00707210172861,0.00587754688893,0.0047104684543,0.999430919143,-0.00680216969158,-0.0329916288703,0.00176657075142
1573179030271266807,0,1573179029930356843,rig,cam0,-6.86012650108e-24,6.21344799585e-26,-5.12199653668e-25,5.05684913977e-24,-2.06249678554e-26,-6.52895497373e-24,1.0
1573179030517864664,0,1573179030175879471,map,grasp_lab,-7.92965698384e-20,-1.70231451946e-20,2.67799407026e-20,-1.91216597168e-21,-7.15783434209e-22,-5.29133424613e-22,1.0
1573179030518026362,0,1573179030175879471,grasp_lab,tag_7,0.469,-0.018,-2.54,-1.05216536222e-21,-1.66346790482e-22,-8.42873732017e-22,1.0
1573179030518081486,0,1573179030175879471,grasp_lab,tag_9,-0.645738006202,0.023970871165,-3.11300678,0.00910869993036,0.0369117614683,-0.020508791904,0.999066535775
1573179030518129399,0,1573179030175879471,grasp_lab,tag_8,-0.85564348599,-0.00236531628435,-1.21615519278,0.0023947153527,0.03458370497,-0.0055048844295,0.999383774601
1573179030518166599,0,1573179030175879471,grasp_lab,tag_14,-1.22008281712,0.0384145660133,-3.06871579902,0.00229838207463,0.0395094161758,0.00217892923093,0.999214179113
1573179030518211635,0,1573179030175879471,map,rig,0.00716123421899,0.00584583303145,0.00465422299321,0.99943066774,-0.00677389571398,-0.0330055875493,0.00175667515671
1573179030518271925,0,1573179030175879471,rig,cam0,-5.59795326987e-24,-1.8884426014e-24,-7.23616616559e-25,1.08260621597e-24,-2.13143842342e-24,-6.17408669582e-24,1.0
1573179030744043437,0,1573179030446756332,map,grasp_lab,-1.15574001142e-19,3.17064723353e-20,3.43471650726e-20,-1.38003838832e-21,-1.21831521641e-21,-6.35531743079e-22,1.0
1573179030744307197,0,1573179030446756332,grasp_lab,tag_7,0.469,-0.018,-2.54,-1.67316416566e-21,-3.34559495491e-22,-8.40012862932e-22,1.0
1573179030744412882,0,1573179030446756332,grasp_lab,tag_9,-0.645703552934,0.0239477691925,-3.11307547646,0.00905657661916,0.03686884416,-0.0205015773413,0.999068742418
1573179030744547616,0,1573179030446756332,grasp_lab,tag_8,-0.855718847335,-0.00232284271407,-1.21623952541,0.00237033947397,0.0345521547647,-0.00550171780732,0.999384941448
1573179030744667232,0,1573179030446756332,grasp_lab,tag_14,-1.22005908061,0.0383910112134,-3.06883913927,0.0023005509244,0.0394913947725,0.00217575489235,0.999214893451
1573179030744823549,0,1573179030446756332,map,rig,0.00703507703045,0.00591713065387,0.00472065600483,0.999431362393,-0.0067948668747,-0.0329792433599,0.00177514972583
1573179030744940810,0,1573179030446756332,rig,cam0,-6.96542587679e-24,1.97023165878e-24,-1.83295447314e-27,3.25940026916e-24,7.12991962607e-25,-7.66755643803e-24,1.0
1573179031007919836,0,1573179030651576920,map,grasp_lab,-9.94819670054e-20,1.15385649071e-19,2.75373589325e-20,-1.36304894985e-21,-9.12005308915e-22,-7.34422049537e-22,1.0
1573179031007933248,0,1573179030651576920,grasp_lab,tag_7,0.469,-0.018,-2.54,-1.6783311481e-21,-2.65550773121e-24,-1.12922245453e-21,1.0
1573179031007937020,0,1573179030651576920,grasp_lab,tag_9,-0.645704373174,0.0239751126824,-3.1130698217,0.00899811907561,0.0368542846769,-0.0204908187109,0.999070028528
1573179031007940731,0,1573179030651576920,grasp_lab,tag_8,-0.855722105117,-0.00239312249514,-1.21623646045,0.00239948068686,0.0345478775171,-0.00550239035211,0.999385016073
1573179031007944171,0,1573179030651576920,grasp_lab,tag_14,-1.22005783565,0.0384142490359,-3.06882840191,0.00235523988439,0.0394810514963,0.00217450837065,0.999215177492
1573179031007953458,0,1573179030651576920,map,rig,0.00711040697709,0.00580210904745,0.00472181722115,0.999431012375,-0.00678539491939,-0.0329929544733,0.00175353205124
1573179031007959402,0,1573179030651576920,rig,cam0,-8.25743702298e-24,2.30510169308e-24,-2.06588473044e-25,9.89918426932e-25,4.06541172507e-24,-7.25148493944e-24,1.0
1573179031217669431,0,1573179030926052369,map,grasp_lab,-9.45854347291e-20,1.77765128745e-19,3.52812955566e-20,-1.40692780445e-21,-8.19636163977e-22,-4.68145515083e-22,1.0
1573179031217795026,0,1573179030926052369,grasp_lab,tag_7,0.469,-0.018,-2.54,-2.70364431581e-21,-1.67323786744e-22,-1.09724803142e-21,1.0
1573179031217872764,0,1573179030926052369,grasp_lab,tag_9,-0.645726548953,0.0239973205313,-3.11301225394,0.00899006243785,0.0368795879562,-0.0204902550192,0.999069178895
1573179031217946546,0,1573179030926052369,grasp_lab,tag_8,-0.855672048412,-0.0024339636134,-1.21617778705,0.00241783944778,0.0345676662917,-0.00550530277839,0.99938427151
1573179031218296824,0,1573179030926052369,grasp_lab,tag_14,-1.22007792658,0.0384366554479,-3.06874916721,0.00237193556333,0.0395028086507,0.00217176467169,0.99921428406
1573179031218470040,0,1573179030926052369,map,rig,0.00714217173053,0.00567539345936,0.00477575320934,0.999430869022,-0.00678473483028,-0.0329986657157,0.00173016751524
1573179031218666515,0,1573179030926052369,rig,cam0,-8.64408752778e-24,5.35852256009e-24,2.20561022297e-25,4.04712086146e-24,2.75826014863e-24,-6.18726025449e-24,1.0
1573179031433437660,0,1573179031156385233,map,grasp_lab,-9.85458427172e-20,2.5992822234e-19,3.03431215339e-20,-1.19712251434e-21,-8.93519202163e-22,-6.7097343672e-22,1.0
1573179031433535047,0,1573179031156385233,grasp_lab,tag_7,0.469,-0.018,-2.54,-2.89625453466e-21,-2.47476202335e-22,-9.24783825133e-22,1.0
1573179031434381926,0,1573179031156385233,grasp_lab,tag_9,-0.645716335146,0.0240245496392,-3.11301141449,0.00901518217032,0.0368562962408,-0.0204842763113,0.99906993466
1573179031434421952,0,1573179031156385233,grasp_lab,tag_8,-0.855687143072,-0.00251800057842,-1.21619524327,0.00244485799529,0.0345622513436,-0.0055029739058,0.999384405887
1573179031434434292,0,1573179031156385233,grasp_lab,tag_14,-1.22007469794,0.0384585268525,-3.06877805019,0.00241968836727,0.0394971312216,0.00217561193104,0.999214385628
1573179031434509025,0,1573179031156385233,map,rig,0.00708912007332,0.00556067185335,0.00475028332488,0.999431177614,-0.00678009803446,-0.032991605925,0.0017045298017
1573179031434566865,0,1573179031156385233,rig,cam0,-9.66458562454e-24,6.9494198093e-24,-2.80178632346e-25,-4.49219730721e-24,1.97904991702e-24,-6.85725919021e-24,1.0
1573179031655643578,0,1573179031350570722,map,grasp_lab,-5.09963142875e-20,3.41418648773e-19,3.53551731944e-20,-2.17070218545e-21,-5.65836834138e-22,-3.31416285084e-22,1.0
1573179031655659281,0,1573179031350570722,grasp_lab,tag_7,0.469,-0.018,-2.54,-4.55986350586e-21,4.91424205396e-22,-1.76600987913e-21,1.0
1573179031655664852,0,1573179031350570722,grasp_lab,tag_9,-0.645727185258,0.0240676590528,-3.11299049013,0.00909789643012,0.0368569063601,-0.0204836211778,0.999069175782
1573179031655742779,0,1573179031350570722,grasp_lab,tag_8,-0.855661965638,-0.00263842364822,-1.21616659564,0.00248624879799,0.0345634528538,-0.00549927443757,0.999384282583
1573179031655752343,0,1573179031350570722,grasp_lab,tag_14,-1.2200902139,0.038495092698,-3.06875689592,0.00246835478051,0.0395021537242,0.00217999181591,0.999214058504
1573179031655763558,0,1573179031350570722,map,rig,0.00708741154612,0.00531078249542,0.00474674196209,0.99943133991,-0.00678402717422,-0.0329881984918,0.00165907824698
1573179031655868625,0,1573179031350570722,rig,cam0,-1.02052253804e-23,5.06410064642e-24,5.04111377648e-25,-4.32624052237e-24,3.43733704245e-24,-5.97969790615e-24,1.0
1573179031873593802,0,1573179031596880829,map,grasp_lab,-7.45031505402e-20,2.7612937426e-19,3.25201545453e-20,-2.44618560403e-21,-7.13611193013e-22,2.26151385705e-22,1.0
1573179031873619108,0,1573179031596880829,grasp_lab,tag_7,0.469,-0.018,-2.54,-3.5053574853e-21,6.83369529104e-22,-1.53318819843e-21,1.0
1573179031873623830,0,1573179031596880829,grasp_lab,tag_9,-0.645703132442,0.0241056683753,-3.11303424981,0.00907587883786,0.036827739908,-0.0204688890516,0.999070753539
1573179031873627596,0,1573179031596880829,grasp_lab,tag_8,-0.855711758218,-0.00279178930599,-1.21622207775,0.00253601962806,0.0345427626494,-0.00548870695047,0.99938493097
1573179031873632056,0,1573179031596880829,grasp_lab,tag_14,-1.22007375368,0.0385193673917,-3.06883674782,0.00250949110423,0.0394827269815,0.00218661525083,0.999214709378
1573179031873635823,0,1573179031596880829,map,rig,0.00695928223141,0.00505535847062,0.00472664871876,0.999432158979,-0.00677187429802,-0.0329683428307,0.00160925081142
1573179031873639586,0,1573179031596880829,rig,cam0,-1.36811839993e-23,6.75074542705e-25,-2.44312873654e-25,1.66383651552e-23,2.64477088166e-24,-3.74935281772e-24,1.0
1573179032082766789,0,1573179031792721394,map,grasp_lab,-7.99109011814e-20,5.21520697503e-19,4.21683895183e-20,-2.60867878006e-21,-7.11808283887e-22,-3.93354206395e-22,1.0
1573179032082791723,0,1573179031792721394,grasp_lab,tag_7,0.469,-0.018,-2.54,-5.94205033298e-21,4.60897156722e-22,-2.86740330746e-21,1.0
1573179032082797451,0,1573179031792721394,grasp_lab,tag_9,-0.645703982542,0.0241288166487,-3.11301683633,0.0091425630369,0.0368341718325,-0.0204640289367,0.999070007981
1573179032082801388,0,1573179031792721394,grasp_lab,tag_8,-0.855704213545,-0.0028783816879,-1.21621105533,0.00256181493304,0.0345391946033,-0.0054838869489,0.999385014959
1573179032082805039,0,1573179031792721394,grasp_lab,tag_14,-1.22007328293,0.0385356715397,-3.06881772902,0.00255123231105,0.0394910954116,0.00219253357096,0.999214260003
1573179032082808881,0,1573179031792721394,map,rig,0.0070222236094,0.00493557789933,0.00471777446083,0.999431872708,-0.00676925110817,-0.0329786681192,0.00158634893339
1573179032082812669,0,1573179031792721394,rig,cam0,-1.24629166594e-23,9.948394284e-24,-7.42264767968e-26,-9.34606231467e-24,1.88076916211e-24,-7.99215075217e-24,1.0
1573179032296705040,0,1573179032014958432,map,grasp_lab,-8.89937759146e-20,5.20420096295e-19,4.06975824936e-20,-2.60101548027e-21,-8.56346069258e-22,-6.58784459997e-22,1.0
1573179032296719238,0,1573179032014958432,grasp_lab,tag_7,0.469,-0.018,-2.54,-5.15554966123e-21,6.00462048166e-22,-2.93009301831e-21,1.0
1573179032296725040,0,1573179032014958432,grasp_lab,tag_9,-0.6456936395,0.0240871656871,-3.11304012315,0.00909176206919,0.0368107076855,-0.0204709342379,0.999071194917
1573179032296729381,0,1573179032014958432,grasp_lab,tag_8,-0.855723616776,-0.00274366103699,-1.21624051399,0.0025248915947,0.0345327552009,-0.00549354909963,0.999385278388
1573179032296733466,0,1573179032014958432,grasp_lab,tag_14,-1.22006562576,0.0385032039083,-3.06885837378,0.00249925095768,0.039490119817,0.00219166054837,0.999214431844
1573179032296748365,0,1573179032014958432,map,rig,0.00698440764592,0.00515398548717,0.00470433561718,0.999431956333,-0.00678169468598,-0.0329716162973,0.00162659015631
1573179032296753362,0,1573179032014958432,rig,cam0,-1.27525868186e-23,1.06319986727e-23,2.61949068658e-25,-8.29778570652e-25,3.27119415252e-24,-1.00736733496e-23,1.0
1573179032513319151,0,1573179032233449523,map,grasp_lab,-8.87252084264e-20,4.66577267047e-19,4.14041149468e-20,-2.26062621411e-21,-1.14138246353e-21,-7.33227031351e-22,1.0
1573179032513339674,0,1573179032233449523,grasp_lab,tag_7,0.469,-0.018,-2.54,-4.84234522518e-21,4.11279525503e-22,-2.96092686258e-21,1.0
1573179032513345610,0,1573179032233449523,grasp_lab,tag_9,-0.645682985659,0.0240824971991,-3.1130474801,0.00911925900058,0.0367706098193,-0.0204697734239,0.999072444693
1573179032513349705,0,1573179032233449523,grasp_lab,tag_8,-0.855739102874,-0.002739603323,-1.21626399697,0.00252481078534,0.0345266983898,-0.00549264555944,0.999385492827
1573179032513355674,0,1573179032233449523,grasp_lab,tag_14,-1.22005989361,0.0384980434513,-3.0688904501,0.00248404446862,0.03949260389,0.00219144382079,0.999214372062
1573179032513361562,0,1573179032233449523,map,rig,0.00692186518758,0.00520660910526,0.0046895108851,0.999432361463,-0.00677586845015,-0.0329598874718,0.00163959905749
1573179032513365608,0,1573179032233449523,rig,cam0,-1.37326821054e-23,1.72028196097e-23,-3.84318171928e-25,-5.05925911748e-24,1.65755051604e-24,-7.84510329512e-24,1.0
1573179032753734666,0,1573179032443106399,map,grasp_lab,-8.9215193342e-20,4.76974786203e-19,3.36525054717e-20,-2.13306962355e-21,-1.2181335134e-21,-7.1679046852e-22,1.0
1573179032753749565,0,1573179032443106399,grasp_lab,tag_7,0.469,-0.018,-2.54,-5.07677933763e-21,4.00488676971e-22,-2.89065789648e-21,1.0
1573179032753760325,0,1573179032443106399,grasp_lab,tag_9,-0.645679578972,0.0240856792378,-3.11306425194,0.00907781128383,0.0367741117625,-0.0204667420426,0.999072755367
1573179032753766441,0,1573179032443106399,grasp_lab,tag_8,-0.855751554501,-0.00275401851097,-1.21627409418,0.00252612512347,0.0345203708832,-0.00548987122282,0.999385723332
1573179032753770741,0,1573179032443106399,grasp_lab,tag_14,-1.22005435979,0.038500081876,-3.06890099548,0.0025079951872,0.0394876168366,0.00218789776553,0.999214517098
1573179032753776436,0,1573179032443106399,map,rig,0.00692719554838,0.00518193192245,0.00468938911383,0.99943236898,-0.00676734613792,-0.032961833269,0.00163107620646
1573179032753921380,0,1573179032443106399,rig,cam0,-1.36716476894e-23,1.64504314353e-23,-8.1458717932e-26,-3.83625134791e-24,2.21537176471e-24,-8.75478578132e-24,1.0
1573179032969612605,0,1573179032710535043,map,grasp_lab,-7.3737909673e-20,5.07048207068e-19,3.7352406696e-20,-2.25058090447e-21,-1.10822143932e-21,-6.46839291034e-22,1.0
1573179032969702373,0,1573179032710535043,grasp_lab,tag_7,0.469,-0.018,-2.54,-5.10627915786e-21,5.59158807224e-22,-3.17993152052e-21,1.0
1573179032969800014,0,1573179032710535043,grasp_lab,tag_9,-0.645687477242,0.0241036160463,-3.11302672172,0.00914924999282,0.0367827705898,-0.0204746762488,0.99907162238
1573179032969856042,0,1573179032710535043,grasp_lab,tag_8,-0.855735653877,-0.00278871891919,-1.2162433246,0.00254370338727,0.0345251963942,-0.00549104677011,0.999385505595
1573179032969891549,0,1573179032710535043,grasp_lab,tag_14,-1.22006257604,0.0385176273033,-3.06886198075,0.00254439310417,0.0394861002297,0.00218940051392,0.999214481719
1573179032969981467,0,1573179032710535043,map,rig,0.0069733071,0.00503949496846,0.0047470378013,0.999432183977,-0.00676794236904,-0.0329685628013,0.00160575637935
1573179032970047420,0,1573179032710535043,rig,cam0,-1.46629476984e-23,1.8399923119e-23,-2.36292833546e-25,1.04809781297e-24,1.84561163992e-24,-7.06925517022e-24,1.0
1573179033194775764,0,1573179032924973312,map,grasp_lab,-7.65220926724e-20,4.96245500314e-19,4.1216644972e-20,-2.46427698333e-21,-1.1380681065e-21,-6.46853562008e-22,1.0
1573179033194797148,0,1573179032924973312,grasp_lab,tag_7,0.469,-0.018,-2.54,-5.35894251934e-21,5.40909685125e-22,-2.71870655442e-21,1.0
1573179033194804598,0,1573179032924973312,grasp_lab,tag_9,-0.645681003202,0.0240947567232,-3.11304321191,0.00913136352096,0.0367668273644,-0.0204743598281,0.999072379358
1573179033194809980,0,1573179032924973312,grasp_lab,tag_8,-0.855746800889,-0.00273987050028,-1.21625942248,0.00252610730477,0.0345142376004,-0.00549514266432,0.99938590624
1573179033194816038,0,1573179032924973312,grasp_lab,tag_14,-1.22006211855,0.0385143189168,-3.06890078626,0.00254021572983,0.0394902577882,0.00218478189087,0.999214338154
1573179033194820987,0,1573179032924973312,map,rig,0.00704990007725,0.00514441165432,0.00474835064977,0.999431609544,-0.00677948651542,-0.0329825929186,0.00162633705456
1573179033194825059,0,1573179032924973312,rig,cam0,-1.42098448715e-23,1.17602309407e-23,-2.40063815603e-25,2.35907247319e-24,1.94169209609e-24,-7.24472817306e-24,1.0
1573179033410407045,0,1573179033116064277,map,grasp_lab,-7.06204163138e-20,5.22683335528e-19,3.42930735734e-20,-3.11088103296e-21,-1.08282029224e-21,-3.99646259628e-22,1.0
1573179033410421574,0,1573179033116064277,grasp_lab,tag_7,0.469,-0.018,-2.54,-6.40157634518e-21,4.54146606806e-22,-2.7000767755e-21,1.0
1573179033410433079,0,1573179033116064277,grasp_lab,tag_9,-0.645684259695,0.024125084298,-3.11303123757,0.00913897786147,0.036776253476,-0.0204754387041,0.99907194069
1573179033410437918,0,1573179033116064277,grasp_lab,tag_8,-0.855736624566,-0.00278296168575,-1.21624725521,0.00254383825636,0.0345126923026,-0.0054967133559,0.999385905994
1573179033410444486,0,1573179033116064277,grasp_lab,tag_14,-1.22006901671,0.0385468443629,-3.06889568736,0.00255989417523,0.039500887231,0.00218408018424,0.999213869321
1573179033410450616,0,1573179033116064277,map,rig,0.00699104160701,0.00504256056872,0.00472417572552,0.999431975577,-0.00678601824382,-0.0329710680913,0.00160773742512
1573179033410456520,0,1573179033116064277,rig,cam0,-1.42373883252e-23,1.04585723844e-23,9.86610500653e-26,7.88370638747e-24,1.12818562138e-24,-7.09956130242e-24,1.0
1573179033628798961,0,1573179033342948053,map,grasp_lab,-7.46014846199e-20,5.55806248123e-19,3.62247992403e-20,-2.95502945136e-21,-1.16601587279e-21,-5.54979278028e-22,1.0
1573179033629158726,0,1573179033342948053,grasp_lab,tag_7,0.469,-0.018,-2.54,-5.74192909926e-21,6.01494861587e-22,-3.06955589238e-21,1.0
1573179033629253844,0,1573179033342948053,grasp_lab,tag_9,-0.645674143209,0.0241205013551,-3.11305099435,0.00918145895276,0.036776690295,-0.0204761941615,0.99907151963
1573179033629320643,0,1573179033342948053,grasp_lab,tag_8,-0.855758761482,-0.00279794076984,-1.21627354585,0.00254998728611,0.0345021364742,-0.00549456046423,0.99938626664
1573179033629332535,0,1573179033342948053,grasp_lab,tag_14,-1.22005956601,0.0385382596786,-3.06892662666,0.00255551798839,0.0394910296988,0.00218833923836,0.999214260843
1573179033629343400,0,1573179033342948053,map,rig,0.00699765095588,0.00504122874991,0.00476867710073,0.999432124583,-0.0067743273443,-0.032969107116,0.00160462341566
1573179033629492699,0,1573179033342948053,rig,cam0,-1.46270983208e-23,1.55773465271e-23,1.66595957698e-26,1.76836602704e-24,2.22020893917e-24,-7.50257526185e-24,1.0
1573179033858658631,0,1573179033558491128,map,grasp_lab,-7.6541499331e-20,5.54992751748e-19,3.04329585051e-20,-2.96191261176e-21,-1.21376884152e-21,-4.28372016306e-22,1.0
1573179033858764915,0,1573179033558491128,grasp_lab,tag_7,0.469,-0.018,-2.54,-5.91124201199e-21,2.37512693483e-22,-3.23338250502e-21,1.0
1573179033858825208,0,1573179033558491128,grasp_lab,tag_9,-0.645682790598,0.0241167546961,-3.1130368961,0.00918794623137,0.0367886483567,-0.0204705201194,0.999071136007
1573179033858875945,0,1573179033558491128,grasp_lab,tag_8,-0.855742031293,-0.00280880224467,-1.2162554349,0.00255207856859,0.0345056609699,-0.00549180971841,0.999386154738
1573179033858941264,0,1573179033558491128,grasp_lab,tag_14,-1.22006395428,0.0385316592945,-3.06889701467,0.00256188844661,0.0394990730065,0.00219040197525,0.99921392209
1573179033859263182,0,1573179033558491128,map,rig,0.0069897007541,0.00502057506719,0.00474254035036,0.999432068847,-0.00677462730367,-0.0329708549518,0.0016021573811
1573179033859277502,0,1573179033558491128,rig,cam0,-1.43346723738e-23,1.55537731686e-23,-4.63315691587e-25,3.70186101981e-24,1.05194353359e-24,-6.9450709891e-24,1.0
1573179034064797764,0,1573179033800165146,map,grasp_lab,-8.18000219723e-20,5.20606906918e-19,4.0481692505e-20,-2.85031965731e-21,-1.36852791955e-21,-5.07609912702e-22,1.0
1573179034064892700,0,1573179033800165146,grasp_lab,tag_7,0.469,-0.018,-2.54,-5.89431104313e-21,2.2860352721e-22,-2.82904436005e-21,1.0
1573179034065030744,0,1573179033800165146,grasp_lab,tag_9,-0.645675345883,0.0240947155136,-3.11306071658,0.00912172282101,0.036791432005,-0.0204640080156,0.999071773738
1573179034065279208,0,1573179033800165146,grasp_lab,tag_8,-0.855757867584,-0.00277036239625,-1.21627611902,0.00252865134785,0.0344967248029,-0.00548837463327,0.999386541656
1573179034065328301,0,1573179033800165146,grasp_lab,tag_14,-1.22005166592,0.0385087022328,-3.0689142274,0.00257060166639,0.0394847416874,0.00219013321234,0.999214466717
1573179034065364254,0,1573179033800165146,map,rig,0.00690672456381,0.00507697393207,0.00469541130766,0.9994325339,-0.00677789692019,-0.0329554269912,0.00161558898359
1573179034065545060,0,1573179033800165146,rig,cam0,-1.51489115618e-23,1.68766684034e-23,-4.8251125605e-25,6.82360587065e-25,4.69969623239e-25,-6.69392854096e-24,1.0
1573179034285155205,0,1573179033987570172,map,grasp_lab,-7.12209241208e-20,5.29046191303e-19,3.67429718751e-20,-2.86304224393e-21,-1.41490317554e-21,-4.07298865131e-22,1.0
1573179034285377976,0,1573179033987570172,grasp_lab,tag_7,0.469,-0.018,-2.54,-6.18654717082e-21,4.43520921405e-22,-3.0839255206e-21,1.0
1573179034285395288,0,1573179033987570172,grasp_lab,tag_9,-0.645666714711,0.0241023704484,-3.11305592579,0.00918287834929,0.0367684380121,-0.0204606740269,0.999072128292
1573179034285405989,0,1573179033987570172,grasp_lab,tag_8,-0.855770440869,-0.00282469543165,-1.21628686432,0.00254054158919,0.0344856168767,-0.00548172986993,0.999386931331
1573179034285412471,0,1573179033987570172,grasp_lab,tag_14,-1.22004475363,0.0385104787597,-3.06892605427,0.00261189899028,0.0394842033001,0.00219310835427,0.999214374371
1573179034285417340,0,1573179033987570172,map,rig,0.00694777234384,0.00505964366225,0.00469399548245,0.999432341046,-0.00676987062937,-0.0329631153722,0.00161169078978
1573179034285460613,0,1573179033987570172,rig,cam0,-1.47247593311e-23,1.21367299143e-23,-5.40067427198e-25,4.25210113722e-24,2.19779002358e-24,-5.78768114105e-24,1.0
1573179034502099319,0,1573179034227290601,map,grasp_lab,-5.58932433823e-20,5.73598456236e-19,4.08732218113e-20,-4.52943578183e-21,-1.37535380621e-21,-5.4128890606e-22,1.0
1573179034502117389,0,1573179034227290601,grasp_lab,tag_7,0.469,-0.018,-2.54,-6.93089096647e-21,5.03659857391e-22,-2.30483558175e-21,1.0
1573179034502159971,0,1573179034227290601,grasp_lab,tag_9,-0.645655435805,0.0240754364056,-3.11306442358,0.00918704318196,0.0367572540892,-0.0204625222676,0.999072463684
1573179034502167801,0,1573179034227290601,grasp_lab,tag_8,-0.855791061942,-0.00276316656652,-1.21630865164,0.00252016414512,0.0344759406632,-0.00548319323208,0.999387308745
1573179034502188336,0,1573179034227290601,grasp_lab,tag_14,-1.22003224492,0.038485541842,-3.06894432954,0.00262051876102,0.0394705282177,0.00218745180584,0.999214904482
1573179034502192596,0,1573179034227290601,map,rig,0.00678658297963,0.00516662036461,0.00462758352228,0.999433272417,-0.00675809411076,-0.0329363821237,0.0016299946328
1573179034502196417,0,1573179034227290601,rig,cam0,-1.53412237834e-23,1.87747473403e-23,2.74373841477e-25,-1.08748807632e-23,2.78008746261e-24,-6.87308802789e-24,1.0
1573179034725383125,0,1573179034446192403,map,grasp_lab,-4.6699083022e-20,4.42729502357e-19,3.44284136558e-20,-4.88671198865e-21,-1.34883840878e-21,-4.71843532421e-22,1.0
1573179034725396858,0,1573179034446192403,grasp_lab,tag_7,0.469,-0.018,-2.54,-5.23107465858e-21,5.02967726523e-22,-2.06206568985e-21,1.0
1573179034725406001,0,1573179034446192403,grasp_lab,tag_9,-0.645652122406,0.0240472127608,-3.1130843633,0.00911557239211,0.0367769656691,-0.0204608329692,0.99907242753
1573179034725414576,0,1573179034446192403,grasp_lab,tag_8,-0.855800307505,-0.00267665055065,-1.21631713388,0.0024828466288,0.034468828555,-0.00548521746314,0.999387636365
1573179034725419144,0,1573179034446192403,grasp_lab,tag_14,-1.22002631496,0.0384632238981,-3.06895788202,0.00256451492073,0.0394658228495,0.00218759439478,0.999215235333
1573179034725435888,0,1573179034446192403,map,rig,0.00684746380117,0.00530231981081,0.00468508218853,0.99943285734,-0.00677455683552,-0.0329441445877,0.00165903200307
1573179034725439997,0,1573179034446192403,rig,cam0,-1.40360497653e-23,1.14712498421e-24,-1.96207196529e-26,-3.74900530035e-24,1.83573497231e-24,-7.42980995898e-24,1.0
1573179034930175528,0,1573179034648674513,map,grasp_lab,-7.86682949296e-20,3.91156392309e-19,3.67506007085e-20,-5.14039922511e-21,-1.59271490176e-21,-4.89563127697e-22,1.0
1573179034930200168,0,1573179034648674513,grasp_lab,tag_7,0.469,-0.018,-2.54,-5.17072557805e-21,4.67314259067e-22,-2.0402898322e-21,1.0
1573179034930209137,0,1573179034648674513,grasp_lab,tag_9,-0.645643053058,0.0240310603045,-3.11310596717,0.0091325805076,0.0367667724637,-0.0204645438133,0.999072571369
1573179034930214908,0,1573179034648674513,grasp_lab,tag_8,-0.855817797593,-0.00261803457548,-1.21633729617,0.00246013388296,0.0344572064471,-0.00548760107774,0.999388080227
1573179034930247134,0,1573179034648674513,grasp_lab,tag_14,-1.22001648946,0.0384520929099,-3.06898261136,0.00254497785484,0.0394568695012,0.00218063803135,0.999215654078
1573179034930251670,0,1573179034648674513,map,rig,0.00682448311763,0.00540051143255,0.00469448158553,0.999433001184,-0.00677187708982,-0.0329393384479,0.00167863260005
1573179034930256041,0,1573179034648674513,rig,cam0,-1.33444223376e-23,-4.03037727978e-24,-2.85987897845e-25,-4.16233811537e-24,4.04423383837e-24,-7.42598955221e-24,1.0
1573179035136065707,0,1573179034876590247,map,grasp_lab,-8.24656380756e-20,3.09958099313e-19,5.02688284487e-20,-5.8221103482e-21,-1.69329858485e-21,-7.49410129582e-22,1.0
1573179035136079528,0,1573179034876590247,grasp_lab,tag_7,0.469,-0.018,-2.54,-4.87007708471e-21,6.99759000276e-22,-1.55598138253e-21,1.0
1573179035136083672,0,1573179034876590247,grasp_lab,tag_9,-0.645646035752,0.024013490111,-3.11310303777,0.00913070878787,0.0367859462848,-0.0204659162565,0.999071854565
1573179035136090149,0,1573179034876590247,grasp_lab,tag_8,-0.855814294099,-0.00258236208735,-1.21632898879,0.00244270338573,0.0344585733054,-0.00548882837093,0.999388069115
1573179035136093966,0,1573179034876590247,grasp_lab,tag_14,-1.22001917194,0.038434668934,-3.0689739232,0.00253778681416,0.0394579280562,0.00217767333177,0.999215637033
1573179035136097896,0,1573179034876590247,map,rig,0.00683224409975,0.00542288087825,0.00466415372198,0.999432871215,-0.00677361494923,-0.0329428346951,0.00168039208233
1573179035136102876,0,1573179034876590247,rig,cam0,-1.35422663834e-23,2.01953653308e-24,4.25235106005e-25,-4.99748024747e-24,3.33568326479e-24,-6.57327756464e-24,1.0
1573179035352725560,0,1573179035062702992,map,grasp_lab,-6.62911397217e-20,3.0424661797e-19,4.69884747833e-20,-6.0602614375e-21,-1.39635008154e-21,-1.13106336042e-21,1.0
1573179035352740500,0,1573179035062702992,grasp_lab,tag_7,0.469,-0.018,-2.54,-4.49758708792e-21,1.09144707858e-21,-2.13748259657e-21,1.0
1573179035352746281,0,1573179035062702992,grasp_lab,tag_9,-0.645654528379,0.0239736676444,-3.11307036338,0.00911746824335,0.0367839848236,-0.02046981736,0.999071967783
1573179035352755540,0,1573179035062702992,grasp_lab,tag_8,-0.855790164794,-0.0024798306884,-1.21630201985,0.00240183102754,0.034466621629,-0.00549162655738,0.999387875271
1573179035352773217,0,1573179035062702992,grasp_lab,tag_14,-1.2200351439,0.0383998843701,-3.06895891575,0.00250029967531,0.0394786028848,0.00217550167407,0.999214919629
1573179035352781856,0,1573179035062702992,map,rig,0.00681573299759,0.00566077781611,0.00467746084168,0.999432911723,-0.00677762241474,-0.0329383722532,0.00172697211243
1573179035352787439,0,1573179035062702992,rig,cam0,-1.28392890901e-23,-7.10956689638e-24,2.90352856793e-25,-1.97443616313e-24,3.17941950349e-24,-9.35105910653e-24,1.0
1573179035571413453,0,1573179035289650162,map,grasp_lab,-8.15048268363e-20,2.91523339649e-19,4.70765676861e-20,-5.56319696181e-21,-1.47579630969e-21,-8.83090748025e-22,1.0
1573179035571431597,0,1573179035289650162,grasp_lab,tag_7,0.469,-0.018,-2.54,-4.50058721812e-21,9.87699384989e-22,-1.9645533139e-21,1.0
1573179035571513125,0,1573179035289650162,grasp_lab,tag_9,-0.645637927196,0.0239646657098,-3.11309603298,0.00911439405282,0.0367621230459,-0.0204800464973,0.999072590869
1573179035571517231,0,1573179035289650162,grasp_lab,tag_8,-0.85582453651,-0.00243157617059,-1.21634434986,0.00238204261962,0.0344580174758,-0.00549423505775,0.999388204996
1573179035571532548,0,1573179035289650162,grasp_lab,tag_14,-1.22002095447,0.0383963399952,-3.06900544006,0.00246260168836,0.0394698744632,0.00217500389822,0.99921535915
1573179035571539749,0,1573179035289650162,map,rig,0.00678568935384,0.00573204200564,0.00465669252408,0.999433034345,-0.0067842739869,-0.0329324853305,0.00174209563207
1573179035571549315,0,1573179035289650162,rig,cam0,-1.31581012679e-23,3.50673078755e-24,-2.94150477076e-26,-4.57189895123e-24,5.17630007654e-24,-9.13507977043e-24,1.0
1573179035789159996,0,1573179035522383764,map,grasp_lab,-7.61521424963e-20,4.04658689827e-19,5.93699072391e-20,-5.43296176071e-21,-1.12049603818e-21,-7.483569664e-22,1.0
1573179035789172155,0,1573179035522383764,grasp_lab,tag_7,0.469,-0.018,-2.54,-6.01196801167e-21,1.0283792579e-21,-2.49302320458e-21,1.0
1573179035789182282,0,1573179035522383764,grasp_lab,tag_9,-0.64564691999,0.0239898711708,-3.11306414997,0.00915804340768,0.0367548102829,-0.0204750413124,0.999072563353
1573179035789187433,0,1573179035522383764,grasp_lab,tag_8,-0.855803489169,-0.00253408373724,-1.21631679664,0.00241433456459,0.0344652506604,-0.00548603053329,0.999387923158
1573179035789192435,0,1573179035522383764,grasp_lab,tag_14,-1.22003232667,0.0384120827256,-3.06897423716,0.002514916885,0.0394840670644,0.00218069960866,0.999214655712
1573179035789196803,0,1573179035522383764,map,rig,0.00677692172961,0.00556252679814,0.00468135470598,0.999433298013,-0.00676984474891,-0.0329291354386,0.00170998926897
1573179035789201120,0,1573179035522383764,rig,cam0,-9.89749082512e-24,8.83351783142e-24,3.755408065e-25,-1.75066059861e-24,6.81781239289e-24,-8.76407416375e-24,1.0
1573179036012732377,0,1573179035718871319,map,grasp_lab,-6.93366045178e-20,3.56704225754e-19,6.31399596755e-20,-6.13592664871e-21,-9.86063083791e-22,-6.39121508592e-22,1.0
1573179036012747206,0,1573179035718871319,grasp_lab,tag_7,0.469,-0.018,-2.54,-6.18441888676e-21,1.27350460647e-21,-2.26054040458e-21,1.0
1573179036012808910,0,1573179035718871319,grasp_lab,tag_9,-0.645648594394,0.0239899933393,-3.11306518394,0.00912221036502,0.0367502278407,-0.0204671799134,0.999073220829
1573179036012960520,0,1573179035718871319,grasp_lab,tag_8,-0.855799966988,-0.00255467586146,-1.21631212684,0.00242212900697,0.034461720838,-0.00548537879393,0.9993880296
1573179036012971188,0,1573179035718871319,grasp_lab,tag_14,-1.22003464018,0.0384087622341,-3.06897413468,0.00251674642831,0.0394869187425,0.00218480000374,0.99921452946
1573179036013046982,0,1573179035718871319,map,rig,0.00690283730446,0.00556147741279,0.00470800022607,0.999432534568,-0.00676136972037,-0.0329539079408,0.00171250623885
1573179036013094343,0,1573179035718871319,rig,cam0,-1.0731182326e-23,6.9000101014e-24,3.5545527656e-25,1.32768250322e-24,6.34354594421e-24,-9.49324361563e-24,1.0
1573179036216174098,0,1573179035965615129,map,grasp_lab,-6.72032324206e-20,3.92677198435e-19,6.30098076088e-20,-5.67769226677e-21,-1.02845455834e-21,-6.5724984241e-22,1.0
1573179036216411298,0,1573179035965615129,grasp_lab,tag_7,0.469,-0.018,-2.54,-6.1141531103e-21,1.30052437482e-21,-2.32839950989e-21,1.0
1573179036216421298,0,1573179035965615129,grasp_lab,tag_9,-0.645622926756,0.0239837620835,-3.11310760589,0.00910952009251,0.0367133625066,-0.0204674237382,0.999074687009
1573179036216425868,0,1573179035965615129,grasp_lab,tag_8,-0.855847396344,-0.00251335603555,-1.21637065689,0.00241316597493,0.0344393452741,-0.00548931402374,0.999388800997
1573179036216431121,0,1573179035965615129,grasp_lab,tag_14,-1.22001615231,0.0384077388035,-3.0690572066,0.00250207609174,0.0394697309259,0.0021840478749,0.999215247027
1573179036216435308,0,1573179035965615129,map,rig,0.00675702128451,0.00557748033286,0.00465108962303,0.999433349829,-0.00678379011265,-0.0329244124721,0.00171537287389
1573179036216445954,0,1573179035965615129,rig,cam0,-1.14101346629e-23,1.21122285023e-23,-4.28530003111e-25,-1.16952500828e-24,8.80778500007e-24,-7.42600453967e-24,1.0
1573179036446283532,0,1573179036150365481,map,grasp_lab,-7.07375833002e-20,2.86721967489e-19,6.08357721053e-20,-6.12405310089e-21,-1.19934699489e-21,-5.457285552e-22,1.0
1573179036446296944,0,1573179036150365481,grasp_lab,tag_7,0.469,-0.018,-2.54,-6.13041429469e-21,1.11787038656e-21,-2.59578266114e-21,1.0
1573179036446301301,0,1573179036150365481,grasp_lab,tag_9,-0.645615961216,0.0240034592405,-3.11311290867,0.00909707748027,0.0367071085575,-0.0204584705805,0.999075213557
1573179036446305152,0,1573179036150365481,grasp_lab,tag_8,-0.855859627089,-0.00257977272589,-1.2163829711,0.00243701967499,0.0344293244323,-0.00548773273624,0.999389097071
1573179036446319020,0,1573179036150365481,grasp_lab,tag_14,-1.2200105293,0.0384225681377,-3.06907194657,0.00251974148656,0.0394643294767,0.00219136646655,0.999215399959
1573179036446327232,0,1573179036150365481,map,rig,0.00674309743327,0.00548863181712,0.00466619427239,0.999433505601,-0.00676718123789,-0.0329241463535,0.00169520735985
1573179036446331886,0,1573179036150365481,rig,cam0,-1.2998995012e-23,2.78056583659e-24,-3.36282575147e-25,-1.93017719179e-24,6.48390847918e-24,-5.28558505638e-24,1.0
1573179036652538968,0,1573179036383878461,map,grasp_lab,-7.15207995034e-20,5.05980673624e-19,4.86172801288e-20,-7.0151163896e-21,-1.15840670719e-21,-8.2276419731e-22,1.0
1573179036652552250,0,1573179036383878461,grasp_lab,tag_7,0.469,-0.018,-2.54,-7.73951439247e-21,6.1349753991e-22,-2.66299528049e-21,1.0
1573179036652557004,0,1573179036383878461,grasp_lab,tag_9,-0.645613675061,0.0240491276534,-3.11310704694,0.00915142484588,0.0367062080004,-0.0204524270369,0.999074874044
1573179036652566261,0,1573179036383878461,grasp_lab,tag_8,-0.85586780841,-0.00273608204227,-1.21638640988,0.00248695238185,0.0344261305085,-0.00547996632297,0.999389126704
1573179036652574497,0,1573179036383878461,grasp_lab,tag_14,-1.2200122863,0.0384564977539,-3.06907814061,0.00258285066842,0.039471934512,0.00219750769059,0.999214924943
1573179036652579242,0,1573179036383878461,map,rig,0.00671613313919,0.00522844575465,0.00468066902347,0.999433844714,-0.00676151489541,-0.0329174217028,0.00164781793789
1573179036652583727,0,1573179036383878461,rig,cam0,-1.11589934204e-23,1.85494359313e-23,-6.61770690825e-25,-1.37300214336e-24,5.14442869738e-24,-5.88629803367e-24,1.0
1573179036855391409,0,1573179036583388549,map,grasp_lab,-5.07071030508e-20,4.2155248077e-19,4.87983585542e-20,-4.8981081443e-21,-1.08317340957e-21,-1.05840409735e-21,1.0
1573179036855406536,0,1573179036583388549,grasp_lab,tag_7,0.469,-0.018,-2.54,-5.18070249645e-21,1.3101312448e-21,-2.66241478218e-21,1.0
1573179036855475710,0,1573179036583388549,grasp_lab,tag_9,-0.645608762212,0.023998005725,-3.11310816668,0.00910646803534,0.0366867111041,-0.0204614405161,0.999075816402
1573179036855564587,0,1573179036583388549,grasp_lab,tag_8,-0.855872546528,-0.00259726804045,-1.21639635841,0.00243628261976,0.03442006001,-0.00548366191961,0.999389440332
1573179036855572111,0,1573179036583388549,grasp_lab,tag_14,-1.22000968797,0.0384128525655,-3.06909210293,0.0025343290563,0.0394702688827,0.00219304105194,0.999215124796
1573179036855578825,0,1573179036583388549,map,rig,0.0067393219813,0.00547294907289,0.0046551038688,0.999433511742,-0.00676911974911,-0.0329235108413,0.00169618957412
1573179036855585093,0,1573179036583388549,rig,cam0,-1.46789701844e-23,2.633107828e-23,-1.67119043444e-24,8.6197543706e-24,5.31824737251e-24,-1.18731769414e-23,1.0
1573179037059372042,0,1573179036800366795,map,grasp_lab,-6.24601373269e-20,2.91014987618e-19,3.7871252863e-20,-4.63069718197e-21,-1.27031803758e-21,-8.93231991696e-22,1.0
1573179037059384997,0,1573179036800366795,grasp_lab,tag_7,0.469,-0.018,-2.54,-5.95975081135e-21,1.24505753626e-21,-3.16634847795e-21,1.0
1573179037059389339,0,1573179036800366795,grasp_lab,tag_9,-0.645596493396,0.0239897684084,-3.11313632746,0.00910831242722,0.0366681878217,-0.0204630319586,0.99907644701
1573179037059394579,0,1573179036800366795,grasp_lab,tag_8,-0.8558964437,-0.00256242950032,-1.21642811498,0.00242609467117,0.0344027858787,-0.00548646137302,0.999390044542
1573179037059402462,0,1573179036800366795,grasp_lab,tag_14,-1.21999371474,0.0384083283168,-3.06912146979,0.00252105943646,0.0394536452543,0.00218977102083,0.999215822052
1573179037059413337,0,1573179036800366795,map,rig,0.00671150842554,0.00549647980818,0.00461120364271,0.99943376851,-0.00677706311929,-0.0329138212764,0.00170121897011
1573179037059417106,0,1573179036800366795,rig,cam0,-1.5581802237e-23,1.01327552481e-23,-1.40935450324e-24,2.06035302694e-24,6.57963818155e-24,-1.10299867634e-23,1.0
1573179037400306905,0,1573179036989050788,map,grasp_lab,3.82672062059e-20,-1.99708961536e-20,1.02054069754e-20,1.17763744863e-22,-8.02314996958e-23,3.01764713071e-23,1.0
1573179037400323988,0,1573179036989050788,grasp_lab,tag_7,0.469,-0.018,-2.54,4.13515638997e-22,3.7098460764e-22,1.2208393401e-22,1.0
1573179037400330400,0,1573179036989050788,grasp_lab,tag_9,-0.645591872009,0.0240016728888,-3.11316685662,0.0091236737884,0.0366914426648,-0.020462799979,0.999075457825
1573179037400335109,0,1573179036989050788,grasp_lab,tag_8,-0.855914223198,-0.00261434065846,-1.2164468052,0.00244384091512,0.0343905739245,-0.00548550579118,0.999390426857
1573179037400348984,0,1573179036989050788,grasp_lab,tag_14,-1.21998692913,0.0384148796166,-3.06914428156,0.0025183827487,0.0394379757996,0.00219805579034,0.99921642919
1573179037400353867,0,1573179036989050788,map,rig,0.00668181321112,0.00541119353613,0.00460981068528,0.999434107974,-0.00675698007674,-0.0329086237365,0.00168211834351
1573179037400360161,0,1573179036989050788,rig,cam0,-2.09174391668e-24,-2.45047579166e-24,7.42595056916e-25,-4.69344146922e-25,4.2081708816e-25,7.12441648227e-26,1.0
1573179037538378285,0,1573179037210601429,map,grasp_lab,2.68649784772e-21,-1.80775359932e-20,-4.07889806601e-21,1.82261251092e-22,-1.05170960449e-22,2.46618175086e-23,1.0
1573179037538481469,0,1573179037210601429,grasp_lab,tag_7,0.469,-0.018,-2.54,5.25864997511e-22,1.52568867622e-22,2.40561429671e-22,1.0
1573179037538542873,0,1573179037210601429,grasp_lab,tag_9,-0.64557834967,0.0239852823888,-3.11321319426,0.00904632029106,0.0367004753004,-0.0204531608535,0.999076026843
1573179037538610351,0,1573179037210601429,grasp_lab,tag_8,-0.855945102632,-0.00258421841209,-1.21648922707,0.00243188573806,0.0343765965984,-0.00548507998344,0.99939093924
1573179037538846071,0,1573179037210601429,grasp_lab,tag_14,-1.21996847804,0.03839738099,-3.06918488672,0.00250846678302,0.0394159756656,0.00219979164425,0.999217318391
1573179037538855610,0,1573179037210601429,map,rig,0.00657089122056,0.00545191934661,0.00464283695587,0.999434686099,-0.00677837393218,-0.0328860782898,0.00169343553308
1573179037538886322,0,1573179037210601429,rig,cam0,-7.47930117958e-25,-2.36210536551e-25,-7.85110878216e-26,-5.92863605198e-26,6.08045840604e-25,7.11594577902e-27,1.0
1573179037762208179,0,1573179037425371837,map,grasp_lab,-1.03819205935e-20,-1.63839805038e-19,-3.01556296425e-21,1.20376214556e-21,-2.73706794399e-22,1.41937986999e-22,1.0
1573179037762231166,0,1573179037425371837,grasp_lab,tag_7,0.469,-0.018,-2.54,2.88921103439e-21,6.22351842359e-23,1.806515746e-21,1.0
1573179037762237802,0,1573179037425371837,grasp_lab,tag_9,-0.64557766019,0.0239340448784,-3.11323449172,0.00895113627666,0.0367122658874,-0.0204561131627,0.999076390536
1573179037762241888,0,1573179037425371837,grasp_lab,tag_8,-0.855948277907,-0.00241934575302,-1.21650066694,0.00237628894532,0.034376664799,-0.00549361793496,0.999391023739
1573179037762245612,0,1573179037425371837,grasp_lab,tag_14,-1.21996592517,0.0383578804351,-3.06920001106,0.00246103902723,0.0394126654684,0.00219033669432,0.999217587672
1573179037762249437,0,1573179037425371837,map,rig,0.0065097973179,0.00580708381581,0.00464480697263,0.999434905941,-0.00676571691547,-0.0328786031447,0.00175821396851
1573179037762261796,0,1573179037425371837,rig,cam0,1.22605348935e-25,5.38044150908e-24,-2.07887342515e-25,-1.23098952653e-23,1.10230018842e-24,3.10268821852e-24,1.0
1573179037991331150,0,1573179037714357105,map,grasp_lab,-1.67940450892e-20,-1.9812519025e-19,-6.57409700666e-21,2.45815549155e-21,-2.64764937439e-22,2.83578013898e-22,1.0
1573179037991421176,0,1573179037714357105,grasp_lab,tag_7,0.469,-0.018,-2.54,2.60376362198e-21,1.57132397603e-23,1.04010514861e-21,1.0
1573179037991470666,0,1573179037714357105,grasp_lab,tag_9,-0.645568939094,0.0239319087535,-3.11324989136,0.00893974954354,0.0366973254116,-0.0204504690649,0.999077156931
1573179037991527353,0,1573179037714357105,grasp_lab,tag_8,-0.855965205927,-0.00244118520614,-1.216516993,0.00238164000272,0.0343651773597,-0.00548904769451,0.999391431188
1573179037991608383,0,1573179037714357105,grasp_lab,tag_14,-1.21996059089,0.0383512919005,-3.06923187945,0.00246293797757,0.0394111399825,0.002195795589,0.999217631181
1573179037991775320,0,1573179037714357105,map,rig,0.00645344753213,0.00574603063674,0.00457103432641,0.999435210905,-0.00677528306823,-0.0328678311206,0.00174940548021
1573179037991786343,0,1573179037714357105,rig,cam0,2.80841300064e-25,3.98629217739e-24,-3.77863635873e-26,2.73865678814e-24,2.05902929695e-24,9.80888019569e-25,1.0
1573179038216077378,0,1573179037920803818,map,grasp_lab,-3.51031042435e-20,-2.65962089094e-19,-7.81500925038e-22,8.10435650535e-22,-2.0331558749e-22,4.10404791774e-22,1.0
1573179038216252976,0,1573179037920803818,grasp_lab,tag_7,0.469,-0.018,-2.54,2.02334193544e-21,-1.65265676895e-22,1.41515943136e-21,1.0
1573179038216262318,0,1573179037920803818,grasp_lab,tag_9,-0.645563544616,0.0239571708058,-3.11327187172,0.00893854119081,0.0367061619988,-0.0204476517744,0.999076900789
1573179038216267165,0,1573179037920803818,grasp_lab,tag_8,-0.855980261168,-0.00251009894143,-1.21653422597,0.00240614644339,0.0343594805994,-0.00548673930075,0.999391581035
1573179038216271805,0,1573179037920803818,grasp_lab,tag_14,-1.21995373705,0.0383719833644,-3.06925012671,0.00248059208522,0.0394017750768,0.00219649962815,0.99921795529
1573179038216430196,0,1573179037920803818,map,rig,0.00586188833745,0.00540138435796,0.00495427313929,0.999438885312,-0.00674878916025,-0.0327647093517,0.00168588048308
1573179038216443212,0,1573179037920803818,rig,cam0,1.78147575563e-24,3.0113051454e-24,-3.98659140897e-27,-2.11102372413e-25,1.43800936592e-24,1.18679336679e-24,1.0
1573179038455466700,0,1573179038141618705,map,grasp_lab,-3.29038612998e-20,-1.26957084984e-19,-9.45347640151e-21,1.45799544817e-21,-4.00349751702e-22,5.59304128888e-22,1.0
1573179038455482335,0,1573179038141618705,grasp_lab,tag_7,0.469,-0.018,-2.54,1.74311873329e-21,-1.01925991929e-22,1.4273509396e-21,1.0
1573179038455488346,0,1573179038141618705,grasp_lab,tag_9,-0.645555426213,0.0239339336301,-3.11329533991,0.00891010325864,0.036701770332,-0.0204539771785,0.999077186674
1573179038455560341,0,1573179038141618705,grasp_lab,tag_8,-0.855998699765,-0.00243685330236,-1.21655847602,0.00238052833375,0.0343496400552,-0.00548898687929,0.999391968317
1573179038455565615,0,1573179038141618705,grasp_lab,tag_14,-1.21994180347,0.0383541312174,-3.06927027723,0.00247141848087,0.03939107635,0.0021928553659,0.999218407847
1573179038455579269,0,1573179038141618705,map,rig,0.00651571850187,0.00576099317526,0.00455675547689,0.999434919966,-0.00677123069656,-0.0328772681644,0.00175397430017
1573179038455630947,0,1573179038141618705,rig,cam0,1.08764079382e-24,5.97123362785e-24,2.5088950468e-25,-2.34004179726e-24,3.77764256263e-26,-2.17683799439e-24,1.0
1573179038699863456,0,1573179038380709098,map,grasp_lab,-6.06651722627e-20,-1.06866585464e-19,-1.16858765898e-20,3.56926650479e-22,-4.8328115877e-22,5.55261527877e-22,1.0
1573179038700010487,0,1573179038380709098,grasp_lab,tag_7,0.469,-0.018,-2.54,1.60155669788e-21,-6.62373585532e-22,7.45249315458e-22,1.0
1573179038700068297,0,1573179038380709098,grasp_lab,tag_9,-0.645546543081,0.0239118351545,-3.11332211958,0.00888475649223,0.0367060526097,-0.0204530031476,0.999077275022
1573179038700125659,0,1573179038380709098,grasp_lab,tag_8,-0.856019083617,-0.00238973368958,-1.21658279087,0.00235953080179,0.0343373906204,-0.00548990891905,0.999392433992
1573179038700205783,0,1573179038380709098,grasp_lab,tag_14,-1.21993135914,0.0383329191186,-3.06929903682,0.00245966924034,0.039381730144,0.00219312569368,0.999218804646
1573179038700212383,0,1573179038380709098,map,rig,0.00656539302915,0.00585541499448,0.00457234169188,0.999434698854,-0.00677380386919,-0.0328825652807,0.00177065211417
1573179038700223805,0,1573179038380709098,rig,cam0,2.50970301649e-24,1.6774196691e-23,5.81363776915e-26,1.37837771378e-24,-6.55886664206e-25,8.95893317271e-25,1.0
1573179038928873684,0,1573179038634477210,map,grasp_lab,-5.2692848602e-20,-2.17197609929e-19,-1.56752107422e-20,3.07085878778e-22,-6.08771610168e-22,5.14916163545e-22,1.0
1573179038928890216,0,1573179038634477210,grasp_lab,tag_7,0.469,-0.018,-2.54,2.38921193905e-21,-2.69299718061e-22,1.0043103301e-21,1.0
1573179038928937071,0,1573179038634477210,grasp_lab,tag_9,-0.645539501805,0.0238950435179,-3.11334334654,0.00884250697667,0.0367023142465,-0.020453250278,0.999077782133
1573179038928945314,0,1573179038634477210,grasp_lab,tag_8,-0.856034854517,-0.00234395839187,-1.21660024741,0.00234462184979,0.0343276255484,-0.00549217652051,0.999392792084
1573179038928950374,0,1573179038634477210,grasp_lab,tag_14,-1.21992039741,0.0383184143437,-3.06931522357,0.0024313618861,0.039368662778,0.00219376859027,0.999219387447
1573179038928957467,0,1573179038634477210,map,rig,0.00641309317972,0.00592161743104,0.00450785690144,0.999435437534,-0.00677697191942,-0.0328588866584,0.00178112906865
1573179038928962877,0,1573179038634477210,rig,cam0,1.00374558653e-24,1.65182470732e-23,5.60705434755e-26,4.92212780403e-25,1.25027127889e-24,3.1497221871e-25,1.0
1573179039190758764,0,1573179038849722986,map,grasp_lab,-3.86940437082e-20,-1.84919629688e-19,-1.54745192063e-20,6.18229278803e-23,-5.21738157287e-22,5.1325723834e-22,1.0
1573179039190991180,0,1573179038849722986,grasp_lab,tag_7,0.469,-0.018,-2.54,1.54772498636e-21,-1.46856762474e-22,1.13830094631e-21,1.0
1573179039191156391,0,1573179038849722986,grasp_lab,tag_9,-0.645539810483,0.0239124072885,-3.11333305447,0.00886764331356,0.036682223806,-0.0204531310467,0.999078299629
1573179039191272426,0,1573179038849722986,grasp_lab,tag_8,-0.856034770937,-0.0023765054562,-1.21659492669,0.00235569812436,0.0343253087239,-0.00549279573352,0.999392842211
1573179039191388548,0,1573179038849722986,grasp_lab,tag_14,-1.21991865887,0.0383357168248,-3.06930084869,0.00245677686239,0.0393695516315,0.00218982188483,0.999219298919
1573179039191550082,0,1573179038849722986,map,rig,0.00641314605507,0.00587106150535,0.00453823616269,0.999435530903,-0.00677542613479,-0.0328568129847,0.0017728535502
1573179039191658020,0,1573179038849722986,rig,cam0,1.34599887517e-24,1.84713241182e-23,1.67262159084e-25,4.23920022743e-24,2.7015794838e-25,-6.85895194141e-26,1.0
1573179039413925393,0,1573179039101656694,map,grasp_lab,-5.40093670865e-20,-1.47703786459e-19,-1.42966507314e-20,8.82547408759e-23,-4.52432326759e-22,3.27588531964e-22,1.0
1573179039413943670,0,1573179039101656694,grasp_lab,tag_7,0.469,-0.018,-2.54,1.24165319753e-21,-2.57223988614e-22,8.6957489203e-22,1.0
1573179039413950432,0,1573179039101656694,grasp_lab,tag_9,-0.645536884248,0.0239358785745,-3.11333097324,0.00891285092739,0.036673898202,-0.0204619102966,0.999078023232
1573179039413955947,0,1573179039101656694,grasp_lab,tag_8,-0.856039826998,-0.00241952687347,-1.21659934896,0.00238431518584,0.0343252796083,-0.00549384447503,0.999392769583
1573179039413960228,0,1573179039101656694,grasp_lab,tag_14,-1.21991147358,0.0383591780568,-3.06929209186,0.00246504016858,0.0393635188418,0.00219506975505,0.999219504729
1573179039413965121,0,1573179039101656694,map,rig,0.00640574840542,0.00581035959478,0.00451048009793,0.999435490328,-0.0067840523535,-0.0328567532186,0.00176382396745
1573179039413971446,0,1573179039101656694,rig,cam0,1.82881457983e-24,1.64411869655e-23,1.64750499144e-25,1.30356632834e-24,7.49378660335e-25,-4.48059872764e-25,1.0
1573179039631802423,0,1573179039358150599,map,grasp_lab,-6.40639752575e-20,-1.71988542189e-19,-6.31374208279e-21,-4.13957961524e-22,-5.85371704839e-22,6.11218239559e-22,1.0
1573179039631911807,0,1573179039358150599,grasp_lab,tag_7,0.469,-0.018,-2.54,7.40898204498e-22,-5.92156070682e-22,1.03157863578e-21,1.0
1573179039631966640,0,1573179039358150599,grasp_lab,tag_9,-0.645549799847,0.0239411791303,-3.11330447187,0.00892750073011,0.0366889814494,-0.0204641273341,0.999077293238
1573179039631979037,0,1573179039358150599,grasp_lab,tag_8,-0.856011280653,-0.00241386787597,-1.21656706881,0.00238296048703,0.0343336522778,-0.00549648968743,0.999392470665
1573179039632118610,0,1573179039358150599,grasp_lab,tag_14,-1.21992439162,0.0383674419282,-3.06925526892,0.00247161461264,0.0393714199321,0.00218806092255,0.999219192571
