%time,field.transforms0.header.seq,field.transforms0.header.stamp,field.transforms0.header.frame_id,field.transforms0.child_frame_id,field.transforms0.transform.translation.x,field.transforms0.transform.translation.y,field.transforms0.transform.translation.z,field.transforms0.transform.rotation.x,field.transforms0.transform.rotation.y,field.transforms0.transform.rotation.z,field.transforms0.transform.rotation.w
1573179651278449530,0,1573179650986259208,map,grasp_lab,2.38887927146e-20,-1.09854490685e-19,3.72944707985e-20,6.55612813777e-21,9.65562031613e-22,-1.53607643861e-23,1.0
1573179651278470247,0,1573179650986259208,grasp_lab,tag_7,0.469,-0.018,-2.54,-1.15671854635e-21,1.0690061838e-21,5.1862504976e-23,1.0
1573179651278476379,0,1573179650986259208,grasp_lab,tag_14,-1.22083423469,0.0362197555169,-3.06557677676,0.00256469159682,0.0411812478972,0.00211808889161,0.999146155914
1573179651278480406,0,1573179650986259208,grasp_lab,tag_9,-0.647012715112,0.0222743836654,-3.11251282501,0.00932299575591,0.0408541723694,-0.0198781344239,0.998923860022
1573179651278485679,0,1573179650986259208,grasp_lab,tag_8,-0.853646070089,-0.00228855265686,-1.21376446119,0.00274064369419,0.0365893155012,-0.00522761987147,0.999312955412
1573179651278491318,0,1573179650986259208,map,rig,0.009155751316,0.00750400384897,0.00990660763947,0.999314576276,-0.00610108899846,-0.0364580421108,0.00199136129892
1573179651278696308,0,1573179650986259208,rig,cam0,5.68781067352e-24,4.78895003474e-23,9.89749315073e-25,1.96914490858e-26,-3.64102329077e-24,-1.93488506939e-24,1.0
1573179651641627749,0,1573179651223230571,map,grasp_lab,-4.97911267735e-21,2.22194711308e-20,1.33505112953e-20,4.45909294941e-23,1.72513226593e-23,6.81813394367e-23,1.0
1573179651641767076,0,1573179651223230571,grasp_lab,tag_7,0.469,-0.018,-2.54,-2.55776131014e-22,-8.97898977313e-23,2.34208827493e-22,1.0
1573179651641826124,0,1573179651223230571,grasp_lab,tag_14,-1.22083387191,0.0361988281355,-3.06556419356,0.00253088433309,0.0411869346334,0.0021089712521,0.999146027005
1573179651641872018,0,1573179651223230571,grasp_lab,tag_9,-0.647019482104,0.0222419201624,-3.11252782905,0.00926884779926,0.0408991547699,-0.0198847924074,0.998922390694
1573179651641911946,0,1573179651223230571,grasp_lab,tag_8,-0.853633509325,-0.00215695130577,-1.21375512196,0.00269581006109,0.0365912664334,-0.00523573069043,0.999312963467
1573179651642007795,0,1573179651223230571,map,rig,0.00927232983202,0.00775687858143,0.00989396352119,0.99931367453,-0.00610985465479,-0.0364788895934,0.00203474519523
1573179651642074459,0,1573179651223230571,rig,cam0,6.93205965368e-25,2.14714508935e-24,-2.60303458452e-25,4.03803404739e-25,-1.36692860726e-25,-6.44978596581e-26,1.0
1573179651762866574,0,1573179651444123921,map,grasp_lab,5.70891791211e-21,1.52240125025e-20,-4.42083735904e-21,-2.3083834267e-22,2.97017806262e-23,1.26636741242e-22,1.0
1573179651762879843,0,1573179651444123921,grasp_lab,tag_7,0.469,-0.018,-2.54,-4.44958134411e-22,6.56413257162e-23,2.7826247711e-22,1.0
1573179651762885613,0,1573179651444123921,grasp_lab,tag_14,-1.22083019509,0.0361813236714,-3.06555294205,0.00251501380178,0.0411858407913,0.00211011155796,0.999146109762
1573179651762889487,0,1573179651444123921,grasp_lab,tag_9,-0.647022815702,0.0222233825026,-3.11253817657,0.00920994758815,0.0409030210313,-0.0198823035152,0.99892282672
1573179651762894739,0,1573179651444123921,grasp_lab,tag_8,-0.853632317258,-0.00211378578409,-1.21375542056,0.00268079307484,0.0365905089805,-0.00523768226662,0.999313021373
1573179651762900276,0,1573179651444123921,map,rig,0.00924268312849,0.00777977048503,0.00988714276812,0.999313927047,-0.00609859202102,-0.0364735946343,0.00203943125324
1573179651762905987,0,1573179651444123921,rig,cam0,3.18865139163e-26,-2.54456757649e-24,1.84045617963e-26,-1.63549583079e-25,4.64397047519e-26,-3.12612191999e-25,1.0
1573179651968252438,0,1573179651665420880,map,grasp_lab,9.83828990753e-21,4.82673383552e-20,-3.32452379343e-21,-9.15231125075e-22,6.14209029441e-23,1.61842708259e-22,1.0
1573179651968265006,0,1573179651665420880,grasp_lab,tag_7,0.469,-0.018,-2.54,-5.64486891261e-22,1.38595547641e-22,2.82438351695e-22,1.0
1573179651968269645,0,1573179651665420880,grasp_lab,tag_14,-1.22082757987,0.0361944474182,-3.06553435512,0.00250651353905,0.0411721850616,0.00211493141775,0.999146683742
1573179651968273491,0,1573179651665420880,grasp_lab,tag_9,-0.647027230118,0.0222375464118,-3.11254738269,0.00920107204245,0.0409443490345,-0.0198798635907,0.998921263954
1573179651968277061,0,1573179651665420880,grasp_lab,tag_8,-0.85362605014,-0.00214543274905,-1.21374855571,0.00269980458473,0.0365920656822,-0.00523702733105,0.999312916623
1573179651968287892,0,1573179651665420880,map,rig,0.00924135040009,0.00772851563228,0.0099138422118,0.999313965304,-0.00611191875526,-0.0364707472664,0.00203169648633
1573179651968318347,0,1573179651665420880,rig,cam0,-1.14467645935e-25,-6.79607965126e-24,1.16095472406e-25,3.399389546e-24,-4.87562638127e-26,2.57471558238e-25,1.0
1573179652184791353,0,1573179651891097386,map,grasp_lab,-2.39889021793e-20,1.18920530242e-19,-8.18595847104e-21,-2.23392586677e-21,2.36249693779e-22,4.79637052588e-22,1.0
1573179652184803347,0,1573179651891097386,grasp_lab,tag_7,0.469,-0.018,-2.54,-3.32487724937e-21,-2.57027871304e-22,7.90307675497e-22,1.0
1573179652184807490,0,1573179651891097386,grasp_lab,tag_14,-1.22080676512,0.0361583823819,-3.06559998949,0.00246949197547,0.0411494963316,0.00210650200295,0.999147728422
1573179652184811535,0,1573179651891097386,grasp_lab,tag_9,-0.6470057659,0.0221914151467,-3.11259213854,0.00910366888631,0.0409144854961,-0.0198828762626,0.998923320041
1573179652184815408,0,1573179651891097386,grasp_lab,tag_8,-0.853674206767,-0.00199964764833,-1.21380098824,0.00264606380588,0.0365732597326,-0.00524183737465,0.999313723592
1573179652184819295,0,1573179651891097386,map,rig,0.00922728541108,0.00795983288539,0.00988017271992,0.999313861651,-0.00611343827617,-0.0364709227479,0.00207450693793
1573179652184971278,0,1573179651891097386,rig,cam0,2.75221918521e-25,-5.88769635963e-24,-4.26637891428e-26,3.52977185389e-24,3.38672834419e-25,1.20647423206e-24,1.0
1573179652378908962,0,1573179652121719200,map,grasp_lab,-1.02506179943e-20,6.72052874957e-20,-8.45429483155e-21,-2.2711548892e-21,-1.0837002611e-22,4.24495752319e-22,1.0
1573179652378920175,0,1573179652121719200,grasp_lab,tag_7,0.469,-0.018,-2.54,-3.53439946772e-21,-5.19946842599e-22,3.05309037499e-22,1.0
1573179652378924002,0,1573179652121719200,grasp_lab,tag_14,-1.22079856843,0.0361355858329,-3.06564620102,0.00244892272543,0.0411470682142,0.00210520560702,0.999147881779
1573179652378927849,0,1573179652121719200,grasp_lab,tag_9,-0.646995324494,0.0221654714169,-3.11262563459,0.00906784916984,0.0409221256789,-0.0198829182906,0.998923332044
1573179652378931525,0,1573179652121719200,grasp_lab,tag_8,-0.853697631031,-0.0019337664513,-1.21383191345,0.0026220492134,0.0365639283697,-0.00524341304165,0.999314120094
1573179652382819955,0,1573179652121719200,map,rig,0.00951170128163,0.00821266357934,0.00975329121455,0.999312285383,-0.00610648295068,-0.0365124459299,0.00212330890273
1573179652382982941,0,1573179652121719200,rig,cam0,-6.58232229935e-25,-1.31541672258e-23,-1.02427085798e-25,6.26173457017e-24,-2.96082297537e-25,1.69819665879e-24,1.0
1573179652625329153,0,1573179652304147844,map,grasp_lab,2.78245415337e-21,1.40062640891e-19,-1.88887653181e-20,-1.41568471387e-21,3.05960613201e-22,6.56618938066e-22,1.0
1573179652625570990,0,1573179652304147844,grasp_lab,tag_7,0.469,-0.018,-2.54,-3.47275836717e-21,-1.74655345734e-22,1.0769125121e-21,1.0
1573179652625744994,0,1573179652304147844,grasp_lab,tag_14,-1.22080288927,0.0361074252066,-3.06560781808,0.00239626133773,0.0411497158855,0.00210488204309,0.999147901107
1573179652625872748,0,1573179652304147844,grasp_lab,tag_9,-0.647005722736,0.0221309055964,-3.11260937149,0.0090310581137,0.0409358016162,-0.0198875002787,0.998923013784
1573179652625987681,0,1573179652304147844,grasp_lab,tag_8,-0.853676403817,-0.00183075965102,-1.21380643893,0.0025804148407,0.0365743157277,-0.00524730165192,0.999313827941
1573179652626163586,0,1573179652304147844,map,rig,0.00922097668943,0.00828931938874,0.00983690118539,0.999313809524,-0.00611877151272,-0.0364677560905,0.00213857347447
1573179652626290291,0,1573179652304147844,rig,cam0,-1.48040508409e-24,-1.97289538065e-25,2.40811543677e-25,-1.7357220583e-24,6.54441238147e-25,-2.22736820341e-24,1.0
1573179652842722339,0,1573179652545003004,map,grasp_lab,4.8771739465e-21,2.11442721654e-19,-2.01964340262e-20,-2.9832368691e-21,2.89562405445e-22,4.90930159448e-22,1.0
1573179652843027916,0,1573179652545003004,grasp_lab,tag_7,0.469,-0.018,-2.54,-3.88839093171e-21,-1.5972089363e-22,1.17189237189e-21,1.0
1573179652843041961,0,1573179652545003004,grasp_lab,tag_14,-1.22080447455,0.0361279981182,-3.06562532284,0.00241477204377,0.0411553073477,0.00210170240384,0.999147632935
1573179652843047013,0,1573179652545003004,grasp_lab,tag_9,-0.647001630937,0.0221515182444,-3.11260844667,0.00903079494883,0.0409143702871,-0.0198874204202,0.998923895778
1573179652843116109,0,1573179652545003004,grasp_lab,tag_8,-0.853682016956,-0.0018684006922,-1.21381296505,0.00259591172058,0.0365721820168,-0.00524801251423,0.999313862162
1573179652843120446,0,1573179652545003004,map,rig,0.00835862479792,0.00830568165669,0.0102403838719,0.999319276504,-0.00611326591425,-0.036318628526,0.0021374773738
1573179652843136360,0,1573179652545003004,rig,cam0,-1.6402418728e-24,-8.04937219245e-24,3.15084832058e-25,3.3535038549e-24,6.67484408464e-25,-1.43872716902e-24,1.0
1573179653059561390,0,1573179652772247766,map,grasp_lab,2.57731664972e-20,1.49763211853e-19,-1.68393042236e-20,-8.8790563456e-22,2.95551344409e-22,1.62368528956e-22,1.0
1573179653059625063,0,1573179652772247766,grasp_lab,tag_7,0.469,-0.018,-2.54,-5.19458109918e-21,2.70435805551e-22,8.619758209e-22,1.0
1573179653059673081,0,1573179652772247766,grasp_lab,tag_14,-1.22081844926,0.0361380646489,-3.06557227597,0.0024368420135,0.0411622807052,0.00211874559696,0.999147256097
1573179653059714754,0,1573179652772247766,grasp_lab,tag_9,-0.647017149047,0.0221780147094,-3.11257102169,0.00912345167205,0.0409303540257,-0.0198798843297,0.998922549024
1573179653059777232,0,1573179652772247766,grasp_lab,tag_8,-0.853647214986,-0.0020155387031,-1.21377349982,0.00264076593095,0.0365866373705,-0.00523536221385,0.999313281861
1573179653059816078,0,1573179652772247766,map,rig,0.00917365910565,0.00800386092237,0.00993128578588,0.999314328043,-0.00609401177819,-0.0364608064227,0.00208479827874
1573179653059824076,0,1573179652772247766,rig,cam0,-3.58212754767e-24,-2.84038855229e-24,7.59886754683e-26,-2.52985779164e-24,4.33823165234e-24,-2.57061025419e-25,1.0
1573179653268608292,0,1573179652995139237,map,grasp_lab,2.4729698358e-20,2.51034001567e-19,-1.59184639465e-21,-1.66130116326e-21,4.72494378762e-22,1.60623768535e-22,1.0
1573179653268692506,0,1573179652995139237,grasp_lab,tag_7,0.469,-0.018,-2.54,-4.67037814829e-21,3.37956829196e-22,1.8666807629e-21,1.0
1573179653268702222,0,1573179652995139237,grasp_lab,tag_14,-1.22083331097,0.0361815699793,-3.06553628444,0.00250386488801,0.0411744621087,0.00212730805387,0.999146570274
1573179653268706673,0,1573179652995139237,grasp_lab,tag_9,-0.647028134511,0.0222336256085,-3.11253487553,0.00922509505948,0.0409375976234,-0.019874623167,0.998921423374
1573179653268710601,0,1573179652995139237,grasp_lab,tag_8,-0.853627276917,-0.00218834969731,-1.21374235894,0.00269818730052,0.036598109023,-0.00522832257838,0.999312745263
1573179653268714321,0,1573179652995139237,map,rig,0.00926271340748,0.0076669899903,0.00989543485441,0.999313879796,-0.00609495641165,-0.0364764564619,0.00202219601591
1573179653268728849,0,1573179652995139237,rig,cam0,-3.23124295186e-24,4.28260553955e-24,1.07219854425e-24,2.37084411696e-23,1.49192558955e-24,-1.87959188089e-25,1.0
1573179653475288218,0,1573179653185510805,map,grasp_lab,1.9996853001e-20,2.57148281805e-19,-2.23163990681e-21,-5.31424424086e-22,2.86382439594e-22,4.57081199815e-24,1.0
1573179653475300761,0,1573179653185510805,grasp_lab,tag_7,0.469,-0.018,-2.54,-4.1241795879e-21,2.29292349778e-22,1.23069073444e-21,1.0
1573179653475308546,0,1573179653185510805,grasp_lab,tag_14,-1.2208374693,0.0361850138103,-3.06553095098,0.00254237791974,0.0411813488407,0.00213460329081,0.999146173636
1573179653475313096,0,1573179653185510805,grasp_lab,tag_9,-0.647029525318,0.0222466727454,-3.11252268401,0.00922059638249,0.04091705631,-0.0198618847131,0.998922559882
1573179653475497568,0,1573179653185510805,grasp_lab,tag_8,-0.853626365042,-0.00226731453582,-1.21373422094,0.00271950977386,0.0365976156762,-0.00521923232839,0.999312753049
1573179653475550190,0,1573179653185510805,map,rig,0.00928615057935,0.00754330482659,0.00990158848774,0.999313583044,-0.0060934720511,-0.0364861301554,0.00199866151214
1573179653475602652,0,1573179653185510805,rig,cam0,-3.14382333247e-24,1.83358447214e-25,6.35436868656e-25,2.24157479753e-23,1.21959027638e-24,-2.07997021923e-25,1.0
1573179653693001197,0,1573179653404102717,map,grasp_lab,1.63056378551e-20,2.76537718864e-19,-9.10974367219e-21,-1.20215945474e-21,4.01830729253e-22,2.26451968164e-22,1.0
1573179653693206710,0,1573179653404102717,grasp_lab,tag_7,0.469,-0.018,-2.54,-4.61460054353e-21,1.83324966326e-22,1.08117576852e-21,1.0
1573179653693346119,0,1573179653404102717,grasp_lab,tag_14,-1.22082532787,0.0361921653179,-3.06559209259,0.00253417483392,0.0411625822805,0.00213169797623,0.999146973994
1573179653693475106,0,1573179653404102717,grasp_lab,tag_9,-0.647013368119,0.0222501667934,-3.1125637646,0.00922405611465,0.0409014571213,-0.0198672834257,0.998923059421
1573179653693595767,0,1573179653404102717,grasp_lab,tag_8,-0.853659528859,-0.00225344042602,-1.21377913935,0.00271906263657,0.0365894426508,-0.00522166092696,0.999313040865
1573179653693779513,0,1573179653404102717,map,rig,0.00924977405949,0.00760961114412,0.00988558325693,0.999314005922,-0.00608703572505,-0.0364749353621,0.0020111328309
1573179653697420331,0,1573179653404102717,rig,cam0,-3.48005086823e-24,-5.73406945421e-24,7.75669733553e-25,3.06054095265e-23,1.79861806844e-24,-1.64801105877e-25,1.0
1573179653931579201,0,1573179653640803168,map,grasp_lab,1.42899342162e-20,1.03390547061e-19,-1.71646513002e-20,-1.10089773448e-21,5.04192275135e-22,-4.75791607208e-23,1.0
1573179653931678072,0,1573179653640803168,grasp_lab,tag_7,0.469,-0.018,-2.54,-3.72002723921e-21,1.95448601755e-22,1.00159498211e-21,1.0
1573179653931688846,0,1573179653640803168,grasp_lab,tag_14,-1.22081721341,0.0362012433227,-3.06561915345,0.00256759141134,0.0411538445586,0.00214017015817,0.999147230504
1573179653931693870,0,1573179653640803168,grasp_lab,tag_9,-0.647004483123,0.0222704334888,-3.11258218612,0.00927488947719,0.0408887855769,-0.0198595755413,0.998923260766
1573179653931702138,0,1573179653640803168,grasp_lab,tag_8,-0.853681713357,-0.00235683640881,-1.21380463676,0.00274336459379,0.0365824575124,-0.00521143667875,0.999313283551
1573179653931706418,0,1573179653640803168,map,rig,0.00918789662767,0.00747631291851,0.00990039388448,0.999314633443,-0.00607194115457,-0.0364618140719,0.00198268319759
1573179653931793452,0,1573179653640803168,rig,cam0,-3.46474614726e-24,-9.38803972522e-24,4.71688238462e-25,3.28351319536e-23,2.70792454181e-24,7.91514530773e-25,1.0
1573179654147211398,0,1573179653858260559,map,grasp_lab,5.92582376925e-22,1.97026462154e-19,-1.74539190139e-20,-5.66777947632e-22,5.00287621559e-22,3.2117529426e-22,1.0
1573179654147291246,0,1573179653858260559,grasp_lab,tag_7,0.469,-0.018,-2.54,-3.45597412308e-21,1.06529916035e-22,1.12910617956e-21,1.0
1573179654147405809,0,1573179653858260559,grasp_lab,tag_14,-1.22081599734,0.0362211705809,-3.06562088339,0.00260418440375,0.0411478817305,0.00214179257597,0.999147377906
1573179654149678194,0,1573179653858260559,grasp_lab,tag_9,-0.64700292805,0.0222955116076,-3.11258307611,0.00931106132816,0.0408982796308,-0.0198546116826,0.998922634269
1573179654149696654,0,1573179653858260559,grasp_lab,tag_8,-0.853686429313,-0.00243261386319,-1.21380559612,0.00276681586536,0.0365800476936,-0.00520774483498,0.999313326357
1573179654149838177,0,1573179653858260559,map,rig,0.00918971473395,0.00727698496893,0.00992777181952,0.999314628126,-0.00607973880171,-0.0364625838858,0.00194698880933
1573179654149930187,0,1573179653858260559,rig,cam0,-3.08152444318e-24,-7.78999802075e-25,4.86233512824e-25,2.73736308335e-23,3.24754548794e-24,1.87786248252e-25,1.0
1573179654363553471,0,1573179654097577967,map,grasp_lab,-8.82524394639e-21,1.75938422013e-19,-2.57774859287e-20,-8.61332170082e-23,6.75023454526e-22,3.31599865272e-22,1.0
1573179654363575810,0,1573179654097577967,grasp_lab,tag_7,0.469,-0.018,-2.54,-3.31372779263e-21,-1.5270501502e-22,6.05879786363e-22,1.0
1573179654363582743,0,1573179654097577967,grasp_lab,tag_14,-1.2208180257,0.0362400730305,-3.06561636963,0.00263419189381,0.0411472882776,0.00214248778391,0.999147322194
1573179654363587404,0,1573179654097577967,grasp_lab,tag_9,-0.647003946717,0.0223178508439,-3.11257687643,0.00932600782294,0.0408856619351,-0.0198504133206,0.998923094796
1573179654363594440,0,1573179654097577967,grasp_lab,tag_8,-0.853682502491,-0.00249457888227,-1.21380481362,0.00278901776899,0.0365820477944,-0.00520649086383,0.999313197957
1573179654363604197,0,1573179654097577967,map,rig,0.0091137133839,0.00710716510927,0.00988903669024,0.999315253374,-0.00607742116507,-0.0364476318678,0.00191297081256
1573179654363623319,0,1573179654097577967,rig,cam0,-4.36170332713e-24,-8.19307595884e-24,6.66307081479e-25,1.86350159683e-23,1.74228228348e-24,-1.70650919516e-24,1.0
1573179654597708750,0,1573179654297514541,map,grasp_lab,7.65636209535e-22,2.20338474105e-19,-2.31321378521e-20,1.93792776845e-21,4.04108177142e-22,7.55317713166e-22,1.0
1573179654597723076,0,1573179654297514541,grasp_lab,tag_7,0.469,-0.018,-2.54,-1.79484277922e-21,2.07342802528e-23,1.62791926785e-21,1.0
1573179654597730014,0,1573179654297514541,grasp_lab,tag_14,-1.22083681321,0.0362767189403,-3.0655646979,0.00266906705598,0.0411597594563,0.00215320899624,0.99914669292
1573179654597748525,0,1573179654297514541,grasp_lab,tag_9,-0.647020257455,0.0223658381939,-3.11253064531,0.00938908994835,0.04089784187,-0.0198440463981,0.998922131771
1573179654597756003,0,1573179654297514541,grasp_lab,tag_8,-0.85365159226,-0.00265165184611,-1.21376166041,0.00284335720415,0.036599017592,-0.0051971572891,0.999312472046
1573179654597760906,0,1573179654297514541,map,rig,0.00915571961803,0.0068834020492,0.00992777678728,0.999315013553,-0.00607303712295,-0.0364571998467,0.00186935459313
1573179654597775644,0,1573179654297514541,rig,cam0,-4.30311232361e-24,-9.57702651106e-26,6.5693712888e-25,7.70790775005e-24,5.67798031105e-24,-6.08944913126e-25,1.0
1573179654812883103,0,1573179654510114415,map,grasp_lab,-5.00270405465e-21,1.24205612036e-19,-2.89821044902e-20,8.96936541679e-22,6.47906836632e-22,3.50967982074e-22,1.0
1573179654812900601,0,1573179654510114415,grasp_lab,tag_7,0.469,-0.018,-2.54,-9.26173202204e-22,-9.20103437806e-23,1.0470697172e-21,1.0
1573179654813197334,0,1573179654510114415,grasp_lab,tag_14,-1.22083371635,0.0362977055799,-3.06558826765,0.0027098574271,0.0411600898276,0.00214797581935,0.999146580777
1573179654813218445,0,1573179654510114415,grasp_lab,tag_9,-0.647013573199,0.022386311974,-3.1125402907,0.0094214024732,0.0408949723693,-0.0198496175619,0.998921834326
1573179654813247080,0,1573179654510114415,grasp_lab,tag_8,-0.853663778443,-0.00268844945747,-1.2137795979,0.00285853995861,0.0365989589704,-0.00519740816562,0.999312429573
1573179654813257745,0,1573179654510114415,map,rig,0.00916763569845,0.00674264004521,0.00986900376628,0.999314913153,-0.00607598339422,-0.0364608566461,0.00184193058027
1573179654813265586,0,1573179654510114415,rig,cam0,-4.55494360054e-24,-1.30221354883e-23,7.45703114678e-25,2.25333006084e-23,5.15475340867e-24,-1.27513200091e-24,1.0
1573179655044323753,0,1573179654754899888,map,grasp_lab,-1.69179746439e-20,1.35580771508e-19,-4.94576151216e-20,2.46574546603e-21,7.36515962838e-22,1.06955020557e-22,1.0
1573179655044482957,0,1573179654754899888,grasp_lab,tag_7,0.469,-0.018,-2.54,1.85364997227e-21,-4.45723435165e-22,1.08047987351e-21,1.0
1573179655044628815,0,1573179654754899888,grasp_lab,tag_14,-1.22082377911,0.0363255061085,-3.06562574285,0.00272509367633,0.0411523437086,0.00215560254563,0.999146841985
1573179655044638715,0,1573179654754899888,grasp_lab,tag_9,-0.647000050823,0.0224203075272,-3.11255689701,0.00944027928119,0.0408734881476,-0.0198430164096,0.998922666573
1573179655044724439,0,1573179654754899888,grasp_lab,tag_8,-0.853692310613,-0.0027851005367,-1.21380756089,0.0028913348256,0.0365882027875,-0.00519383986526,0.999312747656
1573179655044862873,0,1573179654754899888,map,rig,0.00905996468578,0.00659562561188,0.00985906661292,0.999315696822,-0.00606661132081,-0.0364422983332,0.00181471863853
1573179655044870797,0,1573179654754899888,rig,cam0,-3.19370055887e-24,-6.97935774611e-24,3.56401849888e-25,8.3736642287e-24,5.96681329099e-24,-2.47319049188e-24,1.0
1573179655265810927,0,1573179654962852690,map,grasp_lab,-2.66215471339e-20,-1.20069353396e-20,-4.87976082147e-20,8.1369995507e-22,9.60037453013e-22,1.07553096469e-23,1.0
1573179655266026149,0,1573179654962852690,grasp_lab,tag_7,0.469,-0.018,-2.54,-1.14994975505e-21,-4.82808848449e-22,8.86309423237e-22,1.0
1573179655266149929,0,1573179654962852690,grasp_lab,tag_14,-1.22081545021,0.0363226864378,-3.06566653306,0.00271480123272,0.0411430488093,0.00215781844639,0.999147248011
1573179655266281044,0,1573179654962852690,grasp_lab,tag_9,-0.646987431722,0.022416750509,-3.11257571162,0.0094525850411,0.040864674725,-0.0198456043512,0.998922859376
1573179655266413853,0,1573179654962852690,grasp_lab,tag_8,-0.853718468679,-0.00277653515323,-1.21383813409,0.00289150832537,0.0365795511516,-0.00519547555212,0.999313055379
1573179655266551885,0,1573179654962852690,map,rig,0.00907905230402,0.00662358460409,0.00988285591863,0.999315729431,-0.00606530763028,-0.0364413983559,0.00181918717027
1573179655266716323,0,1573179654962852690,rig,cam0,-4.99491305122e-24,-9.55180785569e-24,5.23208657531e-25,3.01424685465e-23,6.74282438871e-24,-3.78925995187e-24,1.0
1573179655488451119,0,1573179655208951110,map,grasp_lab,-3.34983078784e-20,-1.01341198739e-19,-5.15772994474e-20,5.04506842387e-22,9.85956143669e-22,1.97037758818e-22,1.0
1573179655488462631,0,1573179655208951110,grasp_lab,tag_7,0.469,-0.018,-2.54,-8.42053281968e-22,-4.51421051172e-22,1.09074158544e-21,1.0
1573179655488467075,0,1573179655208951110,grasp_lab,tag_14,-1.22081055989,0.0363093206439,-3.06567288922,0.00268078781308,0.0411394374369,0.00215641801867,0.999147491577
1573179655488471406,0,1573179655208951110,grasp_lab,tag_9,-0.646983997698,0.0223994263311,-3.11258318406,0.00941833212955,0.0408484032113,-0.0198494556524,0.998923771909
1573179655488483591,0,1573179655208951110,grasp_lab,tag_8,-0.853725670071,-0.00272116461204,-1.21384662007,0.00288060107925,0.0365790848577,-0.00519942402927,0.999313083412
1573179655488489867,0,1573179655208951110,map,rig,0.00904609489723,0.00672502543338,0.00986076786775,0.999315742776,-0.00607456603317,-0.0364383050193,0.00184277342905
1573179655488496381,0,1573179655208951110,rig,cam0,-6.24047264213e-24,-7.24814047914e-24,7.82834834944e-25,2.93815919318e-23,5.27306418763e-24,-2.79576378995e-24,1.0
1573179655707262747,0,1573179655414117855,map,grasp_lab,-2.73592085628e-20,-4.45867303516e-20,-5.79707898769e-20,4.55453759036e-22,9.67620470183e-22,1.74866232988e-22,1.0
1573179655707343427,0,1573179655414117855,grasp_lab,tag_7,0.469,-0.018,-2.54,-1.14957150351e-21,-4.51181058347e-22,1.30542735424e-21,1.0
1573179655707388573,0,1573179655414117855,grasp_lab,tag_14,-1.22080721679,0.0363272906667,-3.0656939419,0.00268814307389,0.0411358736691,0.0021601144527,0.999147610561
1573179655707398393,0,1573179655414117855,grasp_lab,tag_9,-0.64697809962,0.0224190041404,-3.11259376618,0.00944850129593,0.0408336007097,-0.0198484815225,0.998924111561
1573179655707403166,0,1573179655414117855,grasp_lab,tag_8,-0.85373748176,-0.00276773731415,-1.21386292557,0.00290330332088,0.0365733771472,-0.00519732023447,0.999313237567
1573179655707415328,0,1573179655414117855,map,rig,0.00905690529328,0.00666153019804,0.00989802505039,0.999315761018,-0.00607191425397,-0.0364389259996,0.00182929229018
1573179655707477838,0,1573179655414117855,rig,cam0,-6.51644982407e-24,-9.49031073681e-24,6.50048247754e-25,3.65511849673e-23,4.82721726058e-24,-3.53098479217e-24,1.0
1573179655928326401,0,1573179655613003771,map,grasp_lab,-3.5776837326e-20,-6.89278601247e-20,-5.53122556607e-20,-4.31844174558e-22,1.12123096695e-21,3.94559280204e-22,1.0
1573179655928340043,0,1573179655613003771,grasp_lab,tag_7,0.469,-0.018,-2.54,-1.90621941334e-21,-5.38129163571e-22,1.88883936052e-21,1.0
1573179655928344712,0,1573179655613003771,grasp_lab,tag_14,-1.22081020293,0.0362908287667,-3.06567813685,0.00264239401957,0.0411384546039,0.00215522210375,0.999147636901
1573179655928352121,0,1573179655613003771,grasp_lab,tag_9,-0.6469835241,0.0223745000764,-3.11258843148,0.00940417833441,0.0408453635931,-0.0198523205304,0.998923972619
1573179655928358992,0,1573179655613003771,grasp_lab,tag_8,-0.853725942451,-0.0026369590845,-1.2138497781,0.00285279548519,0.0365766249107,-0.00520283436451,0.999313235469
1573179655928362993,0,1573179655613003771,map,rig,0.00901989705256,0.00689319186944,0.0098320740131,0.999316012987,-0.00606507749844,-0.0364309714185,0.00187225649338
1573179655928392190,0,1573179655613003771,rig,cam0,-6.28750742196e-24,-3.82334231278e-23,7.03346561813e-25,3.87183501308e-23,4.79888759027e-24,-5.97806313396e-24,1.0
1573179656161837567,0,1573179655856783956,map,grasp_lab,-3.195846767e-20,4.21683235752e-20,-6.69815585967e-20,-5.63353181913e-22,1.26717700872e-21,7.15981526954e-22,1.0
1573179656161966727,0,1573179655856783956,grasp_lab,tag_7,0.469,-0.018,-2.54,-3.34006451127e-21,-3.63215624236e-22,8.56644264019e-22,1.0
1573179656161975042,0,1573179655856783956,grasp_lab,tag_14,-1.22080495064,0.0362933278245,-3.06571397666,0.0026826458549,0.0411366721705,0.00215107156225,0.99914761197
1573179656161979394,0,1573179655856783956,grasp_lab,tag_9,-0.646973124883,0.022380559655,-3.1126022348,0.00938301391482,0.0408207275991,-0.0198460603315,0.998925303082
1573179656162097337,0,1573179655856783956,grasp_lab,tag_8,-0.853747812001,-0.00267065218386,-1.213875022,0.00286564528341,0.0365710735829,-0.00519916012245,0.999313420999
1573179656162133544,0,1573179655856783956,map,rig,0.00900208847089,0.00684890236867,0.00984818844092,0.999316056566,-0.0060701811471,-0.036429272029,0.00186551064887
1573179656162214237,0,1573179655856783956,rig,cam0,-6.6434478534e-24,-2.67120204354e-24,6.37947988199e-25,2.7762556015e-23,5.04462917873e-24,-4.97402754037e-24,1.0
1573179656406624928,0,1573179656105677660,map,grasp_lab,1.72175739898e-20,1.06179436292e-19,-5.11509002249e-20,-6.02561917556e-22,1.39199641163e-21,4.88405746326e-22,1.0
1573179656406763475,0,1573179656105677660,grasp_lab,tag_7,0.469,-0.018,-2.54,-4.07775258846e-21,-7.28600114159e-23,8.47363776049e-22,1.0
1573179656406880508,0,1573179656105677660,grasp_lab,tag_14,-1.2208168286,0.0363022883362,-3.06568759155,0.00270841503567,0.0411496196234,0.00215065149178,0.9991470102
1573179656406892856,0,1573179656105677660,grasp_lab,tag_9,-0.646982931439,0.0223926275807,-3.11257765899,0.00934409667365,0.0408231382862,-0.0198379295659,0.998925730867
1573179656407035148,0,1573179656105677660,grasp_lab,tag_8,-0.853724428921,-0.00270807658469,-1.21385246079,0.00288434038449,0.0365815283331,-0.00519866876281,0.999312987111
1573179656407133303,0,1573179656105677660,map,rig,0.00909257706062,0.00678295233034,0.00985838568701,0.99931556801,-0.0060669545513,-0.0364439124152,0.00185171374339
1573179656407202371,0,1573179656105677660,rig,cam0,-7.68209965954e-24,4.10403918376e-25,8.13283297647e-25,2.66868165495e-23,6.42210124796e-24,-4.51165504778e-24,1.0
1573179656638680010,0,1573179656344427686,map,grasp_lab,2.61987961294e-21,1.24050418254e-19,-5.46316452322e-20,-4.00895559934e-23,1.29886409205e-21,3.3411350134e-22,1.0
1573179656638695054,0,1573179656344427686,grasp_lab,tag_7,0.469,-0.018,-2.54,-2.76150508867e-21,-4.99062513529e-22,8.73697289677e-22,1.0
1573179656638708082,0,1573179656344427686,grasp_lab,tag_14,-1.22081168937,0.0362845685001,-3.0656977459,0.00269942446021,0.0411467029508,0.00214865175898,0.999147158951
1573179656638719009,0,1573179656344427686,grasp_lab,tag_9,-0.646978333662,0.022372929858,-3.11258323761,0.00936411228214,0.04080730909,-0.0198427933521,0.998926093602
1573179656638727270,0,1573179656344427686,grasp_lab,tag_8,-0.853733429551,-0.00265915858524,-1.21386068715,0.00286497721606,0.0365763154462,-0.00519801165037,0.999313237043
1573179656638777280,0,1573179656344427686,map,rig,0.00907799336429,0.00684790255449,0.0098611187622,0.999315565412,-0.00607341464226,-0.0364421503985,0.00186655701706
1573179656638787779,0,1573179656344427686,rig,cam0,-9.01539676566e-24,-2.36345054117e-24,6.22353496595e-25,1.93315767124e-23,7.09159217764e-24,-5.76684842644e-24,1.0
1573179656873043050,0,1573179656562749049,map,grasp_lab,-4.33375086951e-21,1.76250204485e-19,-5.79510531828e-20,5.29243610224e-22,1.29609121767e-21,3.75622882858e-22,1.0
1573179656873060308,0,1573179656562749049,grasp_lab,tag_7,0.469,-0.018,-2.54,-3.21802308279e-21,-4.82679335951e-22,7.32002588834e-22,1.0
1573179656873067128,0,1573179656562749049,grasp_lab,tag_14,-1.22080832574,0.0362866100328,-3.06569324778,0.00270672426559,0.0411462201549,0.00215192454217,0.999147152041
1573179656873073271,0,1573179656562749049,grasp_lab,tag_9,-0.646975649134,0.0223776421057,-3.1125750519,0.00939745328842,0.0407897694833,-0.0198414572704,0.998926523399
1573179656873078725,0,1573179656562749049,grasp_lab,tag_8,-0.853737463356,-0.00268350575382,-1.213866217,0.0028730446985,0.0365744484105,-0.00519626752709,0.999313291286
1573179656873085229,0,1573179656562749049,map,rig,0.00908570801971,0.00681408046175,0.00987746036503,0.999315555066,-0.00606595317646,-0.0364441887331,0.00185653533501
1573179656873090783,0,1573179656562749049,rig,cam0,-9.12746832376e-24,3.01299025726e-24,5.84664419169e-25,2.58142829195e-23,6.52789744578e-24,-4.72239233297e-24,1.0
1573179657100351661,0,1573179656812767633,map,grasp_lab,-1.51528286729e-20,1.65155416683e-19,-6.26853392648e-20,3.82273016888e-22,1.30390683751e-21,3.4190534771e-22,1.0
1573179657100378221,0,1573179656812767633,grasp_lab,tag_7,0.469,-0.018,-2.54,-3.34004967639e-21,-5.66262262192e-22,5.2609731707e-22,1.0
1573179657116664528,0,1573179656812767633,grasp_lab,tag_14,-1.22080184749,0.0362685232799,-3.06573211266,0.00267687775344,0.0411412467282,0.00215261563831,0.999147435762
1573179657118133502,0,1573179656812767633,grasp_lab,tag_9,-0.646965721818,0.0223564992306,-3.11259857048,0.00937674318077,0.0407743388755,-0.0198440034331,0.998927297407
1573179657118177226,0,1573179656812767633,grasp_lab,tag_8,-0.853761485822,-0.00262706034066,-1.21389401205,0.00283001535281,0.0365739757758,-0.00519690805896,0.999313428037
1573179657118217029,0,1573179656812767633,map,rig,0.00903642815996,0.00695031991647,0.00972984115438,0.999315960554,-0.0060519734422,-0.0364341875529,0.00188004685483
1573179657118227573,0,1573179656812767633,rig,cam0,-9.27540567777e-24,2.28463032001e-24,6.07636612251e-25,2.58049368861e-23,7.34197823172e-24,-5.37876377469e-24,1.0
1573179657318352354,0,1573179657019774112,map,grasp_lab,-3.31934033196e-20,1.82831156458e-19,-7.33808979016e-20,2.43014759896e-21,1.43559476823e-21,-3.36200061603e-23,1.0
1573179657318466815,0,1573179657019774112,grasp_lab,tag_7,0.469,-0.018,-2.54,-2.37727910431e-21,-7.02366553799e-22,5.2126809274e-22,1.0
1573179657324413482,0,1573179657019774112,grasp_lab,tag_14,-1.2207915397,0.0362835786454,-3.06577144409,0.00267984314575,0.0411238519606,0.00215909430103,0.999148129935
1573179657324552384,0,1573179657019774112,grasp_lab,tag_9,-0.646953220993,0.0223773155105,-3.11262327439,0.00940888518038,0.040748166051,-0.0198391346974,0.998928159868
1573179657324598235,0,1573179657019774112,grasp_lab,tag_8,-0.853789693275,-0.00269823146995,-1.21392663292,0.00285291929955,0.0365622528403,-0.0051922697886,0.999313816002
1573179657324657808,0,1573179657019774112,map,rig,0.00903284445978,0.00681372418794,0.00986878570098,0.999315955058,-0.00607337246224,-0.0364319534704,0.00185711582673
1573179657325704009,0,1573179657019774112,rig,cam0,-1.0503618911e-23,2.84809755693e-24,5.59855220742e-25,9.57516118861e-24,6.49823049763e-24,-5.969001702e-24,1.0
1573179657541709131,0,1573179657265212067,map,grasp_lab,-4.37015046879e-20,2.61135083543e-19,-7.64842021202e-20,1.48472253289e-21,1.35441760213e-21,5.71970098978e-22,1.0
1573179657541820434,0,1573179657265212067,grasp_lab,tag_7,0.469,-0.018,-2.54,-2.82554275273e-21,-9.61537016667e-22,3.96212571246e-22,1.0
1573179657541889458,0,1573179657265212067,grasp_lab,tag_14,-1.2207851677,0.0362866322781,-3.06579041481,0.00267537772692,0.0411140196442,0.00216108174361,0.999148542244
1573179657542086376,0,1573179657265212067,grasp_lab,tag_9,-0.646946480462,0.0223820242998,-3.1126360404,0.00940152633878,0.0407520910827,-0.0198365904552,0.998928119563
1573179657542154850,0,1573179657265212067,grasp_lab,tag_8,-0.853806933559,-0.00271767050549,-1.21394688229,0.00285899971838,0.0365581945368,-0.00519124015451,0.999313952449
1573179657542216313,0,1573179657265212067,map,rig,0.00896065780011,0.0068044694714,0.009860049873,0.999316561378,-0.00605615763901,-0.0364182010812,0.00185680901602
1573179657542230160,0,1573179657265212067,rig,cam0,-9.90172202308e-24,4.38513161413e-24,4.59957741699e-25,2.74511692752e-23,5.95085101555e-24,-3.42507574869e-24,1.0
1573179657778988457,0,1573179657475613115,map,grasp_lab,-5.50406891051e-20,2.17060319654e-19,-7.82094220086e-20,8.18931322218e-22,1.22805769928e-21,6.73659611787e-22,1.0
1573179657779123103,0,1573179657475613115,grasp_lab,tag_7,0.469,-0.018,-2.54,-2.83943657189e-21,-1.03079654146e-21,1.18800263315e-22,1.0
1573179657779201132,0,1573179657475613115,grasp_lab,tag_14,-1.22079180814,0.0362997082151,-3.06576420979,0.00270215262259,0.0411186216026,0.00216216835093,0.999148278464
1573179657779244525,0,1573179657475613115,grasp_lab,tag_9,-0.646953619418,0.0223993071549,-3.11261611589,0.00941415821328,0.0407573961914,-0.0198368499055,0.998927779004
1573179657779342253,0,1573179657475613115,grasp_lab,tag_8,-0.853790165496,-0.00277406554797,-1.21392709967,0.0028791568019,0.0365627393778,-0.00518900753194,0.999313739897
1573179657779517550,0,1573179657475613115,map,rig,0.00899810776171,0.00663660191267,0.00989460145478,0.999316177735,-0.00605940353872,-0.0364297823819,0.00182524019115
1573179657779564769,0,1573179657475613115,rig,cam0,-8.83392855748e-24,1.00242466796e-23,6.31666693181e-25,2.15768141749e-23,6.78145777988e-24,-2.81866103751e-24,1.0
1573179658011994616,0,1573179657697057668,map,grasp_lab,-3.79251263582e-20,2.24132089264e-19,-7.12521274464e-20,4.50377413009e-22,1.09159364024e-21,5.45966968843e-22,1.0
1573179658012007705,0,1573179657697057668,grasp_lab,tag_7,0.469,-0.018,-2.54,-2.55399309094e-21,-8.22220035751e-22,2.4367845214e-22,1.0
1573179658012058909,0,1573179657697057668,grasp_lab,tag_14,-1.22080016937,0.0363074007288,-3.06574686249,0.00270565367976,0.0411204181049,0.00217605341222,0.999148164911
1573179658012074000,0,1573179657697057668,grasp_lab,tag_9,-0.646957796126,0.0224171895955,-3.11258895662,0.00948276863338,0.0407451071314,-0.0198304221169,0.998927759001
1573179658012085685,0,1573179657697057668,grasp_lab,tag_8,-0.85377904971,-0.00286883836867,-1.2139101434,0.00290784558412,0.0365674413276,-0.00518124018373,0.999313525086
1573179658012090906,0,1573179657697057668,map,rig,0.00869051991558,0.00658360441413,0.0100324370988,0.99931785576,-0.00605982774205,-0.0363836885248,0.00182451511861
1573179658012101617,0,1573179657697057668,rig,cam0,-1.04541491867e-23,7.86952090702e-24,3.21208828752e-25,3.4061104155e-23,6.47116232615e-24,-3.29410798559e-24,1.0
1573179658240635024,0,1573179657953578392,map,grasp_lab,-4.38062508013e-20,2.90101969582e-19,-7.32578771352e-20,1.55115077432e-22,1.29295177061e-21,2.5552247384e-22,1.0
1573179658240653260,0,1573179657953578392,grasp_lab,tag_7,0.469,-0.018,-2.54,-4.12514495082e-21,-6.54100281052e-22,-3.37149568557e-22,1.0
1573179658240659562,0,1573179657953578392,grasp_lab,tag_14,-1.22080355119,0.0363290067326,-3.06571976372,0.00273957467335,0.0411263949664,0.00217768760052,0.999147822919
1573179658240664499,0,1573179657953578392,grasp_lab,tag_9,-0.646963633894,0.0224443589992,-3.11257360876,0.00950550922448,0.0407502490752,-0.0198265019762,0.998927410933
1573179658240668955,0,1573179657953578392,grasp_lab,tag_8,-0.853763172326,-0.00295110414012,-1.21389238418,0.00293570503512,0.0365679615537,-0.00517750278374,0.999313443965
1573179658240681919,0,1573179657953578392,map,rig,0.00902395808403,0.00633979131071,0.00987910484989,0.999316006956,-0.00606621879956,-0.0364354051704,0.00178339043752
1573179658240952571,0,1573179657953578392,rig,cam0,-7.86179003707e-24,1.39440262141e-23,4.02006038752e-25,3.77547262683e-23,7.60959780217e-24,-3.17010065124e-24,1.0
1573179658467548973,0,1573179658160109224,map,grasp_lab,-4.96354367395e-20,4.26044783364e-19,-6.56217996465e-20,2.7223935021e-21,1.43769327044e-21,-2.71231495735e-22,1.0
1573179658467565501,0,1573179658160109224,grasp_lab,tag_7,0.469,-0.018,-2.54,-2.80152569455e-21,-5.51159277788e-22,3.16410509626e-22,1.0
1573179658467572529,0,1573179658160109224,grasp_lab,tag_14,-1.22079684686,0.0363356106919,-3.06571828813,0.0027392317472,0.0411139620849,0.00218062210561,0.999148329138
1573179658467577820,0,1573179658160109224,grasp_lab,tag_9,-0.646959109712,0.0224558242456,-3.11257166592,0.00949282551332,0.0407385748284,-0.0198197553701,0.998928141601
1573179658467582941,0,1573179658160109224,grasp_lab,tag_8,-0.853772038111,-0.00300055771893,-1.21389955384,0.00295010897429,0.0365642649338,-0.00517280328734,0.999313561147
1573179658467588350,0,1573179658160109224,map,rig,0.00902729562858,0.00627277577056,0.00991750143387,0.999316222761,-0.00605504762245,-0.0364314877816,0.00178045608263
1573179658467593050,0,1573179658160109224,rig,cam0,-8.33163774105e-24,1.00402076626e-23,6.09413935976e-25,3.40526493942e-23,6.71888869314e-24,-1.25932656867e-24,1.0
1573179658689371451,0,1573179658373073930,map,grasp_lab,-6.26669723052e-20,3.88799636614e-19,-7.59226355075e-20,1.60955128727e-21,1.43479972594e-21,-2.08321003717e-22,1.0
1573179658689388077,0,1573179658373073930,grasp_lab,tag_7,0.469,-0.018,-2.54,-2.58173777653e-21,-7.9575851463e-22,-1.77905959248e-22,1.0
1573179658689394305,0,1573179658373073930,grasp_lab,tag_14,-1.22078895256,0.0363268716304,-3.06574442334,0.00272659305795,0.0411065664441,0.00218251513652,0.99914866387
1573179658689400203,0,1573179658373073930,grasp_lab,tag_9,-0.646950423962,0.022447318025,-3.11258848644,0.00950917070256,0.0407332206204,-0.0198220258848,0.998928159429
1573179658689407282,0,1573179658373073930,grasp_lab,tag_8,-0.853787652985,-0.00298791998696,-1.21391848785,0.00294226624394,0.0365616074452,-0.00516914736203,0.999313700419
1573179658689412194,0,1573179658373073930,map,rig,0.00894055862251,0.00629422526054,0.00980087766278,0.999316953353,-0.00606365523814,-0.0364095352242,0.00179013176918
1573179658689417007,0,1573179658373073930,rig,cam0,-8.31827850683e-24,4.70488699798e-24,-1.5161072471e-27,5.09605536782e-23,5.58912805115e-24,-6.612185988e-24,1.0
1573179658927512884,0,1573179658618074306,map,grasp_lab,-4.4066029953e-20,3.81725530495e-19,-7.56051047225e-20,2.20078291097e-21,1.57111240709e-21,-1.63796471443e-22,1.0
1573179658927541272,0,1573179658618074306,grasp_lab,tag_7,0.469,-0.018,-2.54,-2.35966678043e-21,-5.71174896048e-22,1.55808969309e-22,1.0
1573179658927560467,0,1573179658618074306,grasp_lab,tag_14,-1.22079513543,0.0363451176196,-3.06574178941,0.00272779352696,0.041110334995,0.00218921260787,0.99914849089
1573179658927567928,0,1573179658618074306,grasp_lab,tag_9,-0.646952201464,0.0224673209717,-3.11257498429,0.00957243961607,0.0407338523077,-0.0198250724663,0.998927468927
1573179658927573360,0,1573179658618074306,grasp_lab,tag_8,-0.853773060796,-0.00303879862583,-1.21390379512,0.00296746072235,0.0365690891557,-0.00516817554332,0.999313357189
1573179658927578144,0,1573179658618074306,map,rig,0.0087760603982,0.00625448188901,0.00968988035874,0.999317650318,-0.00606114906948,-0.036390994865,0.00178654050159
1573179658927583441,0,1573179658618074306,rig,cam0,-8.57899379954e-24,6.33547812535e-24,-7.55559115544e-26,4.42121462639e-23,4.16624445173e-24,-6.1329202172e-24,1.0
1573179659164230594,0,1573179658836933583,map,grasp_lab,-4.83990312563e-20,3.49557126804e-19,-7.45903679059e-20,2.29122760839e-21,1.64847017007e-21,-2.75147702068e-22,1.0
1573179659164251346,0,1573179658836933583,grasp_lab,tag_7,0.469,-0.018,-2.54,-2.99882636242e-21,-3.69954677996e-22,2.56946195037e-22,1.0
1573179659164258767,0,1573179658836933583,grasp_lab,tag_14,-1.22079059511,0.0363681084303,-3.06573366523,0.0027503939037,0.0411062906212,0.00219480335792,0.999148583066
1573179659164264983,0,1573179658836933583,grasp_lab,tag_9,-0.646950214124,0.0224955087137,-3.11257033598,0.00959997023057,0.0407135002826,-0.0198233117782,0.998928069371
1573179659164269695,0,1573179658836933583,grasp_lab,tag_8,-0.853768980547,-0.00312136402702,-1.21389636198,0.00299941336619,0.0365682364006,-0.00516568222709,0.999313305892
1573179659164290597,0,1573179658836933583,map,rig,0.0089709499002,0.0060736999916,0.00973123851926,0.999315875491,-0.00605386897388,-0.0364426635956,0.00175040891964
1573179659164304507,0,1573179658836933583,rig,cam0,-9.38217695894e-24,1.38159797292e-23,2.3874334923e-25,4.89964748227e-23,6.68700285391e-24,-5.93955444424e-24,1.0
1573179659396489427,0,1573179659083084513,map,grasp_lab,-5.1594720615e-20,6.8243047559e-19,-7.97524535409e-20,4.88250440525e-21,1.4949156107e-21,-1.06850462835e-21,1.0
1573179659396503918,0,1573179659083084513,grasp_lab,tag_7,0.469,-0.018,-2.54,-3.22704764885e-21,-6.63890010458e-22,-2.78216794359e-22,1.0
1573179659396509303,0,1573179659083084513,grasp_lab,tag_14,-1.22078191001,0.0363905609396,-3.0657532035,0.00278585657382,0.0410968209244,0.00220782897398,0.99914884567
1573179659396523201,0,1573179659083084513,grasp_lab,tag_9,-0.64694282589,0.0225323908769,-3.1125901145,0.00964773353869,0.0407144207351,-0.0198146265354,0.998927744012
1573179659396528344,0,1573179659083084513,grasp_lab,tag_8,-0.853787118209,-0.00327465081684,-1.21391331946,0.00304601946131,0.0365606146792,-0.00515394618774,0.999313504391
1573179659396547713,0,1573179659083084513,map,rig,0.00899066684469,0.00582784735954,0.00976317465454,0.999315626654,-0.00603888310153,-0.0364539690704,0.00170831947422
1573179659396816293,0,1573179659083084513,rig,cam0,-8.55609645937e-24,3.14648744654e-23,1.46638953417e-27,6.0038113928e-23,5.72871181898e-24,-1.51541607741e-23,1.0
1573179659609439383,0,1573179659335728252,map,grasp_lab,-6.73608304818e-20,2.69278695002e-19,-7.68178428845e-20,3.86969653695e-21,1.25689366195e-21,-1.16082201758e-21,1.0
1573179659609464215,0,1573179659335728252,grasp_lab,tag_7,0.469,-0.018,-2.54,-1.89848328754e-21,-1.2590460647e-21,4.26609306201e-22,1.0
1573179659609471539,0,1573179659335728252,grasp_lab,tag_14,-1.22077127884,0.0363718758785,-3.06578824314,0.00277981782253,0.0410848984514,0.00220978494071,0.999149348487
1573179659609477484,0,1573179659335728252,grasp_lab,tag_9,-0.646929505948,0.0225148185652,-3.11260368151,0.00962526947401,0.0406943076175,-0.0198145114395,0.998928782572
1573179659609483126,0,1573179659335728252,grasp_lab,tag_8,-0.85381265264,-0.00324906747447,-1.21394114752,0.00303769503532,0.0365528684272,-0.00515307698214,0.999313817585
1573179659609488342,0,1573179659335728252,map,rig,0.00900802402431,0.00588639116934,0.0097870998707,0.999315937509,-0.00603461029631,-0.0364456324446,0.0017194171675
1573179659609493140,0,1573179659335728252,rig,cam0,-1.03252533681e-23,9.42575071931e-24,9.93166875617e-26,7.03192228102e-23,5.19230366177e-24,-9.25276640895e-24,1.0
1573179659839498601,0,1573179659534826754,map,grasp_lab,-6.56115435815e-20,2.79933272219e-19,-8.16414943771e-20,3.58913333186e-21,1.27196193396e-21,-1.11157453978e-21,1.0
1573179659839514443,0,1573179659534826754,grasp_lab,tag_7,0.469,-0.018,-2.54,-5.14100040941e-22,-1.19302134625e-21,1.12506433488e-21,1.0
1573179659839694961,0,1573179659534826754,grasp_lab,tag_14,-1.2207799588,0.0363935448382,-3.06576309426,0.00282495783583,0.0410953412894,0.00221513724656,0.999148780565
1573179659839777052,0,1573179659534826754,grasp_lab,tag_9,-0.646935335708,0.0225430323099,-3.11257486117,0.00967336500544,0.0406991567668,-0.0198129640939,0.998928151121
1573179659839865192,0,1573179659534826754,grasp_lab,tag_8,-0.853793442407,-0.00334055254642,-1.21391676848,0.00307027937291,0.0365602847556,-0.00515004838708,0.999313462315
1573179659839943472,0,1573179659534826754,map,rig,0.0089444900852,0.0057070622125,0.00976950331215,0.999316565233,-0.00603900213643,-0.0364293480872,0.00168389462193
1573179659840034752,0,1573179659534826754,rig,cam0,-8.85750594675e-24,1.32780057825e-23,-4.10434028179e-25,6.95905948509e-23,2.59009931051e-24,-1.15883983032e-23,1.0
1573179660067742387,0,1573179659774859487,map,grasp_lab,-7.88180292535e-20,3.12196204793e-19,-8.31903635644e-20,2.21325533889e-21,1.23970821282e-21,-1.35932037723e-21,1.0
1573179660067755326,0,1573179659774859487,grasp_lab,tag_7,0.469,-0.018,-2.54,-2.02644862853e-21,-1.30956973043e-21,1.43259357316e-22,1.0
1573179660067764331,0,1573179659774859487,grasp_lab,tag_14,-1.22077983624,0.0364045564537,-3.06576591022,0.00285511542496,0.0410960820665,0.00222181732369,0.999148649542
1573179660067770261,0,1573179659774859487,grasp_lab,tag_9,-0.646932424773,0.0225628710738,-3.11256501103,0.00969029669538,0.0406885819047,-0.0198045044135,0.998928585564
1573179660067774860,0,1573179659774859487,grasp_lab,tag_8,-0.85379565343,-0.00342879124596,-1.21391790653,0.00310241716371,0.0365633803023,-0.00514449845528,0.999313278389
1573179660067778955,0,1573179659774859487,map,rig,0.00888019873488,0.00551126585071,0.00975467247698,0.99931670424,-0.0060311735929,-0.0364284534389,0.00164843940789
1573179660067783098,0,1573179659774859487,rig,cam0,-8.19802702129e-24,6.93096301958e-24,-1.45251193687e-25,7.69308863243e-23,2.29461206233e-24,-1.06168882243e-23,1.0
1573179660297057414,0,1573179659972698527,map,grasp_lab,-7.73870809541e-20,3.98097658334e-19,-8.18330932033e-20,3.54356477705e-21,1.45601843157e-21,-1.44444935129e-21,1.0
1573179660297072688,0,1573179659972698527,grasp_lab,tag_7,0.469,-0.018,-2.54,-3.34249410525e-21,-1.12262627837e-21,-8.2501855992e-22,1.0
1573179660297089382,0,1573179659972698527,grasp_lab,tag_14,-1.22078107718,0.0364138877358,-3.0657521091,0.00288043948939,0.0410887795146,0.00222992162752,0.999148859138
1573179660297095257,0,1573179659972698527,grasp_lab,tag_9,-0.646933936413,0.0225824122257,-3.11255206446,0.00971217338763,0.0406826108981,-0.0197984646837,0.998928736024
1573179660297101058,0,1573179659972698527,grasp_lab,tag_8,-0.8537863806,-0.00352489204406,-1.21390695894,0.00313324651497,0.0365679136643,-0.00513710184037,0.999313054373
1573179660297109200,0,1573179659972698527,map,rig,0.008927927793,0.00541186881579,0.00978957985935,0.999316724142,-0.00601499256395,-0.0364312408936,0.00163383060741
1573179660297116724,0,1573179659972698527,rig,cam0,-8.05339587169e-24,1.29824849797e-23,-2.81476453269e-25,7.12517122988e-23,3.94484773682e-24,-1.18132219817e-23,1.0
1573179660529796530,0,1573179660230505008,map,grasp_lab,-8.7709854222e-20,6.83691744504e-19,-9.30070026302e-20,1.56689363624e-21,1.39154205404e-21,-1.65123708183e-21,1.0
1573179660529810128,0,1573179660230505008,grasp_lab,tag_7,0.469,-0.018,-2.54,-7.89223445573e-21,-1.18652417918e-21,-1.19044370243e-21,1.0
1573179660529819684,0,1573179660230505008,grasp_lab,tag_14,-1.22077340904,0.0364270864652,-3.06578265919,0.00290368273218,0.0410816521814,0.00223985100694,0.999149062727
1573179660529824193,0,1573179660230505008,grasp_lab,tag_9,-0.646922020204,0.0226059378699,-3.11256072205,0.00977770846715,0.0406555688156,-0.0197966499516,0.998929233626
1573179660529834831,0,1573179660230505008,grasp_lab,tag_8,-0.853806626918,-0.00363179165642,-1.21393019417,0.00316839612432,0.0365635388662,-0.00513061195444,0.999313136966
1573179660529855223,0,1573179660230505008,map,rig,0.00880533279545,0.00520321049691,0.00976714604292,0.999317861496,-0.00600113445766,-0.0364042506408,0.00159016234138
1573179660529860607,0,1573179660230505008,rig,cam0,-8.04509469645e-24,1.63190444013e-23,-3.59089378754e-25,7.82910822187e-23,3.03233883809e-24,-1.14631301668e-23,1.0
1573179660751371364,0,1573179660434371115,map,grasp_lab,-8.0514500738e-20,5.11538965052e-19,-9.23090986444e-20,1.51653896068e-21,1.30311506531e-21,-1.48899657688e-21,1.0
1573179660751385203,0,1573179660434371115,grasp_lab,tag_7,0.469,-0.018,-2.54,-4.13874781054e-21,-1.23262844521e-21,-2.40753581823e-22,1.0
1573179660751390608,0,1573179660434371115,grasp_lab,tag_14,-1.22077468881,0.036420462353,-3.06578805436,0.0028942407234,0.0410893417707,0.00224709329394,0.999148757661
1573179660751395952,0,1573179660434371115,grasp_lab,tag_9,-0.646920497357,0.0226032335714,-3.11255632175,0.00980713128634,0.0406369550048,-0.0197961268914,0.998929712955
1573179660751404626,0,1573179660434371115,grasp_lab,tag_8,-0.853807516166,-0.00365047529819,-1.2139319118,0.00317216267307,0.0365632059746,-0.00512731879761,0.999313154099
1573179660751411711,0,1573179660434371115,map,rig,0.00952459615075,0.00514134282615,0.00947568934292,0.999313718292,-0.0059964124371,-0.0365192160296,0.00157554175779
1573179660751420490,0,1573179660434371115,rig,cam0,-7.98136037437e-24,1.92464426476e-23,-3.179594528e-25,6.56739405238e-23,2.74445061633e-24,-1.41148827069e-23,1.0
1573179660967105739,0,1573179660685275902,map,grasp_lab,-7.22863758683e-20,7.09684183452e-19,-9.09406203663e-20,1.68174290182e-21,1.50755708046e-21,-1.93095072959e-21,1.0
1573179660967120786,0,1573179660685275902,grasp_lab,tag_7,0.469,-0.018,-2.54,-8.12290530135e-21,-1.12576120647e-21,-1.55920103757e-21,1.0
1573179660967126644,0,1573179660685275902,grasp_lab,tag_14,-1.22077389648,0.0363962096097,-3.0657955079,0.00286394842691,0.0410935479551,0.00224758713607,0.999148670853
1573179660967131896,0,1573179660685275902,grasp_lab,tag_9,-0.646917070946,0.0225753616037,-3.11254882269,0.0098137567606,0.0406068796871,-0.0198010056394,0.998930774216
1573179660967137092,0,1573179660685275902,grasp_lab,tag_8,-0.853804069397,-0.00357878357429,-1.21393156908,0.00314844367608,0.0365651153285,-0.0051283542025,0.999313153935
1573179660967142632,0,1573179660685275902,map,rig,0.00881909436384,0.0053276200083,0.0097676852505,0.99931777182,-0.00601477572557,-0.0364037354353,0.00160668720525
1573179660967157789,0,1573179660685275902,rig,cam0,-8.46386878032e-24,2.35678572258e-23,-4.36731591484e-25,9.43640661804e-23,3.45734054553e-24,-1.34406519423e-23,1.0
1573179661211712384,0,1573179660891231682,map,grasp_lab,-5.89306767375e-20,5.9374440958e-19,-8.61197000225e-20,3.19017841674e-21,1.49590518763e-21,-1.9361511665e-21,1.0
1573179661211727541,0,1573179660891231682,grasp_lab,tag_7,0.469,-0.018,-2.54,-5.44913298668e-21,-1.00141622771e-21,-7.83288370115e-22,1.0
1573179661211732735,0,1573179660891231682,grasp_lab,tag_14,-1.22078161124,0.0364081837071,-3.06577014548,0.00289390771666,0.0411015371661,0.00225056535901,0.999148249208
1573179661211739054,0,1573179660891231682,grasp_lab,tag_9,-0.646924055896,0.0225937522119,-3.11252581769,0.00986893422838,0.0406013002709,-0.0197992682814,0.998930491841
1573179661211743738,0,1573179660891231682,grasp_lab,tag_8,-0.853784052334,-0.00365208247092,-1.2139060852,0.00317433371151,0.0365735963286,-0.00512296496466,0.999312789314
1573179661211748542,0,1573179660891231682,map,rig,0.00882342935817,0.00520129906589,0.00975523268476,0.999317583702,-0.00600914573215,-0.0364105563026,0.00159011382971
1573179661211761710,0,1573179660891231682,rig,cam0,-8.11605856536e-24,1.78494194873e-23,-2.80116327088e-25,7.85978330846e-23,2.78626455164e-24,-1.47774402228e-23,1.0
1573179661456052278,0,1573179661161249923,map,grasp_lab,-9.57344782072e-20,6.81310153988e-19,-9.05444961338e-20,9.44178074645e-22,1.73017177442e-21,-2.06456274052e-21,1.0
1573179661460905618,0,1573179661161249923,grasp_lab,tag_7,0.469,-0.018,-2.54,-6.79133601934e-21,-1.01678106634e-21,-1.10481280219e-21,1.0
1573179661462620289,0,1573179661161249923,grasp_lab,tag_14,-1.22077414199,0.0364370003768,-3.06577499855,0.00292287797428,0.0410959835909,0.00225945024995,0.999148373267
1573179661462638248,0,1573179661161249923,grasp_lab,tag_9,-0.646918259576,0.0226320103017,-3.11253045668,0.00992615081584,0.0405951674054,-0.0197936709866,0.998930285106
1573179661462644615,0,1573179661161249923,grasp_lab,tag_8,-0.853792844664,-0.00378017270521,-1.2139136156,0.00321810278783,0.0365734986018,-0.00511395698703,0.999312699038
1573179661462650376,0,1573179661161249923,map,rig,0.00878388081715,0.00492068399273,0.00976569992263,0.999318233927,-0.00600602722197,-0.0363956822599,0.00153273977598
1573179661462655349,0,1573179661161249923,rig,cam0,-9.43984094397e-24,2.33987515405e-23,-2.0213036653e-25,8.99730548974e-23,2.09350730347e-24,-1.78499177498e-23,1.0
1573179661681247054,0,1573179661410728358,map,grasp_lab,-9.12809769079e-20,6.27801773035e-19,-7.11095150676e-20,2.146130269e-21,2.43957756079e-21,-2.06082999423e-21,1.0
1573179661681600075,0,1573179661410728358,grasp_lab,tag_7,0.469,-0.018,-2.54,-5.17587740616e-21,-5.62094602659e-22,-7.93990930202e-22,1.0
1573179661681612719,0,1573179661410728358,grasp_lab,tag_14,-1.22078677728,0.0364577356139,-3.06573462647,0.00295669534478,0.0411062696688,0.00226281446619,0.999147843023
1573179661681618138,0,1573179661410728358,grasp_lab,tag_9,-0.646929088935,0.0226568103236,-3.11249124633,0.00998893345066,0.0405916109847,-0.0197931706776,0.998929813711
1573179661681627008,0,1573179661410728358,grasp_lab,tag_8,-0.853762042574,-0.00385311936992,-1.21387830363,0.00324779392234,0.0365895304021,-0.00511134410604,0.999312029479
1573179661681633649,0,1573179661410728358,map,rig,0.00885062144234,0.00485687840068,0.00976073638633,0.999318072628,-0.00600259702959,-0.0364014745937,0.00151366975177
1573179661681639470,0,1573179661410728358,rig,cam0,-6.71703758698e-24,2.07545390199e-23,1.02936411801e-24,7.10539391709e-23,6.16300019306e-24,-2.07602535579e-23,1.0
1573179661912763323,0,1573179661623760296,map,grasp_lab,-8.24843376248e-20,8.9940214645e-19,-7.03414507407e-20,4.60594603693e-21,2.24438207986e-21,-3.39290536692e-21,1.0
1573179661912785765,0,1573179661623760296,grasp_lab,tag_7,0.469,-0.018,-2.54,-5.82998389305e-21,-1.15986725779e-21,-2.38272006831e-21,1.0
1573179661913698652,0,1573179661623760296,grasp_lab,tag_14,-1.22076304964,0.0364714551596,-3.06581028716,0.00296818851842,0.0410808808681,0.00226262595002,0.999148853579
1573179661913706315,0,1573179661623760296,grasp_lab,tag_9,-0.646904736674,0.0226752967889,-3.11254943952,0.00995723946391,0.0405734040889,-0.0197854696091,0.998931022371
1573179661913714412,0,1573179661623760296,grasp_lab,tag_8,-0.853795609483,-0.0039147261496,-1.21393648959,0.00324726474613,0.0365685412985,-0.00510666515374,0.999312823409
1573179661913827976,0,1573179661623760296,map,rig,0.0064906825117,0.00580231770709,-0.0114256768304,0.999346251223,-0.00504459686851,-0.0357424183208,0.00202527578811
1573179661913870663,0,1573179661623760296,rig,cam0,-6.52263714047e-24,2.05943067642e-23,4.4867267199e-26,7.06970167925e-23,5.2831023123e-24,-2.16706710284e-23,1.0
1573179662124822258,0,1573179661832753058,map,grasp_lab,-9.14121664327e-20,6.865629965e-19,-6.38427462215e-20,2.36172812769e-21,2.22743943442e-21,-2.82681800747e-21,1.0
1573179662124836487,0,1573179661832753058,grasp_lab,tag_7,0.469,-0.018,-2.54,-6.6236601289e-21,-1.08739189874e-21,-6.58232848622e-22,1.0
1573179662124842048,0,1573179661832753058,grasp_lab,tag_14,-1.22078174675,0.0364911156301,-3.0657848329,0.00299043712972,0.0410974100081,0.00226061036591,0.999148112052
1573179662124846519,0,1573179661832753058,grasp_lab,tag_9,-0.646920059306,0.0226951533952,-3.11253002112,0.00998808258051,0.0405972607544,-0.0197849043977,0.998929756381
1573179662124851216,0,1573179661832753058,grasp_lab,tag_8,-0.853774256565,-0.00395289217775,-1.21390591941,0.00323524471997,0.0365838572942,-0.00510482489158,0.999312311212
1573179662124863280,0,1573179661832753058,map,rig,0.00398428498725,0.00601454124321,-0.0462580442425,0.999317443264,-0.00466692943614,-0.0366312971685,0.00100768334096
1573179662124873887,0,1573179661832753058,rig,cam0,-7.22593506344e-24,2.56026840422e-23,5.6743566408e-25,6.04308105457e-23,6.70418537483e-24,-1.91711998069e-23,1.0
1573179662364134126,0,1573179662042415787,map,grasp_lab,-1.18569883854e-19,7.60517100158e-19,-6.58501528969e-20,2.8477694143e-21,2.49131123954e-21,-3.0791119667e-21,1.0
1573179662364227788,0,1573179662042415787,grasp_lab,tag_7,0.469,-0.018,-2.54,-5.36457840113e-21,-1.45438722176e-21,-2.40332580765e-21,1.0
1573179662364406298,0,1573179662042415787,grasp_lab,tag_14,-1.22075980703,0.0365164225703,-3.06584355077,0.00299610985968,0.0410777858074,0.00225511482231,0.999148914475
1573179662364551928,0,1573179662042415787,grasp_lab,tag_9,-0.646896248232,0.0227134737488,-3.11256235536,0.0100271648601,0.040560220949,-0.0197929812403,0.998930709476
1573179662364748676,0,1573179662042415787,grasp_lab,tag_8,-0.853817692955,-0.00394541387837,-1.21395717759,0.00321318006904,0.0365708926322,-0.00510707300283,0.999312845455
1573179662364928620,0,1573179662042415787,map,rig,0.000748352105826,0.00686403362965,-0.0767722141459,0.999305838061,-0.00362375423679,-0.0370680807797,0.000817196515082
1573179662365039055,0,1573179662042415787,rig,cam0,-6.81214917887e-24,3.18999150057e-23,5.04152119725e-25,5.96993110807e-23,7.65244918468e-24,-1.77030687808e-23,1.0
1573179662610489299,0,1573179662278801157,map,grasp_lab,-1.58833910099e-19,7.08704756502e-19,-5.91907205283e-20,8.48918573555e-22,2.39906145095e-21,-3.07110408885e-21,1.0
1573179662610504542,0,1573179662278801157,grasp_lab,tag_7,0.469,-0.018,-2.54,-5.24060274588e-21,-1.74551354653e-21,-1.31475754855e-21,1.0
1573179662610509305,0,1573179662278801157,grasp_lab,tag_14,-1.22074827679,0.0365153945144,-3.06587747898,0.00295117555345,0.041059534099,0.00225778171956,0.999149792396
1573179662610514006,0,1573179662278801157,grasp_lab,tag_9,-0.646881781005,0.0227102002082,-3.11257377437,0.0100112492262,0.0405320625985,-0.0197982537833,0.998931907558
1573179662610521471,0,1573179662278801157,grasp_lab,tag_8,-0.853832352668,-0.00392618978362,-1.21397306907,0.00315450677018,0.0365633233503,-0.0050996079261,0.99931334749
1573179662610527867,0,1573179662278801157,map,rig,-0.000761492036683,0.00813605275919,-0.113637496518,0.999282369807,-0.00467634154103,-0.0375765463309,0.000938289818807
1573179662610536066,0,1573179662278801157,rig,cam0,-3.89808423532e-24,1.42962447983e-23,-1.35703144603e-25,6.151965314e-23,1.03190909803e-23,-1.70290700761e-23,1.0
1573179662863866470,0,1573179662551174912,map,grasp_lab,-1.26390971132e-19,7.95041599381e-19,-7.37670811212e-20,1.3386715443e-21,2.62988498241e-21,-2.83139546035e-21,1.0
1573179662863948735,0,1573179662551174912,grasp_lab,tag_7,0.469,-0.018,-2.54,-4.06077699436e-21,-1.47675428509e-21,-7.87733766278e-22,1.0
1573179662864028452,0,1573179662551174912,grasp_lab,tag_14,-1.22074864445,0.0365339654387,-3.06584464225,0.00295101811995,0.0410473129445,0.0022545984281,0.999150302196
1573179662864128006,0,1573179662551174912,grasp_lab,tag_9,-0.646888536314,0.0227266164855,-3.11256467961,0.00999956059712,0.0405273780727,-0.0198001326422,0.998932177458
1573179662864196730,0,1573179662551174912,grasp_lab,tag_8,-0.853820109089,-0.00394125062126,-1.2139570794,0.00316312643224,0.0365681338255,-0.00510216982798,0.999313131147
