%time,field.transforms0.header.seq,field.transforms0.header.stamp,field.transforms0.header.frame_id,field.transforms0.child_frame_id,field.transforms0.transform.translation.x,field.transforms0.transform.translation.y,field.transforms0.transform.translation.z,field.transforms0.transform.rotation.x,field.transforms0.transform.rotation.y,field.transforms0.transform.rotation.z,field.transforms0.transform.rotation.w
1573178908609047960,0,1573178908328178540,map,grasp_lab,1.15623780274e-20,2.30878196571e-20,-3.3585010733e-21,-5.29742173242e-22,-1.94769004093e-24,-4.72535866282e-22,1.0
1573178908609328134,0,1573178908328178540,grasp_lab,tag_7,0.469,-0.018,-2.54,3.26105192283e-22,-3.18864148347e-22,-6.07060288873e-22,1.0
1573178908609460296,0,1573178908328178540,grasp_lab,tag_9,-0.648552489459,0.0205708102832,-3.10988720836,0.0056683289766,0.0425636093097,-0.0200046710228,0.998877381037
1573178908609577379,0,1573178908328178540,grasp_lab,tag_14,-1.22215561226,0.0348620231013,-3.0610329068,0.00347288427717,0.0414394527295,0.00183332941873,0.999133299283
1573178908609686339,0,1573178908328178540,grasp_lab,tag_8,-0.850197215769,0.00308742831375,-1.21018875729,0.000786935009742,0.0370786308679,-0.00522589601348,0.999298376801
1573178908609853688,0,1573178908328178540,map,rig,0.0123437940619,0.0179068327544,-0.000904249535425,0.99926604149,-0.00603138045267,-0.0375437340439,0.0046334445371
1573178908609964023,0,1573178908328178540,rig,cam0,9.38004804027e-25,-1.91175064427e-24,-3.51709568565e-25,1.26333339646e-23,-8.49013395156e-25,-2.0751925692e-24,1.0
1573178908828335460,0,1573178908565514045,map,grasp_lab,6.68325087611e-21,-1.41323704661e-20,-1.58921234115e-21,-5.68512521991e-22,-7.84761922972e-23,-2.29303432547e-22,1.0
1573178908828418834,0,1573178908565514045,grasp_lab,tag_7,0.469,-0.018,-2.54,5.63858235075e-22,-4.42218687615e-22,-3.21181833919e-22,1.0
1573178908828505469,0,1573178908565514045,grasp_lab,tag_9,-0.64853530851,0.0205804874312,-3.10990913607,0.00572286370358,0.0425414668978,-0.020002249239,0.998878061853
1573178908828585618,0,1573178908565514045,grasp_lab,tag_14,-1.22214522549,0.0348649732253,-3.06108611456,0.00347634158279,0.0414313732405,0.00183894091124,0.999133612014
1573178908828661252,0,1573178908565514045,grasp_lab,tag_8,-0.850235109512,0.00303267623801,-1.21022626492,0.000801868765851,0.0370630049166,-0.0052196750191,0.999298977116
1573178908828767649,0,1573178908565514045,map,rig,0.0122169439921,0.0177760670714,-0.000925562583376,0.999267069976,-0.00604000064447,-0.0375177260908,0.00461101752072
1573178908828844292,0,1573178908565514045,rig,cam0,1.3430634329e-24,-2.33827829765e-24,-5.28944617534e-25,1.10943757011e-23,-2.22552913514e-24,-2.16960736256e-24,1.0
1573178909055012671,0,1573178908786676210,map,grasp_lab,3.03896814919e-23,-2.82003455154e-20,-5.50948332171e-21,-4.59566624058e-22,3.78236736928e-24,-2.93202783507e-22,1.0
1573178909055113077,0,1573178908786676210,grasp_lab,tag_7,0.469,-0.018,-2.54,1.40098509407e-21,-2.47932387563e-22,-2.82475485046e-22,1.0
1573178909055162500,0,1573178908786676210,grasp_lab,tag_9,-0.648534079283,0.0206183864713,-3.10990761773,0.00579476119122,0.0425268673469,-0.0199946430201,0.998878421304
1573178909055199913,0,1573178908786676210,grasp_lab,tag_14,-1.22214001595,0.0348934952441,-3.0610756813,0.00354200058082,0.0414239320822,0.00183847428789,0.999133690802
1573178909055213976,0,1573178908786676210,grasp_lab,tag_8,-0.850245045883,0.00290853783574,-1.21022212271,0.000838224224576,0.0370598752257,-0.00521195797728,0.999299103633
1573178909055223617,0,1573178908786676210,map,rig,0.0121562584292,0.017588754133,-0.000897665494363,0.999267608115,-0.00603149416237,-0.0375094659029,0.00457257233078
1573178909055260405,0,1573178908786676210,rig,cam0,2.97454272527e-25,-4.36994412245e-24,3.65014512104e-26,1.39317337676e-23,-7.73769574937e-25,-3.28729281565e-24,1.0
1573178909267303685,0,1573178908984888283,map,grasp_lab,1.48754166039e-20,-6.12085440532e-21,-5.5923176632e-21,-2.32046214125e-22,1.02653731635e-22,-7.80817696358e-23,1.0
1573178909267383085,0,1573178908984888283,grasp_lab,tag_7,0.469,-0.018,-2.54,6.22551526462e-22,-6.78986218894e-23,-5.54570809705e-23,1.0
1573178909267397807,0,1573178908984888283,grasp_lab,tag_9,-0.648510507368,0.020573539309,-3.10998663871,0.00579079426306,0.0425285367144,-0.0200133357878,0.998877998885
1573178909267406614,0,1573178908984888283,grasp_lab,tag_14,-1.22211422004,0.0348608016364,-3.06115969393,0.00349809272099,0.04140159141,0.00182679517519,0.999134792906
1573178909267478307,0,1573178908984888283,grasp_lab,tag_8,-0.850296502379,0.00306745932696,-1.21029500083,0.000786183855711,0.0370346280544,-0.0052178564682,0.999300051143
1573178909267551054,0,1573178908984888283,map,rig,0.0122026731139,0.0179100082785,-0.000908203429143,0.999267072041,-0.00604546043235,-0.0375137787467,0.00463546629787
1573178909267584917,0,1573178908984888283,rig,cam0,3.30074840423e-25,-7.12389667833e-24,1.73694225484e-25,1.35644812493e-23,-1.35687038868e-24,-1.82865511466e-24,1.0
1573178909464859233,0,1573178909213169793,map,grasp_lab,1.78230360993e-20,6.23275091244e-20,-2.3201391049e-21,-7.04917862017e-22,8.44740712277e-23,-9.07218447866e-23,1.0
1573178909465340707,0,1573178909213169793,grasp_lab,tag_7,0.469,-0.018,-2.54,-6.38639625052e-22,3.73296765941e-24,-4.13570619794e-22,1.0
1573178909465932035,0,1573178909213169793,grasp_lab,tag_9,-0.648508724315,0.0205600824748,-3.10997134491,0.00576603782362,0.0425197274316,-0.0200024462522,0.998878735248
1573178909466024775,0,1573178909213169793,grasp_lab,tag_14,-1.22211591704,0.0348441530407,-3.06115941482,0.00352309038179,0.0413856091145,0.00182088981813,0.999135377991
1573178909466128465,0,1573178909213169793,grasp_lab,tag_8,-0.850296057033,0.00307393617867,-1.21029370756,0.000770010385925,0.0370336986713,-0.00520929730841,0.999300142834
1573178909481014050,0,1573178909213169793,map,rig,0.0120055655755,0.0178933406592,-0.000962617791134,0.99926839107,-0.00603058642755,-0.0374812296321,0.00463379544575
1573178909481140911,0,1573178909213169793,rig,cam0,8.3898134552e-25,5.85699899281e-24,4.820821296e-25,1.42578568976e-23,-1.35714606374e-24,-4.89442228459e-24,1.0
1573178909671998084,0,1573178909394466902,map,grasp_lab,2.02978666928e-20,5.96703977501e-20,-5.42072523467e-21,2.15141733028e-22,1.07297241639e-22,-1.60781069424e-22,1.0
1573178909672022213,0,1573178909394466902,grasp_lab,tag_7,0.469,-0.018,-2.54,-6.45212145357e-22,4.02371007091e-23,-7.07735312398e-22,1.0
1573178909675374908,0,1573178909394466902,grasp_lab,tag_9,-0.648508026479,0.0205186770363,-3.10997710732,0.00574448062191,0.0424960492714,-0.0200010788301,0.998879894474
1573178909675394623,0,1573178909394466902,grasp_lab,tag_14,-1.22211953535,0.034802394184,-3.06117883417,0.00348395418254,0.0413953367068,0.00182969662196,0.999135096157
1573178909675402291,0,1573178909394466902,grasp_lab,tag_8,-0.850297097547,0.00314967089708,-1.21029332574,0.0007391751804,0.0370268861421,-0.00520820744467,0.999300424246
1573178909675407796,0,1573178909394466902,map,rig,0.0121190110698,0.0180705255309,-0.000933799754282,0.999267576839,-0.00602855748515,-0.0374989171474,0.00466878853432
1573178909675416488,0,1573178909394466902,rig,cam0,2.45764114445e-25,7.3384343614e-24,4.24006824508e-26,1.57950484094e-23,-1.9509911816e-24,-4.01331799787e-24,1.0
1573178909872332037,0,1573178909625495907,map,grasp_lab,8.54977939961e-21,2.1169475541e-20,-9.46253000608e-21,-1.78087781303e-21,-4.58864905404e-24,3.9289369504e-23,1.0
1573178909872412014,0,1573178909625495907,grasp_lab,tag_7,0.469,-0.018,-2.54,-2.91625580035e-22,1.04739259447e-23,-4.04718355063e-22,1.0
1573178909872423960,0,1573178909625495907,grasp_lab,tag_9,-0.648525214073,0.0205561576481,-3.10994465722,0.00576942935692,0.0425065557966,-0.0199914332631,0.998879496734
1573178909872427750,0,1573178909625495907,grasp_lab,tag_14,-1.22214575348,0.0348281832081,-3.06115263957,0.00354498634445,0.0414315027046,0.00182726044975,0.999133386878
1573178909872437992,0,1573178909625495907,grasp_lab,tag_8,-0.850264324364,0.00300871936069,-1.21024778033,0.000777883310348,0.0370369187331,-0.00519822820961,0.999300075038
1573178909872441735,0,1573178909625495907,map,rig,0.0121768906814,0.0178598105734,-0.000888326357107,0.99926735466,-0.00602224887172,-0.0375103418293,0.00463256791612
1573178909872450270,0,1573178909625495907,rig,cam0,6.38531005091e-25,-5.02911967175e-24,4.48820870352e-25,1.03553565916e-23,-1.12399017452e-24,-4.95521994124e-24,1.0
1573178910077850723,0,1573178909807813237,map,grasp_lab,1.78318066523e-20,-2.7766763524e-20,-1.80755772282e-20,-1.2909203063e-21,4.87945827956e-23,-7.9599083361e-23,1.0
1573178910077863688,0,1573178909807813237,grasp_lab,tag_7,0.469,-0.018,-2.54,1.38076808087e-22,4.40647115818e-23,-3.40748955584e-22,1.0
1573178910077868551,0,1573178909807813237,grasp_lab,tag_9,-0.648526907509,0.0205577134848,-3.10993633548,0.00564607599098,0.0424844162389,-0.0199841806999,0.998881288605
1573178910077873713,0,1573178909807813237,grasp_lab,tag_14,-1.22214691455,0.0348360781769,-3.061143996,0.00352906622901,0.0414291150215,0.00182913354722,0.999133538818
1573178910077878513,0,1573178909807813237,grasp_lab,tag_8,-0.850251499355,0.00304587562636,-1.21024049204,0.000766118057993,0.0370365509411,-0.00520344959224,0.999300070584
1573178910077890226,0,1573178909807813237,map,rig,0.0122195027126,0.0178929874351,-0.000937749637198,0.999266847021,-0.00602749771961,-0.0375224750326,0.00463697992606
1573178910078099032,0,1573178909807813237,rig,cam0,2.49880269592e-26,-1.06489843454e-24,2.71233885254e-25,2.08813775427e-23,1.95071814931e-25,-3.33659018401e-24,1.0
1573178910324403469,0,1573178910034502257,map,grasp_lab,8.44911248721e-21,6.04745082128e-20,-1.41056616577e-20,-1.19440005665e-21,-2.11299850052e-22,1.57790146542e-23,1.0
1573178910324685990,0,1573178910034502257,grasp_lab,tag_7,0.469,-0.018,-2.54,8.15962332934e-23,-2.57771802631e-22,-5.96530360614e-22,1.0
1573178910324838360,0,1573178910034502257,grasp_lab,tag_9,-0.648520551752,0.0206080799497,-3.10991733915,0.00577770550942,0.0424553410449,-0.0199897304077,0.998881661066
1573178910324975732,0,1573178910034502257,grasp_lab,tag_14,-1.2221472536,0.0348789671755,-3.06115176438,0.00357841860616,0.0414429358349,0.00183921636312,0.999132771594
1573178910325097063,0,1573178910034502257,grasp_lab,tag_8,-0.850260148477,0.00290346543046,-1.2102476268,0.000808134455601,0.0370354717955,-0.0051958599106,0.999300116976
1573178910325289032,0,1573178910034502257,map,rig,0.0121809873029,0.0175679834653,-0.000912587498538,0.999267533465,-0.00603208269986,-0.0375106233393,0.00457861094968
1573178910327109931,0,1573178910034502257,rig,cam0,7.29522668635e-25,-4.47169272083e-24,2.96652836255e-25,9.68846527314e-24,-3.31325925775e-24,-3.49449198432e-24,1.0
1573178910584451340,0,1573178910221676336,map,grasp_lab,-9.58889220014e-21,3.68633372946e-20,-1.5943063068e-20,-9.55949544139e-22,-2.73881782817e-22,2.1692786779e-22,1.0
1573178910584662812,0,1573178910221676336,grasp_lab,tag_7,0.469,-0.018,-2.54,-3.60085116872e-22,-1.95575016918e-22,-7.48983357786e-22,1.0
1573178910584794008,0,1573178910221676336,grasp_lab,tag_9,-0.648538197602,0.0206826730127,-3.10986850512,0.00583693474898,0.04247955391,-0.0199811071439,0.99888045984
1573178910584932266,0,1573178910221676336,grasp_lab,tag_14,-1.2221603607,0.0349416471116,-3.06107783204,0.00365741834227,0.0414469311487,0.00184586540564,0.99913230754
1573178910585857569,0,1573178910221676336,grasp_lab,tag_8,-0.850223314852,0.00269613207003,-1.21020170143,0.000878752134296,0.0370513792342,-0.00519093229569,0.999299493302
1573178910586128984,0,1573178910221676336,map,rig,0.0121351116759,0.0172299998904,-0.000904745066861,0.999268197789,-0.00600362474581,-0.0375059872205,0.00450846976023
1573178910586296141,0,1573178910221676336,rig,cam0,1.33075271295e-24,-8.37438813153e-24,5.12554126159e-25,1.7138767551e-23,-2.82375647434e-24,-3.21425435527e-24,1.0
1573178910787119397,0,1573178910508167345,map,grasp_lab,-3.90880817433e-21,2.15746393288e-20,-1.53098654575e-20,-9.98772877744e-22,9.13448064552e-24,4.86557248395e-23,1.0
1573178910787211847,0,1573178910508167345,grasp_lab,tag_7,0.469,-0.018,-2.54,-1.18167191086e-21,-9.2678799799e-23,-4.80361636955e-22,1.0
1573178910787362507,0,1573178910508167345,grasp_lab,tag_9,-0.648523706424,0.0206632470866,-3.10993866561,0.00570422301839,0.0424852574185,-0.0199799530264,0.998881007037
1573178910787442776,0,1573178910508167345,grasp_lab,tag_14,-1.22214408996,0.0349342970871,-3.0611459777,0.00360334588749,0.04143265434,0.00184524512648,0.999133097301
1573178910787489711,0,1573178910508167345,grasp_lab,tag_8,-0.850264837339,0.0027988755814,-1.21025307463,0.000847250215178,0.0370385336269,-0.00519897844471,0.999299954877
1573178910787593421,0,1573178910508167345,map,rig,0.0121513778196,0.017362773662,-0.000914841669466,0.999267959668,-0.00602329034753,-0.0375060886586,0.00453410064971
1573178910787654030,0,1573178910508167345,rig,cam0,2.21283094783e-24,-2.52293415065e-24,2.90848479113e-25,1.57225348777e-23,-4.37847614685e-24,-2.39336921426e-24,1.0
1573178911008565526,0,1573178910744912040,map,grasp_lab,8.48655261495e-21,3.26263234059e-20,-1.24754673328e-20,-1.11890100836e-21,-6.34627776437e-23,8.10178278295e-23,1.0
1573178911008581082,0,1573178910744912040,grasp_lab,tag_7,0.469,-0.018,-2.54,-1.48969218681e-21,1.17064534013e-22,-4.43413414695e-22,1.0
1573178911008661055,0,1573178910744912040,grasp_lab,tag_9,-0.648528519674,0.0206654924453,-3.10996080704,0.00566727960839,0.0425095668568,-0.0199642023569,0.998880498004
1573178911008669989,0,1573178910744912040,grasp_lab,tag_14,-1.22214533122,0.0349256333481,-3.0611487289,0.00360685582157,0.0414311475889,0.00185422938535,0.999133130486
1573178911008679130,0,1573178910744912040,grasp_lab,tag_8,-0.850264934448,0.00273078824927,-1.21025147063,0.000865218079482,0.0370353419401,-0.00519122657817,0.999300098074
1573178911008683990,0,1573178910744912040,map,rig,0.0121718687759,0.0173320564822,-0.000919765535567,0.999267781882,-0.006009035125,-0.0375140659537,0.00452619532751
1573178911008739304,0,1573178910744912040,rig,cam0,1.46243723439e-24,-2.54730559068e-24,3.59082036733e-25,2.04632207905e-23,-3.70283849969e-24,-2.20638192855e-24,1.0
1573178911226593204,0,1573178910936769951,map,grasp_lab,3.59799009082e-21,1.18494592067e-20,-1.15647802924e-20,3.74017206839e-22,-3.53861676538e-23,-1.60585150402e-22,1.0
1573178911226607948,0,1573178910936769951,grasp_lab,tag_7,0.469,-0.018,-2.54,-1.03578860542e-21,1.95869524511e-23,-5.60652966096e-22,1.0
1573178911226613362,0,1573178910936769951,grasp_lab,tag_9,-0.648522580844,0.0206374451026,-3.10995008351,0.00577476284021,0.0424720180186,-0.0199879679313,0.998881004393
1573178911226756523,0,1573178910936769951,grasp_lab,tag_14,-1.22213989298,0.0349067697074,-3.06115005669,0.00358999544295,0.0414317182572,0.00184608285264,0.99913318263
1573178911226820811,0,1573178910936769951,grasp_lab,tag_8,-0.850263811201,0.00283121571216,-1.2102596042,0.000826742050674,0.0370320555554,-0.00519583252469,0.999300228502
1573178911232322275,0,1573178910936769951,map,rig,0.0122033505078,0.0174984694663,-0.000915940791209,0.999267524899,-0.00601639622782,-0.0375153513036,0.00456235422074
1573178911232404346,0,1573178910936769951,rig,cam0,1.32473112009e-24,1.05126119653e-24,4.89910798072e-25,-2.41442554593e-24,-3.82435318569e-24,-2.83550941441e-25,1.0
1573178911440484817,0,1573178911152864266,map,grasp_lab,6.91854374436e-21,6.70091485596e-20,-1.38345599919e-20,5.99309792204e-22,1.3908277986e-22,-5.88242563233e-22,1.0
1573178911440501482,0,1573178911152864266,grasp_lab,tag_7,0.469,-0.018,-2.54,-8.43808840002e-22,2.57529951089e-22,-7.10577483341e-22,1.0
1573178911440527984,0,1573178911152864266,grasp_lab,tag_9,-0.648534896154,0.0206138664536,-3.10991741566,0.005791590046,0.0424888970951,-0.0199828187766,0.998880292158
1573178911440532757,0,1573178911152864266,grasp_lab,tag_14,-1.22215124339,0.0348809801552,-3.06110774705,0.00354256118486,0.0414462508123,0.00185500911621,0.999132732671
1573178911440600567,0,1573178911152864266,grasp_lab,tag_8,-0.850234085845,0.00285620488625,-1.21023084783,0.000807616176254,0.0370430685015,-0.00519143384841,0.999299858825
1573178911440614849,0,1573178911152864266,map,rig,0.0121845467462,0.0175146038377,-0.000907624027596,0.999267640071,-0.00601572944928,-0.0375121083844,0.00456467202532
1573178911440629861,0,1573178911152864266,rig,cam0,1.23601810193e-24,-1.88519687179e-24,2.94838815727e-25,-7.58464804746e-26,-1.4038637594e-24,-8.83045014464e-25,1.0
1573178911657506313,0,1573178911382430195,map,grasp_lab,3.48231438571e-20,-4.87511039246e-20,-6.60728472305e-21,7.52969822959e-22,2.05416411535e-22,-6.95960296363e-23,1.0
1573178911657979332,0,1573178911382430195,grasp_lab,tag_7,0.469,-0.018,-2.54,2.42613377647e-22,4.95861499168e-22,-6.39851113003e-22,1.0
1573178911658246185,0,1573178911382430195,grasp_lab,tag_9,-0.64850747733,0.0206361359639,-3.10995076642,0.00575632763711,0.04245920737,-0.0199884454877,0.998881645866
1573178911658288720,0,1573178911382430195,grasp_lab,tag_14,-1.22213044463,0.0349131686372,-3.0611827372,0.00350973534541,0.0414252698492,0.00185337685165,0.999133721666
1573178911658438855,0,1573178911382430195,grasp_lab,tag_8,-0.850280541197,0.00287028868606,-1.21028883342,0.000811256347968,0.0370187195243,-0.00519808263877,0.999300723609
1573178911658547387,0,1573178911382430195,map,rig,0.012139032402,0.0175175753636,-0.000910906725041,0.999267977005,-0.00603675970091,-0.0374997133321,0.00456499342253
1573178911658610335,0,1573178911382430195,rig,cam0,-1.80633502497e-25,-6.51762666842e-24,5.28527899602e-25,-2.53326810263e-24,-1.31391391445e-24,-1.29274544145e-24,1.0
1573178911872074031,0,1573178911571919954,map,grasp_lab,3.44980325194e-20,-5.19575819876e-20,-1.05791688877e-20,1.03458612526e-21,2.03727752423e-22,-5.0248990385e-22,1.0
1573178911872156324,0,1573178911571919954,grasp_lab,tag_7,0.469,-0.018,-2.54,7.29347439325e-22,3.97716088789e-22,-7.44175380391e-22,1.0
1573178911872206307,0,1573178911571919954,grasp_lab,tag_9,-0.648508614853,0.0206503297278,-3.10993757941,0.0057313455197,0.0424600329605,-0.0199802038005,0.998881919316
1573178911872400269,0,1573178911571919954,grasp_lab,tag_14,-1.22212958559,0.0349247474143,-3.06116544911,0.0035240878289,0.0414184662478,0.00185742391513,0.999133945692
1573178911872410303,0,1573178911571919954,grasp_lab,tag_8,-0.850275093507,0.0028310127969,-1.21028333734,0.000831270008372,0.0370180181498,-0.0051969849104,0.999300738852
1573178911872414644,0,1573178911571919954,map,rig,0.0121467967787,0.0174490209584,-0.000951146006238,0.999267868421,-0.00603159685811,-0.0375047942789,0.00455383211392
1573178911872418517,0,1573178911571919954,rig,cam0,-6.38638387337e-25,2.05062376514e-24,2.86653023197e-25,-2.6987692346e-24,-2.07989923973e-24,-1.87541288159e-24,1.0
1573178912092992188,0,1573178911812898402,map,grasp_lab,7.9653430128e-21,-9.77090269296e-21,-3.86169374238e-21,9.58527564322e-22,5.46790064032e-23,-4.66248470463e-22,1.0
1573178912093010247,0,1573178911812898402,grasp_lab,tag_7,0.469,-0.018,-2.54,-1.30068661931e-22,5.46700000292e-23,-9.521620135e-22,1.0
1573178912093020463,0,1573178911812898402,grasp_lab,tag_9,-0.64852607233,0.0206514276369,-3.10990656005,0.00571474898661,0.0424868760272,-0.0199679940022,0.998881117163
1573178912093026733,0,1573178911812898402,grasp_lab,tag_14,-1.22214202809,0.0349171307921,-3.06110548468,0.00355530339242,0.0414172890851,0.00186322824147,0.999133873094
1573178912093035195,0,1573178911812898402,grasp_lab,tag_8,-0.850239453414,0.00277813312902,-1.21023854615,0.000844164052862,0.0370257561794,-0.00519032099368,0.999300476
1573178912093047648,0,1573178911812898402,map,rig,0.0122613350366,0.0173964332901,-0.000888378470016,0.999267177715,-0.00602415426214,-0.037525857856,0.0045417067235
1573178912093057192,0,1573178911812898402,rig,cam0,-6.62608865556e-25,3.76966932851e-24,7.99100938066e-25,1.39765303778e-25,-1.67517732585e-24,-2.33219499949e-24,1.0
1573178912303675998,0,1573178912040331798,map,grasp_lab,-1.67678778269e-20,-2.97859456818e-20,-5.33436905783e-21,4.33460437924e-21,-9.29009492182e-23,-1.36149084787e-21,1.0
1573178912303695550,0,1573178912040331798,grasp_lab,tag_7,0.469,-0.018,-2.54,1.79905486566e-21,-3.33530582761e-22,-2.78567499999e-22,1.0
1573178912303700931,0,1573178912040331798,grasp_lab,tag_9,-0.648559729216,0.0207059060627,-3.10983884176,0.00576223836942,0.0425296791421,-0.0199551645374,0.998879279197
1573178912303705269,0,1573178912040331798,grasp_lab,tag_14,-1.22216832173,0.0349553050113,-3.06099058602,0.00359075850034,0.0414369541006,0.00188086391157,0.999132897887
1573178912303709938,0,1573178912040331798,grasp_lab,tag_8,-0.85017723658,0.00258192798974,-1.21015543828,0.000905460821488,0.037053768335,-0.00517970703732,0.999299439121
1573178912303713664,0,1573178912040331798,map,rig,0.012258539757,0.0170552932041,-0.000904491321499,0.999267487374,-0.00599151828286,-0.0375308626749,0.00447490029439
1573178912303719046,0,1573178912040331798,rig,cam0,4.39257249896e-25,-3.61325496473e-24,7.04219461034e-25,6.89072496701e-24,1.17397796954e-24,-5.21274311413e-24,1.0
1573178912509919929,0,1573178912255492690,map,grasp_lab,8.28194747857e-22,-2.64534051336e-19,-4.23881125172e-21,5.89845460952e-22,1.99583681211e-24,-4.23635401157e-22,1.0
1573178912509934709,0,1573178912255492690,grasp_lab,tag_7,0.469,-0.018,-2.54,1.63438658665e-21,-3.30000073543e-22,-9.43635500671e-22,1.0
1573178912509938950,0,1573178912255492690,grasp_lab,tag_9,-0.648546864608,0.0206618356783,-3.10987321185,0.00578326307255,0.042515601412,-0.019976147255,0.998879337581
1573178912509942976,0,1573178912255492690,grasp_lab,tag_14,-1.22215762919,0.0349313422541,-3.06104224474,0.00351404958855,0.0414355057927,0.0018655848452,0.999133259334
1573178912509952373,0,1573178912255492690,grasp_lab,tag_8,-0.850195069611,0.00277694098578,-1.21019013838,0.000837634376939,0.0370378679052,-0.00519424624112,0.999300012266
1573178912510241772,0,1573178912255492690,map,rig,0.0123117946627,0.0173815684108,-0.000907919807725,0.999266812003,-0.00601836948387,-0.037537144766,0.00453656491268
1573178912510313950,0,1573178912255492690,rig,cam0,1.97285945884e-24,-8.3950390525e-24,1.25134047473e-24,-1.51611220355e-23,-2.87338661466e-25,-1.93172821711e-24,1.0
1573178912719910476,0,1573178912435377592,map,grasp_lab,3.2245932426e-21,-2.93243629173e-19,-1.00124242215e-20,1.95533859031e-21,-6.66272418083e-23,-3.76211780549e-22,1.0
1573178912719922221,0,1573178912435377592,grasp_lab,tag_7,0.469,-0.018,-2.54,3.15024572511e-21,-4.07912539776e-22,-5.13648043667e-22,1.0
1573178912719926162,0,1573178912435377592,grasp_lab,tag_9,-0.648540894522,0.0206705479419,-3.10989527003,0.00576235686193,0.0425154315906,-0.0199681371549,0.99887962579
1573178912719930167,0,1573178912435377592,grasp_lab,tag_14,-1.22214385573,0.0349300905523,-3.0610470362,0.00350959605042,0.0414170704339,0.00187359628822,0.999134024368
1573178912719933917,0,1573178912435377592,grasp_lab,tag_8,-0.850208197859,0.0027036422669,-1.21020820179,0.000848227559773,0.037029331474,-0.0051847769266,0.999300368863
1573178912719937748,0,1573178912435377592,map,rig,0.0123358314916,0.0173050436003,-0.000919751614272,0.999266806158,-0.00600728788249,-0.0375407865786,0.00452238268747
1573178912719952822,0,1573178912435377592,rig,cam0,2.37668461783e-24,-1.00291371408e-23,1.22794612985e-24,-2.31561110117e-23,2.36327825066e-25,-1.13677842269e-24,1.0
1573178912926431001,0,1573178912652960193,map,grasp_lab,-6.50149144068e-21,-3.60550731947e-19,-6.88212549228e-21,1.50182182432e-21,-1.07183496312e-22,-2.04027134223e-22,1.0
1573178912926441133,0,1573178912652960193,grasp_lab,tag_7,0.469,-0.018,-2.54,3.87808696337e-21,-4.46196051407e-22,-7.42108717196e-22,1.0
1573178912926445355,0,1573178912652960193,grasp_lab,tag_9,-0.648549645816,0.0206347783658,-3.10988212688,0.00573103724829,0.0425337633273,-0.0199725127588,0.998878938072
1573178912926574318,0,1573178912652960193,grasp_lab,tag_14,-1.22215095301,0.0349023198478,-3.06102335781,0.00344721797796,0.0414181691291,0.00187571227389,0.999134192017
1573178912926581023,0,1573178912652960193,grasp_lab,tag_8,-0.850189189097,0.00281579879816,-1.21018745228,0.000803117378039,0.0370298448675,-0.00518885669381,0.999300365935
1573178912926584832,0,1573178912652960193,map,rig,0.012362524143,0.0174082978442,-0.000911206544141,0.999266402042,-0.00602602975152,-0.0375455569935,0.00454707208561
1573178912926658451,0,1573178912652960193,rig,cam0,2.76632436253e-24,-1.12265076141e-23,1.06571739993e-24,-1.75474683094e-23,2.49611598051e-25,3.66279202157e-24,1.0
1573178913134657908,0,1573178912871122853,map,grasp_lab,-2.71839926371e-20,-3.9350585093e-19,-3.34433423426e-21,1.46375679262e-21,-3.11862738224e-22,-2.56059212975e-22,1.0
1573178913134669190,0,1573178912871122853,grasp_lab,tag_7,0.469,-0.018,-2.54,3.94366592208e-21,-1.03260096693e-21,-6.54887164655e-22,1.0
1573178913134682381,0,1573178912871122853,grasp_lab,tag_9,-0.648550536823,0.0206411001172,-3.10986276738,0.00577244639356,0.0425187000867,-0.0199751026493,0.998879289143
1573178913134688175,0,1573178912871122853,grasp_lab,tag_14,-1.22215727434,0.0349044444326,-3.06101895393,0.00346421117604,0.0414168794807,0.00187829548476,0.99913418185
1573178913134865764,0,1573178912871122853,grasp_lab,tag_8,-0.850180956618,0.00278446624082,-1.21018287834,0.00080801538752,0.0370313276706,-0.00518544198814,0.999300324764
1573178913134874149,0,1573178912871122853,map,rig,0.0123621303723,0.017396482444,-0.000926077675435,0.999266482812,-0.00601957292339,-0.0375452059704,0.00454076864292
1573178913134880027,0,1573178912871122853,rig,cam0,3.90107092971e-24,-1.12389615277e-23,1.26075162299e-24,-1.4913504321e-23,6.9206980422e-25,1.87282257671e-24,1.0
1573178913362128521,0,1573178913087638132,map,grasp_lab,-4.78587356055e-20,-3.87311893494e-19,2.53308202547e-22,1.7371026827e-21,-3.66806020065e-22,-2.47201858319e-22,1.0
1573178913362140777,0,1573178913087638132,grasp_lab,tag_7,0.469,-0.018,-2.54,4.52833833155e-21,-1.28674586724e-21,-6.49470808066e-22,1.0
1573178913362168335,0,1573178913087638132,grasp_lab,tag_9,-0.648566085293,0.020631290432,-3.10983799325,0.00577236283708,0.042538721823,-0.0199749711831,0.998878439801
1573178913362384424,0,1573178913087638132,grasp_lab,tag_14,-1.2221693889,0.0348966746535,-3.06097012166,0.00346670709026,0.0414310740176,0.00187555156561,0.999133589844
1573178913362397535,0,1573178913087638132,grasp_lab,tag_8,-0.8501503778,0.0028112277168,-1.21014950055,0.000798614994522,0.0370407121113,-0.00518741183761,0.999299974291
1573178913362403392,0,1573178913087638132,map,rig,0.0123569068725,0.0174355696397,-0.000916541831661,0.999266473276,-0.00600879515322,-0.0375460587285,0.00455008151667
1573178913362422199,0,1573178913087638132,rig,cam0,3.81490390214e-24,-1.14534949256e-23,1.01251363576e-24,-1.30661653718e-23,-1.7508335701e-25,1.90418361708e-24,1.0
1573178913572499547,0,1573178913314106241,map,grasp_lab,-5.26957733559e-20,-4.40896521801e-19,2.07251222793e-22,3.15321023399e-21,-2.67856816695e-22,-3.77282530796e-22,1.0
1573178913572737062,0,1573178913314106241,grasp_lab,tag_7,0.469,-0.018,-2.54,4.48738220418e-21,-1.24731074541e-21,-5.40047226759e-22,1.0
1573178913572864841,0,1573178913314106241,grasp_lab,tag_9,-0.648566145616,0.020588829442,-3.10984764506,0.00575995177144,0.0425290866431,-0.0199873959088,0.998878673188
1573178913580030753,0,1573178913314106241,grasp_lab,tag_14,-1.22216672919,0.0348666034744,-3.06097295676,0.0034086398591,0.041427692476,0.00186895256971,0.999133942215
1573178913580048079,0,1573178913314106241,grasp_lab,tag_8,-0.850145868658,0.00296132680138,-1.21015022673,0.000745530612645,0.0370333956675,-0.00519600179787,0.999300241847
1573178913580052316,0,1573178913314106241,map,rig,0.0123428198036,0.0176820946575,-0.000935192042945,0.999266131622,-0.00602208180745,-0.0375472586986,0.00459740010346
1573178913580057006,0,1573178913314106241,rig,cam0,2.68027004162e-24,-1.21040654054e-23,8.80910443762e-25,-1.33106480615e-23,1.32344467512e-24,-5.34668309258e-26,1.0
1573178913796899351,0,1573178913489501908,map,grasp_lab,-7.19988927716e-20,-5.22330517143e-19,-2.33887028309e-21,3.82645991691e-21,-6.56599393363e-23,-2.16712260605e-22,1.0
1573178913796919266,0,1573178913489501908,grasp_lab,tag_7,0.469,-0.018,-2.54,5.85088715407e-21,-1.18335016808e-21,-3.44355516413e-22,1.0
1573178913799255067,0,1573178913489501908,grasp_lab,tag_9,-0.648575654181,0.0205603259938,-3.10984286204,0.00564367017364,0.0425357753323,-0.0199719024468,0.998879362044
1573178913799266490,0,1573178913489501908,grasp_lab,tag_14,-1.222174134,0.034831218933,-3.06095279534,0.00342486222336,0.0414356095459,0.0018659591465,0.999133564033
1573178913799270366,0,1573178913489501908,grasp_lab,tag_8,-0.850125203877,0.00297844631687,-1.21013414522,0.000738183554398,0.0370387327208,-0.00518961039675,0.999300082712
1573178913799275530,0,1573178913489501908,map,rig,0.0124571041888,0.0178114041906,-0.000912861877063,0.99926555468,-0.00600950440224,-0.0375614751581,0.00462305854239
1573178913799376605,0,1573178913489501908,rig,cam0,2.16706869625e-24,-2.79555690448e-23,8.48312998966e-25,-2.4156131366e-23,2.58553360149e-24,3.51035591e-24,1.0
1573178914004895718,0,1573178913726187571,map,grasp_lab,-8.69456856478e-20,-5.37270670267e-19,1.30803910407e-20,3.99299105445e-21,-4.36810891115e-22,-2.71543816894e-22,1.0
1573178914004941539,0,1573178913726187571,grasp_lab,tag_7,0.469,-0.018,-2.54,6.56495783948e-21,-1.5386149121e-21,-1.76384804749e-22,1.0
1573178914005020114,0,1573178913726187571,grasp_lab,tag_9,-0.64859285709,0.0205615274276,-3.10983927908,0.00562949863264,0.0425967273155,-0.0199648522072,0.998876985541
1573178914005098966,0,1573178913726187571,grasp_lab,tag_14,-1.22218849173,0.0348306180913,-3.06092269232,0.00342049708049,0.0414531622054,0.00186893364112,0.999132845336
1573178914005157644,0,1573178913726187571,grasp_lab,tag_8,-0.850099606809,0.00296678318285,-1.21010277282,0.000736149494254,0.0370451186589,-0.00518808653645,0.999299855412
1573178914005253705,0,1573178913726187571,map,rig,0.0125416366312,0.0177500286868,-0.000898203391171,0.999264837926,-0.00600555594124,-0.0375824363241,0.00461275002101
1573178914005312961,0,1573178913726187571,rig,cam0,5.23359905484e-24,-2.95174424829e-23,1.94405506638e-24,-2.26964381005e-23,1.07224475549e-24,3.2819059197e-24,1.0
1573178914206498403,0,1573178913958676913,map,grasp_lab,-8.94020563128e-20,-6.90729037422e-19,1.27956347431e-20,4.40378991421e-21,-4.74870485094e-22,1.5228275585e-22,1.0
1573178914206510890,0,1573178913958676913,grasp_lab,tag_7,0.469,-0.018,-2.54,8.33711384875e-21,-1.58628403929e-21,-3.31147662445e-22,1.0
1573178914206515978,0,1573178913958676913,grasp_lab,tag_9,-0.648594338807,0.020596262211,-3.10983352703,0.00562446463499,0.0426017751036,-0.0199540032264,0.998877015408
1573178914206520341,0,1573178913958676913,grasp_lab,tag_14,-1.22218880315,0.0348596978707,-3.06091008458,0.00342579404852,0.0414608837387,0.00187635857501,0.999132492882
1573178914206684890,0,1573178913958676913,grasp_lab,tag_8,-0.850095617271,0.00286952709432,-1.21009745225,0.00076810393027,0.0370408309955,-0.00518467962162,0.999300007982
1573178914206692524,0,1573178913958676913,map,rig,0.0124878700182,0.0175787602834,-0.000881670238782,0.999265434305,-0.0060065089651,-0.0375703586598,0.00458058977661
1573178914206696349,0,1573178913958676913,rig,cam0,5.38879604467e-24,-4.39112909906e-23,2.0122293237e-24,-2.00120501653e-23,1.09318701073e-24,1.63627894527e-24,1.0
1573178914401412799,0,1573178914144108333,map,grasp_lab,-9.64678032242e-20,-5.76139886617e-19,4.40043740246e-21,4.33917958727e-21,-5.85186512324e-22,-4.05739518547e-22,1.0
1573178914401426775,0,1573178914144108333,grasp_lab,tag_7,0.469,-0.018,-2.54,7.16400779201e-21,-1.73145680199e-21,-5.40047226759e-22,1.0
1573178914401433721,0,1573178914144108333,grasp_lab,tag_9,-0.648598541706,0.020573671194,-3.10981613645,0.00570974994265,0.0425835792126,-0.0199631727269,0.998877124211
1573178914401439608,0,1573178914144108333,grasp_lab,tag_14,-1.22219435493,0.0348368116276,-3.06089549288,0.00340551633952,0.0414631313334,0.00187628449799,0.999132469073
1573178914401697819,0,1573178914144108333,grasp_lab,tag_8,-0.850079091838,0.00290362270556,-1.21008382992,0.000751116221795,0.0370421366988,-0.00518363732038,0.999299977903
1573178914401755747,0,1573178914144108333,map,rig,0.012517197976,0.0176394064968,-0.000875888802005,0.999265179394,-0.00600853863674,-0.0375751942016,0.00459385402027
1573178914401863099,0,1573178914144108333,rig,cam0,6.99945653354e-24,-3.11029441184e-23,2.14554470438e-24,-1.40652236417e-23,1.99072997389e-24,-4.49527440633e-25,1.0
1573178914602177151,0,1573178914326873616,map,grasp_lab,-8.82728606548e-20,-5.82023333653e-19,1.01514565209e-20,3.80927928732e-21,-4.72395504286e-22,-9.57908992799e-23,1.0
1573178914602189920,0,1573178914326873616,grasp_lab,tag_7,0.469,-0.018,-2.54,6.4804503113e-21,-1.78995497725e-21,-5.19195746402e-22,1.0
1573178914602202329,0,1573178914326873616,grasp_lab,tag_9,-0.648578415501,0.0205817426978,-3.10984469072,0.00572612331713,0.0425564753021,-0.0199601340251,0.99887824632
1573178914602209729,0,1573178914326873616,grasp_lab,tag_14,-1.2221790093,0.0348457789945,-3.0609542584,0.00341049652399,0.0414508962202,0.00187876963772,0.999132955087
1573178914602233879,0,1573178914326873616,grasp_lab,tag_8,-0.850118453169,0.00289547552134,-1.21012776803,0.000749868555353,0.0370220934252,-0.00518227158148,0.999300728688
1573178914602238587,0,1573178914326873616,map,rig,0.0124163505483,0.0176243944282,-0.000923742510001,0.999265840334,-0.0060176452046,-0.0375566974886,0.00458941850421
1573178914602242709,0,1573178914326873616,rig,cam0,6.90900613352e-24,-3.05227696815e-23,2.34673551798e-24,-1.20936761499e-23,5.60799858302e-26,1.39729204557e-24,1.0
1573178914820534160,0,1573178914546987168,map,grasp_lab,-7.73857315968e-20,-5.849154631e-19,1.00110637779e-20,4.71773240963e-21,-7.69544693339e-22,-4.28984849681e-22,1.0
1573178914820548596,0,1573178914546987168,grasp_lab,tag_7,0.469,-0.018,-2.54,7.34664515059e-21,-1.61800791211e-21,-4.18864543559e-22,1.0
1573178914820554343,0,1573178914546987168,grasp_lab,tag_9,-0.648584179735,0.0205650421937,-3.10981473264,0.0056895891506,0.0425238472836,-0.0199632727462,0.99887978192
1573178914820559732,0,1573178914546987168,grasp_lab,tag_14,-1.22218584819,0.0348344001367,-3.06092788497,0.00340011275659,0.0414605235311,0.00187310802937,0.999132601654
1573178914820570440,0,1573178914546987168,grasp_lab,tag_8,-0.850099378773,0.00295620240537,-1.21010889722,0.000733630242681,0.0370249383974,-0.00518899071383,0.99930060047
1573178914820576430,0,1573178914546987168,map,rig,0.0125295490333,0.0177408805212,-0.000905395726826,0.999264803223,-0.00601231164271,-0.0375818842743,0.00461596382192
1573178914820581054,0,1573178914546987168,rig,cam0,5.94901540883e-24,-2.29665040572e-23,2.17576601669e-24,-1.67901235493e-23,2.9296327721e-24,1.75760949554e-24,1.0
1573178915032926263,0,1573178914747313020,map,grasp_lab,-9.88530473517e-20,-6.42013308862e-19,4.75701489991e-21,4.15831564559e-21,-7.45621612417e-22,-3.3147288799e-22,1.0
1573178915032997098,0,1573178914747313020,grasp_lab,tag_7,0.469,-0.018,-2.54,7.20102553199e-21,-1.90319304052e-21,-4.25490534021e-22,1.0
1573178915033087984,0,1573178914747313020,grasp_lab,tag_9,-0.648592195235,0.0205625122702,-3.10980371012,0.00571921094172,0.0425416952856,-0.0199681372151,0.998878755548
1573178915033143918,0,1573178914747313020,grasp_lab,tag_14,-1.22219225619,0.0348344786531,-3.06090501597,0.00338674069939,0.0414633266544,0.00187207800922,0.999132532677
1573178915033204749,0,1573178914747313020,grasp_lab,tag_8,-0.850083358282,0.00297649916985,-1.21009047761,0.000726421832572,0.0370250673886,-0.00519013039296,0.999300595038
1573178915033347072,0,1573178914747313020,map,rig,0.0125849088188,0.0177559399906,-0.000894538562452,0.999264372891,-0.00601371258309,-0.0375921792362,0.00462346102949
1573178915033357670,0,1573178914747313020,rig,cam0,7.36842893525e-24,-3.3577436547e-23,2.25027355351e-24,-7.0084883047e-24,3.20839597327e-24,1.51914468666e-24,1.0
1573178915231756883,0,1573178914977051070,map,grasp_lab,-1.09364376491e-19,-5.90946705587e-19,5.49462305941e-21,5.43518944877e-21,-7.96830132738e-22,-4.30638103493e-22,1.0
1573178915231773744,0,1573178914977051070,grasp_lab,tag_7,0.469,-0.018,-2.54,7.5988599463e-21,-1.77917418759e-21,-2.78567499999e-22,1.0
1573178915231779856,0,1573178914977051070,grasp_lab,tag_9,-0.64860700732,0.0205729439818,-3.10978252328,0.00569180707533,0.0425597900031,-0.0199737525764,0.998878028998
1573178915231808700,0,1573178914977051070,grasp_lab,tag_14,-1.22220434003,0.0348517004371,-3.06086192491,0.00336424343789,0.0414747335414,0.00187539857565,0.999132129012
1573178915231814587,0,1573178914977051070,grasp_lab,tag_8,-0.850052355348,0.00299907032521,-1.21005456242,0.000719882981481,0.0370287216177,-0.0051965488636,0.999300431013
1573178915231824154,0,1573178914977051070,map,rig,0.0125302530612,0.0177524244531,-0.000902555154786,0.99926491484,-0.00602096629146,-0.0375763629605,0.00462546020585
1573178915231829590,0,1573178914977051070,rig,cam0,7.23643669041e-24,-2.80610446076e-23,2.58497415844e-24,-1.12296324253e-23,4.80516766109e-24,1.82781777993e-24,1.0
1573178915423370981,0,1573178915164513259,map,grasp_lab,-1.2069344178e-19,-5.62147971849e-19,3.33213766447e-21,4.19531311233e-21,-9.95368755234e-22,5.76780424785e-22,1.0
1573178915423425750,0,1573178915164513259,grasp_lab,tag_7,0.469,-0.018,-2.54,6.01977863614e-21,-1.90731612909e-21,-4.83516536129e-23,1.0
1573178915423599290,0,1573178915164513259,grasp_lab,tag_9,-0.64860286841,0.0205980929567,-3.10976461649,0.00573934686644,0.0425376066092,-0.0199729345727,0.998878718267
1573178915423753089,0,1573178915164513259,grasp_lab,tag_14,-1.2221993015,0.0348685198325,-3.06084988364,0.00337024955236,0.0414729607728,0.0018883380942,0.999132157986
1573178915423764563,0,1573178915164513259,grasp_lab,tag_8,-0.850060004118,0.00290346891305,-1.21005310953,0.000749637231993,0.037021562071,-0.00519129371357,0.999300701719
1573178915423851145,0,1573178915164513259,map,rig,0.0125833126491,0.0176496363313,-0.0008522794138,0.999264658898,-0.00600635227033,-0.037587291974,0.00461093185132
1573178915423933484,0,1573178915164513259,rig,cam0,6.11461540563e-24,-2.2662886277e-23,1.86581311545e-24,-4.27586928315e-24,7.48327123647e-24,7.69010442778e-25,1.0
1573178915619108559,0,1573178915348335886,map,grasp_lab,-6.22099403495e-20,-6.70369465713e-19,-2.26242334621e-21,4.24513056922e-21,-5.52494783295e-22,7.03873461269e-23,1.0
1573178915619123817,0,1573178915348335886,grasp_lab,tag_7,0.469,-0.018,-2.54,7.247025182e-21,-1.4240263213e-21,1.19556647734e-22,1.0
1573178915619129537,0,1573178915348335886,grasp_lab,tag_9,-0.648593044605,0.0205795543209,-3.10978681749,0.00567232330262,0.0425447370858,-0.019969443813,0.998878867235
1573178915619139668,0,1573178915348335886,grasp_lab,tag_14,-1.22218914333,0.0348533366681,-3.06087749049,0.00334790988267,0.0414745685749,0.0018888842503,0.99913216532
1573178915619144086,0,1573178915348335886,grasp_lab,tag_8,-0.850081483627,0.00296114263591,-1.21007776786,0.000725152398354,0.0370099255505,-0.00519322472197,0.999301140789
1573178915619378752,0,1573178915348335886,map,rig,0.0125622588038,0.0177377942919,-0.000859978723957,0.999264531409,-0.00602456639169,-0.0375846258214,0.00463646079189
1573178915619394445,0,1573178915348335886,rig,cam0,8.21693116853e-24,-3.6893216323e-23,1.44236902127e-24,2.81694655443e-24,7.13954302816e-24,3.94689967738e-24,1.0
1573178915840107798,0,1573178915539311530,map,grasp_lab,-7.39256768131e-20,-5.94746352174e-19,-1.54285272155e-20,3.34155495716e-21,-5.12918981011e-22,-2.00330894377e-22,1.0
1573178915840295706,0,1573178915539311530,grasp_lab,tag_7,0.469,-0.018,-2.54,6.52602923314e-21,-1.16777436793e-21,-1.14034313533e-23,1.0
1573178915840304372,0,1573178915539311530,grasp_lab,tag_9,-0.64858827664,0.0205372667493,-3.10978672478,0.00565108807494,0.0425305728072,-0.0199822203177,0.998879335281
1573178915840311035,0,1573178915539311530,grasp_lab,tag_14,-1.22218196817,0.0348228258358,-3.06087961009,0.00326150243988,0.0414656237769,0.00189062104852,0.999132819098
1573178915840316725,0,1573178915539311530,grasp_lab,tag_8,-0.850083283459,0.00310783860749,-1.21008456997,0.000650522687673,0.0370192252523,-0.0052009708177,0.999300807407
1573178915840338859,0,1573178915539311530,map,rig,0.0124669779202,0.0179978587893,-0.00107753502908,0.999264422521,-0.00602429849794,-0.0375810575882,0.00468890409557
1573178915840343602,0,1573178915539311530,rig,cam0,5.25198232479e-24,-3.76387924919e-23,1.62179455846e-24,7.28647504159e-25,8.8818929529e-24,5.01432687978e-24,1.0
1573178916079902457,0,1573178915774558662,map,grasp_lab,-7.69305327282e-20,-6.17704334532e-19,-1.45354215701e-20,3.70531824827e-21,-5.03454354741e-22,-1.73506202574e-22,1.0
1573178916079991275,0,1573178915774558662,grasp_lab,tag_7,0.469,-0.018,-2.54,6.73705344082e-21,-1.18246386596e-21,-4.26603834119e-23,1.0
1573178916080055959,0,1573178915774558662,grasp_lab,tag_9,-0.648587251324,0.020541556186,-3.10977271057,0.00571983252516,0.0425241768255,-0.019989804427,0.998879064562
1573178916080143820,0,1573178915774558662,grasp_lab,tag_14,-1.22218148535,0.0348277644223,-3.06087209402,0.0032622349597,0.0414650876958,0.00189418288969,0.999132832208
1573178916080211889,0,1573178915774558662,grasp_lab,tag_8,-0.850077305237,0.00310309606555,-1.21007671251,0.000657392089883,0.0370205823588,-0.00520436466236,0.999300734967
1573178916080319224,0,1573178915774558662,map,rig,0.0123780891524,0.0179714779326,-0.000919225334515,0.999264654457,-0.00603041412673,-0.0375742833905,0.00468590285239
1573178916080394618,0,1573178915774558662,rig,cam0,5.71924042413e-24,-3.71968862072e-23,1.65007659346e-24,6.49924600959e-26,1.00976341059e-23,4.27700777055e-24,1.0
1573178916278732420,0,1573178916027572891,map,grasp_lab,-7.2481614962e-20,-5.44026159638e-19,-9.49717932939e-21,3.76725401401e-21,-4.62061729296e-22,-2.25695099699e-22,1.0
1573178916278747661,0,1573178916027572891,grasp_lab,tag_7,0.469,-0.018,-2.54,4.72933310793e-21,-1.13802039087e-21,-5.32941799401e-22,1.0
1573178916278753694,0,1573178916027572891,grasp_lab,tag_9,-0.648581013781,0.0205355886786,-3.10976846012,0.0057734052908,0.0425097495892,-0.0199941768863,0.998879282933
1573178916278758638,0,1573178916027572891,grasp_lab,tag_14,-1.22217700631,0.034819972802,-3.06088232613,0.00329697096987,0.0414603641173,0.00189259243073,0.999132917226
1573178916278763993,0,1573178916027572891,grasp_lab,tag_8,-0.850081279748,0.00310636185738,-1.21008149467,0.000649858831916,0.037016689467,-0.00520203167932,0.999300896252
1573178916278772739,0,1573178916027572891,map,rig,0.0123613059686,0.0179272552799,-0.000969686842315,0.999264509647,-0.00604693524147,-0.0375763492272,0.00467892221378
1573178916278798766,0,1573178916027572891,rig,cam0,6.19356571241e-24,-3.07488788224e-23,1.79953509519e-24,6.8194117977e-24,1.00103138217e-23,2.5644077475e-24,1.0
1573178916520366880,0,1573178916209637461,map,grasp_lab,-5.57116389877e-20,-6.43246707113e-19,-9.47768522155e-21,2.97705986513e-21,-2.14864244146e-22,-8.04312281275e-22,1.0
1573178916520454632,0,1573178916209637461,grasp_lab,tag_7,0.469,-0.018,-2.54,5.89127587216e-21,-9.77482141504e-22,-2.16039739252e-22,1.0
1573178916520600081,0,1573178916209637461,grasp_lab,tag_9,-0.648569807107,0.0205028460337,-3.1098056903,0.00572595816043,0.0425158172397,-0.0199982377643,0.998879216509
1573178916520706107,0,1573178916209637461,grasp_lab,tag_14,-1.22216441667,0.0347960203993,-3.06092441637,0.00324996168689,0.0414568063864,0.00189310444152,0.999133217899
1573178916520820514,0,1573178916209637461,grasp_lab,tag_8,-0.850102577175,0.00322002796343,-1.21010937041,0.000608231084704,0.0370065800879,-0.00520586724767,0.999301276909
1573178916520970550,0,1573178916209637461,map,rig,0.0122746064133,0.0181401060225,-0.001003433915,0.999265201965,-0.0060481782075,-0.0375530509714,0.0047163592681
1573178916521081905,0,1573178916209637461,rig,cam0,6.11972507598e-24,-3.50772419644e-23,1.46951170508e-24,2.86494821758e-24,1.11796315989e-23,4.29092809816e-24,1.0
1573178916738324516,0,1573178916469080610,map,grasp_lab,-6.18327628734e-20,-7.00317403165e-19,-1.11289358667e-20,3.31894084981e-21,-5.78335143704e-22,-7.95731655829e-22,1.0
1573178916738335962,0,1573178916469080610,grasp_lab,tag_7,0.469,-0.018,-2.54,6.40994431369e-21,-1.08237601287e-21,3.40713037353e-23,1.0
1573178916738348507,0,1573178916469080610,grasp_lab,tag_9,-0.648561924287,0.020519358386,-3.10982068749,0.00578927870538,0.0424949125623,-0.0200021714212,0.99887966232
1573178916738352670,0,1573178916469080610,grasp_lab,tag_14,-1.22215462956,0.0348111802216,-3.06093976561,0.0032502502689,0.0414451222504,0.00189666486444,0.999133694946
1573178916738364246,0,1573178916469080610,grasp_lab,tag_8,-0.850113955599,0.00317896981596,-1.2101247613,0.000617317959957,0.0369977794187,-0.00520316853862,0.999301611263
1573178916738379139,0,1573178916469080610,map,rig,0.0123224897362,0.0180792330752,-0.000941914430997,0.999265735129,-0.0060372707886,-0.0375427336154,0.004699479917
1573178916738388576,0,1573178916469080610,rig,cam0,6.22991040945e-24,-3.23988539092e-23,1.40210166975e-24,4.56126829114e-26,7.37300459787e-24,3.22640876553e-24,1.0
1573178916946183065,0,1573178916666732019,map,grasp_lab,-6.04705485546e-20,-6.59275087399e-19,-4.65569334345e-21,2.78054623156e-21,-4.52770665586e-22,-8.60180520708e-22,1.0
1573178916951801261,0,1573178916666732019,grasp_lab,tag_7,0.469,-0.018,-2.54,5.73688270724e-21,-1.08948144023e-21,-2.984626966e-22,1.0
1573178916952044894,0,1573178916666732019,grasp_lab,tag_9,-0.648545944043,0.0204950429535,-3.10986429729,0.00571103157145,0.042497005758,-0.0200014639043,0.998880037873
1573178916952211198,0,1573178916666732019,grasp_lab,tag_14,-1.22214644197,0.0347870420018,-3.0610134254,0.00323292510663,0.041449161152,0.00189829883446,0.999133580507
1573178916952814488,0,1573178916666732019,grasp_lab,tag_8,-0.850141505481,0.00322570981137,-1.21016854463,0.000568233083357,0.0369929538777,-0.00519987549418,0.999301836168
1573178916952836337,0,1573178916666732019,map,rig,0.0124407738378,0.0181285702668,-0.00109474435067,0.999265329506,-0.00601517171328,-0.0375562444823,0.00470610851022
1573178916952841174,0,1573178916666732019,rig,cam0,7.67950743795e-24,-3.09457531944e-23,1.52188471708e-24,5.5837825712e-24,7.74509387518e-24,3.55633555104e-24,1.0
1573178917169177595,0,1573178916898067210,map,grasp_lab,-5.01915483428e-20,-7.03366393038e-19,-4.394421384e-21,2.45218759676e-21,-5.51827693088e-22,-8.00662356082e-22,1.0
1573178917169192035,0,1573178916898067210,grasp_lab,tag_7,0.469,-0.018,-2.54,4.93511110038e-21,-1.32879701732e-21,1.61638086802e-22,1.0
1573178917169198939,0,1573178916898067210,grasp_lab,tag_9,-0.648538254507,0.0205059739973,-3.10989041348,0.00572673047952,0.0424921425227,-0.0199987959097,0.998880208305
1573178917169405231,0,1573178916898067210,grasp_lab,tag_14,-1.222137675,0.0347968802215,-3.06103980018,0.0032385761703,0.0414459971662,0.00189842229456,0.999133693224
1573178917169415992,0,1573178916898067210,grasp_lab,tag_8,-0.850149147739,0.00319690064865,-1.21018630672,0.00057580212108,0.0369804714828,-0.00519641859713,0.999302311823
1573178917169421689,0,1573178916898067210,map,rig,0.0123799417997,0.0181337295108,-0.00098539905424,0.999265498694,-0.00604440237067,-0.0375456151987,0.00471753104023
1573178917169547190,0,1573178916898067210,rig,cam0,8.58181713666e-24,-3.11461490122e-23,1.11665102273e-24,9.99425259994e-24,7.37806271388e-24,3.29248588345e-24,1.0
1573178917392430448,0,1573178917088258897,map,grasp_lab,-4.02802025392e-20,-6.72181878714e-19,3.35595771028e-21,2.81508502757e-21,-3.52364330318e-22,-8.89451354924e-22,1.0
1573178917392680530,0,1573178917088258897,grasp_lab,tag_7,0.469,-0.018,-2.54,5.00471011397e-21,-1.40617371325e-21,-2.38627003332e-22,1.0
1573178917392695597,0,1573178917088258897,grasp_lab,tag_9,-0.648506552274,0.020474446283,-3.10996967531,0.00564629800036,0.0424731351381,-0.019996473764,0.998881521076
1573178917392701096,0,1573178917088258897,grasp_lab,tag_14,-1.22210952822,0.0347729197277,-3.06115101366,0.00319962951996,0.0414152493157,0.00189274373762,0.999135104486
1573178917392705768,0,1573178917088258897,grasp_lab,tag_8,-0.850206697906,0.00329909430565,-1.21026472356,0.000518824808943,0.0369578955773,-0.00519773310771,0.999303171388
1573178917392710871,0,1573178917088258897,map,rig,0.0122056753993,0.0182831733788,-0.001144515466,0.999266296281,-0.0060450834803,-0.0375207478724,0.00474547795934
1573178917392715882,0,1573178917088258897,rig,cam0,1.00262640824e-23,-3.109025796e-23,1.13293799098e-24,8.06020567605e-24,5.09211101549e-24,4.53422794212e-24,1.0
1573178917634668474,0,1573178917336195159,map,grasp_lab,-2.44549928559e-20,-6.34007102574e-19,6.86492035017e-22,3.06650261785e-21,-4.14375596858e-22,-9.98460451251e-22,1.0
1573178917634751128,0,1573178917336195159,grasp_lab,tag_7,0.469,-0.018,-2.54,4.7407017917e-21,-1.33208737557e-21,-1.98986713594e-22,1.0
1573178917634846494,0,1573178917336195159,grasp_lab,tag_9,-0.648500523615,0.0204714621107,-3.10998585303,0.00567213771028,0.042481199583,-0.0200079628659,0.998880801676
1573178917634915715,0,1573178917336195159,grasp_lab,tag_14,-1.22210323694,0.034778200922,-3.06117131128,0.00318776297741,0.0414155566453,0.00188487432041,0.999135144554
1573178917634984821,0,1573178917336195159,grasp_lab,tag_8,-0.850212003197,0.00334854372408,-1.21027675577,0.000494177374859,0.0369551082482,-0.00520337770557,0.999303257587
1573178917635071174,0,1573178917336195159,map,rig,0.0120210301464,0.0184021884044,-0.00106994090582,0.999267583236,-0.00603753415843,-0.037485392093,0.00476347094832
1573178917635139877,0,1573178917336195159,rig,cam0,9.03262239399e-24,-2.95197001824e-23,1.18963579992e-24,7.92744283808e-24,5.50023522945e-24,4.12818800617e-24,1.0
1573178917862461394,0,1573178917579542060,map,grasp_lab,-1.41851337887e-20,-7.0465607111e-19,-1.41354269949e-20,2.15487750968e-21,-1.86220561503e-22,-5.76312514252e-22,1.0
1573178917862479253,0,1573178917579542060,grasp_lab,tag_7,0.469,-0.018,-2.54,4.33337884169e-21,-1.04988636247e-21,-4.5267498168e-22,1.0
1573178917862485574,0,1573178917579542060,grasp_lab,tag_9,-0.648476502285,0.0205034878112,-3.11003977709,0.00566055059711,0.0424624102689,-0.020000430141,0.998881817171
1573178917862491406,0,1573178917579542060,grasp_lab,tag_14,-1.22207954461,0.0348054390156,-3.06124273715,0.00320639969698,0.0413932149538,0.00188949493559,0.999136002037
1573178917862496577,0,1573178917579542060,grasp_lab,tag_8,-0.850257340388,0.00326276957818,-1.2103327253,0.000519982639106,0.0369338552677,-0.00519963578766,0.999304049697
1573178917862510530,0,1573178917579542060,map,rig,0.0120647493242,0.0181605484778,-0.00106414258362,0.999267918569,-0.00605310405297,-0.0374793084716,0.00472104723226
1573178917862514948,0,1573178917579542060,rig,cam0,1.07309941245e-23,-2.73118278559e-23,1.18951493594e-24,1.79156972576e-23,6.29448109242e-24,6.36941398552e-24,1.0
1573178918074459050,0,1573178917808365665,map,grasp_lab,1.1695125202e-20,-5.85719004031e-19,-1.28080823798e-20,1.7250700484e-21,1.89394103735e-22,-9.18246499813e-22,1.0
1573178918074536509,0,1573178917808365665,grasp_lab,tag_7,0.469,-0.018,-2.54,3.05507221531e-21,-8.21119966144e-22,-6.88771204563e-23,1.0
1573178918074542798,0,1573178917808365665,grasp_lab,tag_9,-0.648461418214,0.0204790509482,-3.110072631,0.00561714932126,0.042455038805,-0.0200019343009,0.998882345393
1573178918074547333,0,1573178917808365665,grasp_lab,tag_14,-1.22206760483,0.0347847887728,-3.06129407033,0.0031477052582,0.0413797225592,0.00189665475203,0.999136733993
1573178918074551459,0,1573178917808365665,grasp_lab,tag_8,-0.85028451187,0.00333199476464,-1.21035992727,0.000491104469969,0.0369184480377,-0.00519889898353,0.999304637466
1573178918074555685,0,1573178917808365665,map,rig,0.0118437026872,0.0183305320555,-0.00115923007285,0.999269229417,-0.00605551796552,-0.0374392893886,0.00475788322034
1573178918074560056,0,1573178917808365665,rig,cam0,9.39099814946e-24,-1.60293296225e-23,-3.93987088601e-26,7.42238975646e-24,2.0262197735e-24,5.19576432851e-24,1.0
1573178918282407991,0,1573178918017025669,map,grasp_lab,4.2335030332e-21,-5.97520473485e-19,-2.85581465044e-20,3.43428148943e-21,2.65788360403e-22,-2.7413952725e-22,1.0
1573178918282552066,0,1573178918017025669,grasp_lab,tag_7,0.469,-0.018,-2.54,4.18399155824e-21,-8.06063706502e-22,-3.58148286404e-22,1.0
1573178918282667925,0,1573178918017025669,grasp_lab,tag_9,-0.648446175314,0.0205114705137,-3.11011064363,0.00564130495034,0.0424667322406,-0.0199990265359,0.998881770416
1573178918282727632,0,1573178918017025669,grasp_lab,tag_14,-1.22205161895,0.0348144349868,-3.06133925332,0.00317383618079,0.04136183078,0.00189934260601,0.999137387057
1573178918282810740,0,1573178918017025669,grasp_lab,tag_8,-0.850310731659,0.00325753003967,-1.21039404775,0.000508921736361,0.0369054368057,-0.00519475541462,0.999305130703
1573178918282919768,0,1573178918017025669,map,rig,0.0119397827058,0.0181357827769,-0.00112857683354,0.999268588918,-0.00606355691221,-0.0374596570659,0.00472171288352
1573178918282995049,0,1573178918017025669,rig,cam0,8.86324697118e-24,-1.46462280554e-23,-6.34462883687e-25,1.09492262789e-23,2.87424778062e-24,4.91071107476e-24,1.0
1573178918614738505,0,1573178918237677723,map,grasp_lab,1.05503798709e-20,-1.77245999803e-20,-2.55401180044e-21,5.00854540285e-23,-9.90928171258e-23,1.99121630397e-23,1.0
1573178918614751140,0,1573178918237677723,grasp_lab,tag_7,0.469,-0.018,-2.54,2.4193796742e-22,8.98991764972e-23,-9.76319371719e-24,1.0
1573178918614769255,0,1573178918237677723,grasp_lab,tag_9,-0.648448339682,0.0204869519056,-3.11011935252,0.00563718336405,0.0424807253535,-0.0200104489961,0.99888096992
1573178918614794080,0,1573178918237677723,grasp_lab,tag_14,-1.22204892815,0.0348010715864,-3.06133361834,0.00313464347469,0.0413602627303,0.00189065068267,0.999137592185
1573178918614814539,0,1573178918237677723,grasp_lab,tag_8,-0.850303379258,0.00336525333822,-1.21038869515,0.000464776745318,0.0369080204829,-0.00520025877726,0.999305028165
1573178918614827941,0,1573178918237677723,map,rig,0.011886810428,0.0183985631022,-0.00117757763252,0.999268937727,-0.00605829509583,-0.0374452808979,0.00476844774909
1573178918614833262,0,1573178918237677723,rig,cam0,-6.02876328587e-25,-1.81151969077e-24,2.30668151005e-25,-3.5041901564e-25,1.22695436403e-25,5.46992888445e-26,1.0
1573178918765378631,0,1573178918448401874,map,grasp_lab,1.97083486165e-21,3.39519298003e-20,4.72897072306e-21,1.90671139525e-22,-1.54826017398e-22,8.23699608843e-23,1.0
1573178918765520106,0,1573178918448401874,grasp_lab,tag_7,0.469,-0.018,-2.54,-6.00765717191e-22,-2.20796736944e-22,-2.0871515973e-22,1.0
1573178918765786594,0,1573178918448401874,grasp_lab,tag_9,-0.648438022084,0.0204810861,-3.11014428893,0.00563269040574,0.042465377596,-0.0200159584286,0.998881537477
1573178918765796748,0,1573178918448401874,grasp_lab,tag_14,-1.2220405506,0.0348025105403,-3.06137031819,0.00310013079086,0.0413568860854,0.00188922125923,0.999137842345
1573178918765801182,0,1573178918448401874,grasp_lab,tag_8,-0.850320232181,0.00341815512652,-1.21041190646,0.000443509878877,0.0369005385134,-0.00520586859978,0.99930528493
1573178918765994221,0,1573178918448401874,map,rig,0.0119110645293,0.0184429669886,-0.00113641558498,0.999269039217,-0.0060624562137,-0.0374411338682,0.0047744509746
1573178918766079376,0,1573178918448401874,rig,cam0,-4.66131564004e-25,1.19447586716e-24,-6.65821018225e-26,-1.57220989737e-25,-4.89400221804e-25,5.70797757092e-26,1.0
1573178918971221981,0,1573178918699547483,map,grasp_lab,1.49838537195e-21,1.06362621019e-19,6.52061511266e-21,-3.87915864841e-22,1.17140481219e-23,3.50174180198e-22,1.0
1573178918971433064,0,1573178918699547483,grasp_lab,tag_7,0.469,-0.018,-2.54,-2.95683661113e-21,-7.70783664064e-23,-3.3945502311e-22,1.0
1573178918971554808,0,1573178918699547483,grasp_lab,tag_9,-0.648426332599,0.0204546629762,-3.11017102616,0.00562162617318,0.0424448490633,-0.0200258010656,0.998882275045
1573178918971689668,0,1573178918699547483,grasp_lab,tag_14,-1.2220300303,0.0347855899021,-3.06140942164,0.00307807802608,0.0413526344043,0.00188032921434,0.99913810328
1573178918971798037,0,1573178918699547483,grasp_lab,tag_8,-0.850337099522,0.00352230115628,-1.21044257016,0.000400435750326,0.03689590448,-0.00520977498894,0.999305453867
1573178918971979241,0,1573178918699547483,map,rig,0.011829895318,0.0186763332616,-0.00115936314932,0.999269311298,-0.00606956712649,-0.0374268597252,0.00482016853032
1573178918972093616,0,1573178918699547483,rig,cam0,-1.02079635703e-24,6.46844662609e-24,-1.05297136097e-25,1.03903334795e-23,-5.79433846978e-25,-8.52195025359e-25,1.0
1573178919192910896,0,1573178918890596545,map,grasp_lab,6.55863376136e-21,-1.67444441978e-19,4.45577917646e-21,2.15404097216e-21,1.15157121526e-22,7.07913163435e-22,1.0
1573178919192926205,0,1573178918890596545,grasp_lab,tag_7,0.469,-0.018,-2.54,6.57628804668e-22,8.39652447232e-24,1.08627180933e-22,1.0
1573178919192932525,0,1573178918890596545,grasp_lab,tag_9,-0.648403181197,0.0205006913003,-3.11019283776,0.00567057675144,0.042400515131,-0.0200172987191,0.998884051644
1573178919192939160,0,1573178918890596545,grasp_lab,tag_14,-1.22201358401,0.0348201207056,-3.06146945345,0.00312647490934,0.0413375203507,0.00188698243033,0.999138565897
1573178919192943803,0,1573178918890596545,grasp_lab,tag_8,-0.850370611395,0.00336821433331,-1.21048725225,0.000453084125442,0.0368793831472,-0.00520105500209,0.999306086662
1573178919192948001,0,1573178918890596545,map,rig,0.0117105110132,0.0183723260686,-0.00118014978143,0.999270184295,-0.00606254081419,-0.0374134451806,0.004751683678
1573178919192979092,0,1573178918890596545,rig,cam0,-1.20970615315e-24,3.8995012341e-24,-5.33921466856e-25,-7.40288538158e-24,-5.53646197537e-25,-2.49676402275e-24,1.0
1573178919397524895,0,1573178919144957193,map,grasp_lab,4.55377393097e-20,-1.373158311e-19,3.65787916639e-20,1.24979494791e-21,9.54296208948e-22,1.12556618758e-21,1.0
1573178919397540705,0,1573178919144957193,grasp_lab,tag_7,0.469,-0.018,-2.54,-2.50429696266e-22,2.84168533647e-22,1.45123192634e-21,1.0
1573178919397557054,0,1573178919144957193,grasp_lab,tag_9,-0.648349523665,0.0205082740645,-3.11029542818,0.00569040691182,0.0423192844731,-0.0200215794082,0.998887297841
1573178919397562404,0,1573178919144957193,grasp_lab,tag_14,-1.22197277705,0.0348287542217,-3.06164857209,0.00307975395849,0.0413033906148,0.00189481704698,0.999140107646
1573178919397567413,0,1573178919144957193,grasp_lab,tag_8,-0.850444703338,0.00335893537678,-1.21058651725,0.00042279370927,0.0368196679843,-0.00519987353685,0.999308308086
1573178919397571954,0,1573178919144957193,map,rig,0.00800616364192,0.0189967857312,-0.0360732301727,0.999307368671,-0.00514843333138,-0.036613349369,0.00421179321763
1573178919397576251,0,1573178919144957193,rig,cam0,-2.86805665927e-24,7.45182339052e-25,3.69667826815e-25,-1.30988387309e-23,-1.64356204765e-24,8.95691558616e-24,1.0
1573178919610615233,0,1573178919323163090,map,grasp_lab,5.80783347361e-20,-6.8035255323e-20,-1.0767471556e-20,2.33051091268e-21,2.32041480883e-22,1.15749124735e-21,1.0
1573178919610627449,0,1573178919323163090,grasp_lab,tag_7,0.469,-0.018,-2.54,-1.9047796345e-21,-7.92361332372e-23,8.25227036525e-22,1.0
1573178919610693350,0,1573178919323163090,grasp_lab,tag_9,-0.648442581823,0.0205211203585,-3.11014092811,0.00571263041871,0.0424325842412,-0.0200228735467,0.998882338508
1573178919610729461,0,1573178919323163090,grasp_lab,tag_14,-1.22207083085,0.0348418627866,-3.06142639371,0.00308950037509,0.041390390039,0.00188845986553,0.999136489334
1573178919610776222,0,1573178919323163090,grasp_lab,tag_8,-0.850296347986,0.00333906098044,-1.21037040153,0.000385060501209,0.0368847489873,-0.00520058197352,0.99930591961
