%time,field.transforms0.header.seq,field.transforms0.header.stamp,field.transforms0.header.frame_id,field.transforms0.child_frame_id,field.transforms0.transform.translation.x,field.transforms0.transform.translation.y,field.transforms0.transform.translation.z,field.transforms0.transform.rotation.x,field.transforms0.transform.rotation.y,field.transforms0.transform.rotation.z,field.transforms0.transform.rotation.w
1573179809871065246,0,1573179809572443886,map,grasp_lab,-1.70393396492e-19,-1.69430294279e-20,-8.73754277555e-21,1.07508249046e-21,-8.32041970095e-22,-3.05427516205e-22,1.0
1573179809871253960,0,1573179809572443886,grasp_lab,tag_7,0.469,-0.018,-2.54,2.3279812923e-21,-4.02939021427e-21,4.55419379549e-23,1.0
1573179809871345557,0,1573179809572443886,grasp_lab,tag_9,-0.649041228109,0.0233556112601,-3.10882151642,0.00858374311256,0.0421766335583,-0.0197853390992,0.998877365492
1573179809871382909,0,1573179809572443886,grasp_lab,tag_8,-0.849289377728,-0.00349889851466,-1.20958589053,0.00359375655282,0.0405408594781,-0.00528833277041,0.999157423614
1573179809871454697,0,1573179809572443886,grasp_lab,tag_14,-1.22294136558,0.0374147847058,-3.06044763719,0.00524353852731,0.0417997367993,0.00184118446484,0.999110553116
1573179809871495305,0,1573179809572443886,map,rig,0.0195620413228,0.00481893952366,0.0145560054405,0.999255543071,-0.00635025102691,-0.0379948892212,0.00210293765849
1573179809871536999,0,1573179809572443886,rig,cam0,1.20471661278e-23,-1.52135034601e-23,-2.08093567478e-24,8.41983141589e-24,-2.00528129398e-25,3.80355595523e-25,1.0
1573179810092583851,0,1573179809813745500,map,grasp_lab,-1.82421680112e-19,-8.28818458231e-20,-2.25660782393e-20,7.62400121972e-22,-6.3855649023e-22,-2.53645331998e-22,1.0
1573179810092819788,0,1573179809813745500,grasp_lab,tag_7,0.469,-0.018,-2.54,2.98787076586e-21,-4.42899332927e-21,-4.52062444807e-23,1.0
1573179810092960445,0,1573179809813745500,grasp_lab,tag_9,-0.649009369041,0.0233152140874,-3.10888649788,0.00858130307122,0.0421257674307,-0.0197952541544,0.998879336491
1573179810093088444,0,1573179809813745500,grasp_lab,tag_8,-0.849361085284,-0.00338410135677,-1.20965982977,0.00354847533838,0.0404598568823,-0.00529459703172,0.999160835675
1573179810093210456,0,1573179809813745500,grasp_lab,tag_14,-1.22291226601,0.0373806919759,-3.06054699413,0.00521711441683,0.0417824634637,0.00183713104668,0.999111421421
1573179810093311663,0,1573179809813745500,map,rig,0.0193534038816,0.00500794475308,0.0145560579417,0.999256995779,-0.00635283940811,-0.0379541413553,0.00214032041312
1573179810093401418,0,1573179809813745500,rig,cam0,1.35854912474e-23,-1.16268902169e-23,-2.05689136165e-24,9.6798961199e-24,1.66474713141e-24,2.13283463402e-24,1.0
1573179810300188263,0,1573179810044842139,map,grasp_lab,-2.1984966885e-19,1.43759076112e-20,-2.19739656642e-20,1.3074858991e-21,-1.07951878199e-21,-4.44019518602e-22,1.0
1573179810300489651,0,1573179810044842139,grasp_lab,tag_7,0.469,-0.018,-2.54,2.50279212194e-21,-5.24736092518e-21,9.86081754069e-24,1.0
1573179810300652897,0,1573179810044842139,grasp_lab,tag_9,-0.648982325908,0.0233510272861,-3.10893664669,0.00871681950244,0.0421208460385,-0.0198008319681,0.99887826007
1573179810300801952,0,1573179810044842139,grasp_lab,tag_8,-0.849424605141,-0.00349125897295,-1.2097106407,0.0035751135893,0.0403710692487,-0.00529115489415,0.99916435035
1573179810300949151,0,1573179810044842139,grasp_lab,tag_14,-1.2228870636,0.0374103253807,-3.06062266628,0.00528926660834,0.0417643066365,0.001835613709,0.99911180399
1573179810301131339,0,1573179810044842139,map,rig,0.0193078770156,0.00483614811408,0.0145392807541,0.999257515204,-0.00634848323338,-0.037943287647,0.00210285328388
1573179810301282476,0,1573179810044842139,rig,cam0,1.35836444348e-23,-1.09799588753e-23,-2.32586519377e-24,1.38123848872e-23,2.52553911778e-24,2.27015799861e-24,1.0
1573179810516721242,0,1573179810228526794,map,grasp_lab,-2.18435419598e-19,4.89185372345e-20,-1.78353464275e-20,2.84515804103e-23,-9.32064489251e-22,-5.39178192796e-22,1.0
1573179810516742411,0,1573179810228526794,grasp_lab,tag_7,0.469,-0.018,-2.54,1.58540829025e-21,-5.51884228339e-21,-1.59159101481e-22,1.0
1573179810516747251,0,1573179810228526794,grasp_lab,tag_9,-0.64895704757,0.0233994080457,-3.10901253694,0.00874318361569,0.0421452783323,-0.019790610565,0.998877201656
1573179810516753178,0,1573179810228526794,grasp_lab,tag_8,-0.849485896716,-0.00363886066401,-1.20977653513,0.00361374255724,0.0402900072646,-0.0052878348371,0.999167500964
1573179810516756453,0,1573179810228526794,grasp_lab,tag_14,-1.22285737783,0.0374488676409,-3.06069882392,0.00532328466562,0.0417390994133,0.00183933248094,0.999112669861
1573179810516761738,0,1573179810228526794,map,rig,0.0191712638014,0.00456413415629,0.0144598560073,0.999258687075,-0.00633167206585,-0.0379180782879,0.00205074912847
1573179810516782206,0,1573179810228526794,rig,cam0,1.57817264592e-23,-2.10919136924e-23,-1.55444566616e-24,2.11871967921e-24,-3.05994568432e-25,1.64744046031e-24,1.0
1573179810730316696,0,1573179810447823404,map,grasp_lab,-2.40059645838e-19,1.78616424195e-19,-1.95607035194e-20,8.8742518617e-22,-8.50891296943e-22,-1.00673678638e-21,1.0
1573179810730399700,0,1573179810447823404,grasp_lab,tag_7,0.469,-0.018,-2.54,-2.83612893616e-22,-5.68237731331e-21,-7.37348383734e-22,1.0
1573179810730420314,0,1573179810447823404,grasp_lab,tag_9,-0.648927626601,0.0233997836316,-3.10906207857,0.00877378526675,0.0420967830407,-0.019796568678,0.998878860232
1573179810730490746,0,1573179810447823404,grasp_lab,tag_8,-0.849544396428,-0.00361962627521,-1.20983679028,0.00360243927608,0.040211716568,-0.00529346797836,0.999170665842
1573179810730498024,0,1573179810447823404,grasp_lab,tag_14,-1.22282953834,0.0374530653184,-3.06077736641,0.00529689703128,0.0417157086901,0.00184480266846,0.999113776921
1573179810730504253,0,1573179810447823404,map,rig,0.0190244259557,0.00464178298992,0.0144768280187,0.999259671826,-0.00633567444029,-0.0378906529266,0.00206540869104
1573179810730509106,0,1573179810447823404,rig,cam0,1.71323717663e-23,7.81773336173e-24,-9.40175136452e-25,4.20508055574e-24,2.58159825362e-25,4.11717152031e-24,1.0
1573179810951644570,0,1573179810675101969,map,grasp_lab,-2.60290214811e-19,-3.53406185818e-20,-1.61106163645e-20,1.00896915962e-21,-8.73342282521e-22,-9.18050496246e-22,1.0
1573179810951658944,0,1573179810675101969,grasp_lab,tag_7,0.469,-0.018,-2.54,6.3172400312e-22,-6.00507551282e-21,-6.31743773244e-22,1.0
1573179810951663317,0,1573179810675101969,grasp_lab,tag_9,-0.648907076581,0.0233181105644,-3.10910759842,0.00869787037716,0.042081339768,-0.0198011830697,0.998880083415
1573179810951667503,0,1573179810675101969,grasp_lab,tag_8,-0.849592831021,-0.00340743062232,-1.20987306069,0.0035238904483,0.0401411711594,-0.00530243421882,0.999173735026
1573179810951671679,0,1573179810675101969,grasp_lab,tag_14,-1.22280788597,0.0373814186489,-3.0608387184,0.00519340641353,0.0416896515279,0.00183789910245,0.999115420566
1573179810951675752,0,1573179810675101969,map,rig,0.0189390919265,0.00500584676308,0.0144686494676,0.999260178626,-0.006340140874,-0.037872704837,0.00213453851598
1573179810951680169,0,1573179810675101969,rig,cam0,1.98829111132e-23,1.1931235343e-23,-1.00976819851e-24,8.74985185156e-24,-8.86083035435e-26,4.43789330383e-24,1.0
1573179811183767270,0,1573179810890519476,map,grasp_lab,-2.63392996696e-19,2.91836908635e-19,-2.46292596027e-20,3.04566169618e-21,-1.13436713071e-21,-9.16316081042e-22,1.0
1573179811184022588,0,1573179810890519476,grasp_lab,tag_7,0.469,-0.018,-2.54,-6.8993914094e-22,-6.1754008875e-21,-6.43764603921e-22,1.0
1573179811184198562,0,1573179810890519476,grasp_lab,tag_9,-0.648903966178,0.0233724536519,-3.10910282477,0.00876207988302,0.042065318394,-0.0197924746696,0.998880369659
1573179811184339045,0,1573179810890519476,grasp_lab,tag_8,-0.849602448687,-0.00361260856004,-1.20987405253,0.0035826230534,0.0400879101018,-0.00528971108621,0.999175731907
1573179811184465283,0,1573179810890519476,grasp_lab,tag_14,-1.22280631115,0.0374179813974,-3.06083789359,0.00526734166875,0.0416903059094,0.00184319093288,0.99911499646
1573179811184632125,0,1573179810890519476,map,rig,0.0189656876714,0.0046579957551,0.0144551579667,0.999260074222,-0.00633494863916,-0.0378798477774,0.00207114069294
1573179811184756208,0,1573179810890519476,rig,cam0,1.85832984259e-23,8.25822574624e-24,-1.64164864477e-24,1.52441105741e-23,1.04680206775e-24,4.06830770288e-24,1.0
1573179811400392983,0,1573179811096713326,map,grasp_lab,-2.30487950363e-19,1.77971489485e-19,-1.68290437401e-20,1.31463757548e-21,-1.25289940458e-21,-1.08718521469e-21,1.0
1573179811400600813,0,1573179811096713326,grasp_lab,tag_7,0.469,-0.018,-2.54,-1.15512629067e-21,-6.36939672278e-21,-7.70670377692e-22,1.0
1573179811400971691,0,1573179811096713326,grasp_lab,tag_9,-0.648926011548,0.0233741221846,-3.10904200742,0.00879172687532,0.0420746575436,-0.0197936900896,0.998879691737
1573179811400981420,0,1573179811096713326,grasp_lab,tag_8,-0.849547928111,-0.00360589033828,-1.20980572411,0.00357034587417,0.0400536150663,-0.00529012173383,0.999177149039
1573179811401033377,0,1573179811096713326,grasp_lab,tag_14,-1.22281939174,0.0374215321074,-3.06074207775,0.005272488198,0.0417021295779,0.00184359809597,0.999114475124
1573179811401103850,0,1573179811096713326,map,rig,0.0190479155762,0.00464075940336,0.0144671319795,0.999259490673,-0.00633359639494,-0.0378957100458,0.00206664394801
1573179811401209452,0,1573179811096713326,rig,cam0,1.91020183423e-23,-7.50040304604e-25,-1.83526657121e-24,1.07480919927e-23,1.32933544494e-24,3.36242357276e-24,1.0
1573179811606643168,0,1573179811323924323,map,grasp_lab,-2.42076712139e-19,2.32643218884e-19,-1.92148534375e-20,1.38312768809e-21,-1.57090724393e-21,-1.13305167816e-21,1.0
1573179811606655043,0,1573179811323924323,grasp_lab,tag_7,0.469,-0.018,-2.54,-1.33640350613e-21,-6.76339266976e-21,-7.87012860614e-22,1.0
1573179811606665858,0,1573179811323924323,grasp_lab,tag_9,-0.648903908581,0.023387918365,-3.10906922852,0.00890769467621,0.0420500040846,-0.0197932038025,0.998879712085
1573179811606670005,0,1573179811323924323,grasp_lab,tag_8,-0.849590148008,-0.00366644123295,-1.20984441322,0.00358722400685,0.039983783876,-0.00528758629106,0.999179898858
1573179811606675575,0,1573179811323924323,grasp_lab,tag_14,-1.22281050573,0.037431178091,-3.06082178568,0.0053044009186,0.0416972332777,0.00184606929658,0.999114505998
1573179811606681056,0,1573179811323924323,map,rig,0.0190158918665,0.00452658973619,0.014421161176,0.999259859413,-0.00634002118597,-0.0378858934705,0.00204855410409
1573179811606687058,0,1573179811323924323,rig,cam0,1.99509732573e-23,-1.23995275278e-24,-2.33894592336e-24,1.13776208963e-23,-1.81422499169e-24,2.5764550422e-24,1.0
1573179811809346882,0,1573179811543318430,map,grasp_lab,-2.53541139729e-19,2.39147811964e-19,-1.92226815107e-20,1.19659361913e-21,-1.64803120757e-21,-1.20089937279e-21,1.0
1573179811809360294,0,1573179811543318430,grasp_lab,tag_7,0.469,-0.018,-2.54,-1.68607934997e-21,-7.1888301328e-21,-9.19884352201e-22,1.0
1573179811809364970,0,1573179811543318430,grasp_lab,tag_9,-0.648896185401,0.0234266123261,-3.10910642648,0.00894015871826,0.042079231946,-0.0197879800055,0.998878294713
1573179811809370059,0,1573179811543318430,grasp_lab,tag_8,-0.849621604085,-0.00374187132713,-1.20987056031,0.00360245430933,0.0399257445717,-0.00528568898523,0.999182174949
1573179811809563879,0,1573179811543318430,grasp_lab,tag_14,-1.22281118414,0.0374688896268,-3.0608792689,0.00540469901896,0.0417002953701,0.00183073987539,0.999113868879
1573179811809578026,0,1573179811543318430,map,rig,0.0189545190595,0.00439674277293,0.0144720401096,0.999260402341,-0.00634218987903,-0.0378727009951,0.00202075708741
1573179811809584399,0,1573179811543318430,rig,cam0,2.13599678733e-23,-2.38597100769e-24,-1.79100815132e-24,1.07377826843e-23,-5.19241407128e-25,1.83034893485e-24,1.0
1573179812007931683,0,1573179811761331100,map,grasp_lab,-2.75427105359e-19,1.77165715702e-19,-2.95314440159e-20,7.2791110494e-22,-1.81540633339e-21,-9.33862193325e-22,1.0
1573179812007943778,0,1573179811761331100,grasp_lab,tag_7,0.469,-0.018,-2.54,-1.05795957156e-21,-7.94955494927e-21,-7.55038437505e-22,1.0
1573179812007948705,0,1573179811761331100,grasp_lab,tag_9,-0.648862919673,0.0234037016176,-3.10920460555,0.00887147676468,0.0420663038227,-0.0197753115688,0.998879702484
1573179812007961834,0,1573179811761331100,grasp_lab,tag_8,-0.849709206448,-0.00371239949599,-1.20996076316,0.00357312548074,0.0398437569187,-0.00528440413933,0.999185559784
1573179812007967428,0,1573179811761331100,grasp_lab,tag_14,-1.22278383104,0.0374437784437,-3.06101290142,0.00536636472054,0.0416823011143,0.0018352190516,0.999114818164
1573179812007972096,0,1573179811761331100,map,rig,0.0187623070808,0.00446400261748,0.0144048943055,0.99926172897,-0.00632765299891,-0.0378393417151,0.00203520047921
1573179812007976154,0,1573179811761331100,rig,cam0,2.32305987896e-23,-2.37077049238e-24,-2.47833606299e-24,1.22690133045e-23,-4.77150854365e-25,2.27675242683e-24,1.0
1573179812205378994,0,1573179811942846414,map,grasp_lab,-2.79230983995e-19,3.90956369543e-19,-1.8176761012e-20,9.2636810069e-22,-2.06321241689e-21,-1.21242931963e-21,1.0
1573179812205391074,0,1573179811942846414,grasp_lab,tag_7,0.469,-0.018,-2.54,-3.05138721673e-21,-8.42818319742e-21,-1.48760799807e-21,1.0
1573179812205406169,0,1573179811942846414,grasp_lab,tag_9,-0.648847189266,0.0234494935892,-3.10924924964,0.00896498655867,0.0420609481448,-0.019774944307,0.998879100409
1573179812205413552,0,1573179811942846414,grasp_lab,tag_8,-0.849749216739,-0.00386366875491,-1.21000353804,0.00361761050831,0.0397863924593,-0.00527676336194,0.999187725924
1573179812205591879,0,1573179811942846414,grasp_lab,tag_14,-1.22276749548,0.0374787427116,-3.06106181875,0.00540195613419,0.0416655344653,0.00183940184353,0.999115318023
1573179812205602106,0,1573179811942846414,map,rig,0.0186175260272,0.00420659785107,0.0144269403637,0.999262872029,-0.00631611576679,-0.0378137958355,0.00198396337354
1573179812205607109,0,1573179811942846414,rig,cam0,2.25051535491e-23,-5.47620039783e-24,-2.43134681421e-24,1.98212200845e-23,3.21754618822e-24,1.18538689162e-24,1.0
1573179812415750001,0,1573179812157102473,map,grasp_lab,-3.10187666589e-19,2.66319391485e-19,-1.30154151371e-20,2.70554011747e-21,-2.06762910799e-21,-1.38579384719e-21,1.0
1573179812415762182,0,1573179812157102473,grasp_lab,tag_7,0.469,-0.018,-2.54,-2.0751014978e-21,-8.7766266937e-21,-8.68725275227e-22,1.0
1573179812415767959,0,1573179812157102473,grasp_lab,tag_9,-0.648833634775,0.0234704823125,-3.1092921381,0.00894373459426,0.0420520144598,-0.0197691661093,0.998879781437
1573179812415772794,0,1573179812157102473,grasp_lab,tag_8,-0.849790439312,-0.00389970916054,-1.21004229954,0.00359840300473,0.0397489625239,-0.00527639151628,0.999189286956
1573179812415776921,0,1573179812157102473,grasp_lab,tag_14,-1.22275043897,0.0374998638991,-3.0611028991,0.00538706994761,0.0416477654517,0.00184592624896,0.999116127218
1573179812415781179,0,1573179812157102473,map,rig,0.0184495132958,0.00411947189966,0.0142908233842,0.999263960412,-0.00631678271109,-0.0377859129213,0.00196480618839
1573179812415796530,0,1573179812157102473,rig,cam0,2.74339551076e-23,1.69296813136e-24,-1.33923942294e-24,1.27848185366e-23,7.06033482916e-25,4.99507283026e-24,1.0
1573179812608267717,0,1573179812357644026,map,grasp_lab,-3.15800073162e-19,4.20996273256e-19,-2.4024334479e-20,3.16688928411e-21,-2.15512825836e-21,-1.04154731363e-21,1.0
1573179812608287299,0,1573179812357644026,grasp_lab,tag_7,0.469,-0.018,-2.54,-2.65295037766e-21,-8.55138464646e-21,-7.29236854413e-22,1.0
1573179812608294667,0,1573179812357644026,grasp_lab,tag_9,-0.648837022296,0.0234430580702,-3.10928471267,0.00888402726937,0.0420610997057,-0.0197706704339,0.998879901961
1573179812608298816,0,1573179812357644026,grasp_lab,tag_8,-0.849789170558,-0.00381390167059,-1.21002591366,0.00357771326376,0.0397146379533,-0.0052832880981,0.999190689692
1573179812608304330,0,1573179812357644026,grasp_lab,tag_14,-1.22274991094,0.0374781634758,-3.06108464994,0.00534520463675,0.0416422346677,0.00183842180924,0.999116596441
1573179812608311669,0,1573179812357644026,map,rig,0.0184248560512,0.00431012303292,0.0144338647162,0.999264237846,-0.00631547740042,-0.0377768713868,0.00200142342447
1573179812608321008,0,1573179812357644026,rig,cam0,2.74845690211e-23,2.06867662941e-23,-2.32783185872e-24,8.15657705816e-24,7.37630768751e-25,5.25987771451e-24,1.0
1573179812812583711,0,1573179812538632235,map,grasp_lab,-3.14481395211e-19,4.90215214347e-19,-2.4196658475e-20,3.95674476839e-21,-2.44001233442e-21,-1.37715844747e-21,1.0
1573179812812596243,0,1573179812538632235,grasp_lab,tag_7,0.469,-0.018,-2.54,-2.45785400381e-21,-9.20322000086e-21,-9.69598873201e-22,1.0
1573179812812600662,0,1573179812538632235,grasp_lab,tag_9,-0.648825337397,0.023482769986,-3.10931407189,0.00893897547457,0.0420506671389,-0.0197688192137,0.998879887623
1573179812812610787,0,1573179812538632235,grasp_lab,tag_8,-0.84982098054,-0.00392704124524,-1.21005392462,0.00361641173238,0.0396722102002,-0.00527885660473,0.999192259266
1573179812812615898,0,1573179812538632235,grasp_lab,tag_14,-1.22273499888,0.0375119457974,-3.06111292837,0.00538489113326,0.0416183737444,0.00184695194794,0.999117361816
1573179812812620459,0,1573179812538632235,map,rig,0.0183339299258,0.00404486350347,0.0144232644598,0.999264665026,-0.00633886686155,-0.0377640947368,0.0019547753055
1573179812812625309,0,1573179812538632235,rig,cam0,2.90764235189e-23,2.6011731049e-23,-1.74414766573e-24,1.10255794782e-23,2.96554434697e-25,3.57113189131e-24,1.0
1573179813007589791,0,1573179812757766304,map,grasp_lab,-3.32274326691e-19,3.26353019557e-19,-3.25662972257e-20,4.64555925401e-21,-2.09937207225e-21,-1.14087714162e-21,1.0
1573179813007601775,0,1573179812757766304,grasp_lab,tag_7,0.469,-0.018,-2.54,-4.61559582264e-22,-9.30563350104e-21,-6.67222190823e-22,1.0
1573179813007630138,0,1573179812757766304,grasp_lab,tag_9,-0.648792242672,0.0234473594132,-3.10939752218,0.00884111083819,0.0420305715095,-0.0197781219134,0.998881420245
1573179813007699136,0,1573179812757766304,grasp_lab,tag_8,-0.849900044027,-0.00374239146453,-1.21013591481,0.00355144699753,0.0396142806099,-0.00529414015035,0.999194709792
1573179813007707992,0,1573179812757766304,grasp_lab,tag_14,-1.22270832583,0.0374956756207,-3.06123540335,0.00531626373761,0.0415954857477,0.00183827572844,0.999118698478
1573179813007741246,0,1573179812757766304,map,rig,0.0181265737446,0.00434180391087,0.0143783962882,0.99926593158,-0.00634791323289,-0.0377261938892,0.00200904848687
1573179813007803564,0,1573179812757766304,rig,cam0,3.13961159602e-23,1.5428541506e-23,-1.01238166091e-24,6.47111491567e-24,4.68714321247e-24,4.55096415217e-24,1.0
1573179813207456380,0,1573179812942102059,map,grasp_lab,-3.86582426502e-19,2.80241611352e-19,-1.55205724885e-20,5.36479387767e-21,-2.16656545573e-21,-1.17776677014e-21,1.0
1573179813207469973,0,1573179812942102059,grasp_lab,tag_7,0.469,-0.018,-2.54,3.66685445951e-22,-9.79433755392e-21,-4.11011906351e-22,1.0
1573179813207475005,0,1573179812942102059,grasp_lab,tag_9,-0.648779493946,0.0234232118321,-3.10943840895,0.00879927852008,0.0420340120976,-0.0197777041498,0.998881653122
1573179813207479188,0,1573179812942102059,grasp_lab,tag_8,-0.849932496731,-0.00370204358995,-1.21015782911,0.00352966832464,0.0395650607198,-0.00529291187672,0.999196743637
1573179813207484159,0,1573179812942102059,grasp_lab,tag_14,-1.22270064491,0.0374701005672,-3.06129565994,0.00530230648007,0.0415910118369,0.0018358160522,0.999118963417
1573179813207802684,0,1573179812942102059,map,rig,0.0181442004709,0.00445985053112,0.0143696063773,0.99926618099,-0.00633628266557,-0.0377202890783,0.0020324477254
1573179813207917871,0,1573179812942102059,rig,cam0,3.22224711828e-23,1.74567877145e-23,-1.19135366419e-24,1.86598120732e-24,2.32752385718e-25,3.50654482947e-24,1.0
1573179813411578551,0,1573179813159532426,map,grasp_lab,-4.16239811211e-19,4.03854623608e-19,-4.60599429979e-20,5.03345241217e-21,-2.73653922209e-21,-1.2339445254e-21,1.0
1573179813411660559,0,1573179813159532426,grasp_lab,tag_7,0.469,-0.018,-2.54,-1.33555973664e-21,-1.0693393439e-20,-5.0180043631e-23,1.0
1573179813411670823,0,1573179813159532426,grasp_lab,tag_9,-0.648752325077,0.0234639540185,-3.1094867731,0.00887567817254,0.0419858781149,-0.0197719407091,0.998883115653
1573179813411675665,0,1573179813159532426,grasp_lab,tag_8,-0.849991602262,-0.00384014498462,-1.21022526422,0.00357437979564,0.0395180265624,-0.00528494283211,0.999198488172
1573179813411679794,0,1573179813159532426,grasp_lab,tag_14,-1.22267314258,0.0375004649455,-3.06136464329,0.00533054531652,0.0415678080166,0.00185170228891,0.99911974949
1573179813411683731,0,1573179813159532426,map,rig,0.0180107693517,0.00420441160126,0.0143332258447,0.999266960494,-0.00633643605266,-0.0377022320953,0.00198316372057
1573179813411687465,0,1573179813159532426,rig,cam0,3.31612675016e-23,1.8225881758e-23,-2.09180334727e-24,-5.61129284899e-24,4.98452359955e-25,1.50532798702e-24,1.0
1573179813617870248,0,1573179813346916593,map,grasp_lab,-4.00000006189e-19,2.04820107337e-19,-4.46761761856e-20,4.54706324275e-21,-3.03739491619e-21,-1.4367264722e-21,1.0
1573179813617888834,0,1573179813346916593,grasp_lab,tag_7,0.469,-0.018,-2.54,3.7579734185e-22,-1.09231911875e-20,-4.19231360993e-22,1.0
1573179813617910473,0,1573179813346916593,grasp_lab,tag_9,-0.648738208622,0.0234227900276,-3.10954237612,0.00877312146347,0.0419979282264,-0.0197774823264,0.998883405387
1573179813618023332,0,1573179813346916593,grasp_lab,tag_8,-0.850031843166,-0.0036753195269,-1.21026029378,0.00351864381374,0.0394673968009,-0.00529429138721,0.999200637617
1573179813618030491,0,1573179813346916593,grasp_lab,tag_14,-1.2226666335,0.0374745137466,-3.06144519701,0.00528759176788,0.0415683941721,0.00183632848589,0.999119981722
1573179813618034620,0,1573179813346916593,map,rig,0.0178639450019,0.00452256580854,0.0143494017026,0.999267871387,-0.00634376280022,-0.0376736379431,0.00204325528984
1573179813618038851,0,1573179813346916593,rig,cam0,3.48299140249e-23,3.11349123718e-23,-2.57335785985e-24,6.89821275057e-24,5.57023358316e-25,5.24338690004e-24,1.0
1573179813846286406,0,1573179813574306897,map,grasp_lab,-4.3367351666e-19,2.41511357269e-19,-4.0897849988e-20,4.61507968894e-21,-3.04368216663e-21,-1.46379925467e-21,1.0
1573179813846533741,0,1573179813574306897,grasp_lab,tag_7,0.469,-0.018,-2.54,5.08787160793e-22,-1.19452920238e-20,-8.5707180419e-23,1.0
1573179813846990628,0,1573179813574306897,grasp_lab,tag_9,-0.648709228332,0.0234335625293,-3.10961980534,0.00880300641398,0.0419839030581,-0.0197796836789,0.998883688462
1573179813847005138,0,1573179813574306897,grasp_lab,tag_8,-0.850099525649,-0.0037006237104,-1.21033270368,0.0035278304653,0.0394066917563,-0.00529512275376,0.999202996759
1573179813847011460,0,1573179813574306897,grasp_lab,tag_14,-1.22263957844,0.0374850056385,-3.06154718316,0.00528788312281,0.0415353505763,0.00183631803658,0.999121354431
1573179813847018766,0,1573179813574306897,map,rig,0.0177464765067,0.00447630797748,0.0142627773097,0.999268827119,-0.00633748116466,-0.0376497131459,0.00203631571619
1573179813847276705,0,1573179813574306897,rig,cam0,3.66360429751e-23,2.63672647374e-23,-1.47455231676e-24,1.84892135807e-24,2.47146615515e-24,1.35319608892e-24,1.0
1573179814064123739,0,1573179813794792895,map,grasp_lab,-4.47085975117e-19,2.61793665458e-19,-3.67750172711e-20,4.69727654224e-21,-3.05368864978e-21,-1.54245756021e-21,1.0
1573179814064148228,0,1573179813794792895,grasp_lab,tag_7,0.469,-0.018,-2.54,1.28712338337e-21,-1.17065494462e-20,-4.97265895739e-22,1.0
1573179814064158777,0,1573179813794792895,grasp_lab,tag_9,-0.648705625396,0.0234718180873,-3.10963219839,0.00886086336083,0.0419951471267,-0.0197726731285,0.998882843038
1573179814064181186,0,1573179813794792895,grasp_lab,tag_8,-0.850113273138,-0.0038441489956,-1.21033853863,0.00356531714871,0.0393706402531,-0.00528355734231,0.999204346078
1573179814064213764,0,1573179813794792895,grasp_lab,tag_14,-1.22263432839,0.037510849142,-3.0615527733,0.00536551769265,0.0415231576357,0.00184010770526,0.999121440368
1573179814064218757,0,1573179813794792895,map,rig,0.0177847316292,0.00418674260065,0.0142963269617,0.999268842851,-0.00633372054097,-0.0376528380857,0.00198178585854
1573179814064224761,0,1573179813794792895,rig,cam0,3.89983184539e-23,1.99627910768e-23,-9.05226895504e-25,-2.51491436566e-24,3.57213311304e-24,9.12763623701e-25,1.0
1573179814261107839,0,1573179813981283504,map,grasp_lab,-4.93024443448e-19,3.94003480252e-19,-3.83266957759e-20,3.16052763443e-21,-2.80702432805e-21,-1.77527285523e-21,1.0
1573179814261169435,0,1573179813981283504,grasp_lab,tag_7,0.469,-0.018,-2.54,-1.38395231082e-21,-1.21693340572e-20,-1.04162255569e-21,1.0
1573179814261235434,0,1573179813981283504,grasp_lab,tag_9,-0.648684418862,0.0235144555473,-3.10965884711,0.00889726006334,0.0419666358268,-0.0197653504522,0.9988838627
1573179814261323222,0,1573179813981283504,grasp_lab,tag_8,-0.850162440192,-0.0039858391831,-1.21037935067,0.00361194280964,0.0393223295841,-0.00527657440362,0.999206117889
1573179814261373474,0,1573179813981283504,grasp_lab,tag_14,-1.22261446079,0.0375426470352,-3.06160058844,0.00542989658873,0.0415118400385,0.0018427584335,0.99912155797
1573179814261515420,0,1573179813981283504,map,rig,0.017574681706,0.00391022744056,0.0142157518947,0.999270323333,-0.00632799422829,-0.037617389763,0.00192597544959
1573179814261526457,0,1573179813981283504,rig,cam0,3.95303211409e-23,1.50384365736e-23,-1.67456779204e-24,1.35729476337e-23,3.0826267836e-24,5.6537236e-25,1.0
1573179814481782280,0,1573179814193863984,map,grasp_lab,-5.08010461941e-19,5.26812429564e-19,-4.33078066636e-20,3.73705538194e-21,-2.88467469512e-21,-1.59264147259e-21,1.0
1573179814481797193,0,1573179814193863984,grasp_lab,tag_7,0.469,-0.018,-2.54,-3.94490292042e-22,-1.27618832629e-20,-4.11135753397e-22,1.0
1573179814481803769,0,1573179814193863984,grasp_lab,tag_9,-0.648659158018,0.0235326836314,-3.10971184163,0.00890312790794,0.0419574348765,-0.0197600745518,0.998884301321
1573179814481816299,0,1573179814193863984,grasp_lab,tag_8,-0.850225732802,-0.00406385975032,-1.21043787216,0.00362922824228,0.039264686108,-0.00527088252928,0.999208352109
1573179814481821353,0,1573179814193863984,grasp_lab,tag_14,-1.22259355074,0.0375527288511,-3.0616821051,0.00546465992836,0.0414911777749,0.00184447499442,0.99912222354
1573179814481849512,0,1573179814193863984,map,rig,0.0175796820067,0.00379395923683,0.0142275238721,0.999270534161,-0.00632250244515,-0.0376137750033,0.00190511167646
1573179814481855489,0,1573179814193863984,rig,cam0,4.12661325665e-23,8.20253368714e-24,-1.22345078877e-24,-2.21043823222e-24,2.27092550099e-24,7.59075878198e-25,1.0
1573179814691297954,0,1573179814424197416,map,grasp_lab,-4.91605297639e-19,5.39017343025e-19,-3.55742928212e-20,3.48891177048e-21,-2.72003362943e-21,-1.760306645e-21,1.0
1573179814691311320,0,1573179814424197416,grasp_lab,tag_7,0.469,-0.018,-2.54,-1.23879269781e-21,-1.26457095256e-20,-3.03133257562e-22,1.0
1573179814691315649,0,1573179814424197416,grasp_lab,tag_9,-0.648648928456,0.0235702089131,-3.10972422617,0.00900149806224,0.0419380224414,-0.0197646239896,0.998884144906
1573179814691326489,0,1573179814424197416,grasp_lab,tag_8,-0.850255514388,-0.00415183791772,-1.21045543097,0.00365683292213,0.0392256655065,-0.00527027932457,0.999209787229
1573179814691332261,0,1573179814424197416,grasp_lab,tag_14,-1.22258821915,0.0375878269606,-3.06171490745,0.00549982116704,0.0414854130545,0.00184460986279,0.999122269737
1573179814691337822,0,1573179814424197416,map,rig,0.0174787383434,0.0036494096605,0.0142114651264,0.999271302169,-0.00631317124782,-0.0375965469979,0.00187301464949
1573179814691341936,0,1573179814424197416,rig,cam0,4.09476603675e-23,4.85035953267e-24,-6.37255110735e-25,5.53927846803e-24,3.65217518195e-24,-7.74549097999e-27,1.0
1573179814893245368,0,1573179814639133098,map,grasp_lab,-5.05803320919e-19,4.88172816112e-19,-6.80869516868e-20,3.73878979716e-21,-2.98121590819e-21,-1.5146165608e-21,1.0
1573179814893315570,0,1573179814639133098,grasp_lab,tag_7,0.469,-0.018,-2.54,-3.52212999264e-22,-1.32363481747e-20,5.99256016854e-22,1.0
1573179814893327011,0,1573179814639133098,grasp_lab,tag_9,-0.648625896768,0.0235443990791,-3.10977170099,0.00904783286526,0.041919960885,-0.0197759194142,0.998884260869
1573179814894894626,0,1573179814639133098,grasp_lab,tag_8,-0.850307542445,-0.00406332598557,-1.21051072963,0.00360992350116,0.0391764939556,-0.00527319234542,0.999211871535
1573179814894903609,0,1573179814639133098,grasp_lab,tag_14,-1.22257436718,0.0375696170597,-3.06180392614,0.0054929910102,0.041475098155,0.00183531196867,0.999122752675
1573179814894915111,0,1573179814639133098,map,rig,0.0174807556701,0.00380741968977,0.0141864210728,0.999271364136,-0.00631811795925,-0.037592555216,0.00190315396855
1573179814894963302,0,1573179814639133098,rig,cam0,4.25712078179e-23,6.56234582093e-24,-2.40300110574e-24,8.35445286766e-24,2.33469318877e-24,2.58185897005e-24,1.0
1573179815116791962,0,1573179814824540040,map,grasp_lab,-5.48181656702e-19,4.54174688635e-19,-7.252749065e-20,3.94874420482e-21,-2.98082892912e-21,-1.50573573247e-21,1.0
1573179815116805868,0,1573179814824540040,grasp_lab,tag_7,0.469,-0.018,-2.54,-8.78839734244e-22,-1.28649781073e-20,-2.34298048677e-22,1.0
1573179815116823231,0,1573179814824540040,grasp_lab,tag_9,-0.648624191273,0.0235027638351,-3.10978187552,0.00895016621883,0.0419145793836,-0.01977849995,0.998885315489
1573179815116832006,0,1573179814824540040,grasp_lab,tag_8,-0.85031772761,-0.00393223875432,-1.21051001207,0.00355568592333,0.0391356574071,-0.00527786456264,0.999213641602
1573179815116847024,0,1573179814824540040,grasp_lab,tag_14,-1.22257203728,0.0375368683482,-3.06181268126,0.00541919111281,0.0414647146061,0.0018320790669,0.999123592603
1573179815117024519,0,1573179814824540040,map,rig,0.0175407129357,0.00404573008795,0.014224011503,0.999270870597,-0.00632097567047,-0.0376026548017,0.0019526381114
1573179815117035303,0,1573179814824540040,rig,cam0,4.55215248521e-23,4.016931753e-24,-7.52840856689e-25,4.75165768023e-24,1.62151256356e-24,-1.39755269142e-24,1.0
1573179815315565910,0,1573179815061022951,map,grasp_lab,-5.49323859528e-19,4.69106364815e-19,-8.04702075868e-20,2.95281198798e-21,-3.07614924267e-21,-1.49727369226e-21,1.0
1573179815315583479,0,1573179815061022951,grasp_lab,tag_7,0.469,-0.018,-2.54,-1.00279645958e-21,-1.34035070437e-20,-1.95892613053e-24,1.0
1573179815315589242,0,1573179815061022951,grasp_lab,tag_9,-0.648607228255,0.0234659958888,-3.10980043007,0.00897068973229,0.0418730641484,-0.0197962923854,0.998886520097
1573179815315600358,0,1573179815061022951,grasp_lab,tag_8,-0.850345342703,-0.00381631410243,-1.21054317831,0.00350616427538,0.0390904942798,-0.0052819920896,0.999215562643
1573179815315605267,0,1573179815061022951,grasp_lab,tag_14,-1.22255826803,0.0375090860748,-3.06185797278,0.00536185722042,0.0414574284458,0.00183071923931,0.999124206784
1573179815316027776,0,1573179815061022951,map,rig,0.0174365789224,0.004248824201,0.0142219593362,0.999271476034,-0.00632959040081,-0.0375831872482,0.00198934838139
1573179815316036232,0,1573179815061022951,rig,cam0,4.39013645208e-23,5.62646790679e-24,-1.70849766748e-24,1.02220024874e-23,1.87785404036e-24,-1.13416290726e-24,1.0
1573179815531928330,0,1573179815242275961,map,grasp_lab,-5.76086916922e-19,4.50172541022e-19,-6.94641352725e-20,3.87053125748e-21,-3.14867303941e-21,-1.4671570878e-21,1.0
1573179815532095381,0,1573179815242275961,grasp_lab,tag_7,0.469,-0.018,-2.54,2.59386660541e-22,-1.32098804578e-20,-1.26918659093e-22,1.0
1573179815532184113,0,1573179815242275961,grasp_lab,tag_9,-0.648596489349,0.0234420445809,-3.10981797063,0.00895866001017,0.0418600489262,-0.0197965977744,0.998887167518
1573179815532266145,0,1573179815242275961,grasp_lab,tag_8,-0.850369808232,-0.00376674707189,-1.2105643246,0.0034810729157,0.0390540139789,-0.00528247835395,0.999217074287
1573179815532329385,0,1573179815242275961,grasp_lab,tag_14,-1.22254754686,0.0374859477634,-3.06188514823,0.00535308366321,0.0414401557236,0.00182697667463,0.99912497724
1573179815532375339,0,1573179815242275961,map,rig,0.0172706706447,0.00434224136821,0.0141989486841,0.999272262612,-0.00633240339066,-0.0375605025962,0.0020135755891
1573179815532440099,0,1573179815242275961,rig,cam0,4.58667891217e-23,2.70758817641e-24,-2.32904665819e-24,4.13399463749e-24,4.14620620248e-24,-2.99723874298e-24,1.0
1573179815746230389,0,1573179815462470149,map,grasp_lab,-5.683626144e-19,4.50527128639e-19,-8.59730435324e-20,4.39919115486e-21,-2.93174217386e-21,-1.27124605565e-21,1.0
1573179815746994259,0,1573179815462470149,grasp_lab,tag_7,0.469,-0.018,-2.54,6.15202037703e-22,-1.33427519494e-20,3.65061701317e-23,1.0
1573179815747004654,0,1573179815462470149,grasp_lab,tag_9,-0.648576514308,0.0234282126982,-3.10987116888,0.00891635965548,0.0418641313546,-0.019795867774,0.998887389377
1573179815747011349,0,1573179815462470149,grasp_lab,tag_8,-0.850423431711,-0.00371882915907,-1.2106108738,0.00345675732459,0.039009799577,-0.00528305310935,0.999218882786
1573179815747024015,0,1573179815462470149,grasp_lab,tag_14,-1.22252655887,0.0374753297712,-3.06194935627,0.00534091241512,0.0414256148461,0.00182295320544,0.999125652724
1573179815747161626,0,1573179815462470149,map,rig,0.0170485006084,0.00441399955474,0.0141506242135,0.999273617035,-0.0063467561652,-0.0375208949747,0.00203455744129
1573179815747168305,0,1573179815462470149,rig,cam0,4.33438081472e-23,3.40276035572e-24,-2.35730022246e-24,1.29074863678e-24,4.38859769981e-24,-2.05537278916e-24,1.0
1573179815961790272,0,1573179815668999502,map,grasp_lab,-6.73776280261e-19,4.64645360155e-19,-9.15091716462e-20,3.66727285949e-21,-2.79359830281e-21,-1.216295678e-21,1.0
1573179815961872121,0,1573179815668999502,grasp_lab,tag_7,0.469,-0.018,-2.54,1.6647498437e-23,-1.32192063312e-20,1.054288155e-22,1.0
1573179815962015763,0,1573179815668999502,grasp_lab,tag_9,-0.648553661027,0.0234382687649,-3.1099336987,0.00889266446386,0.0418605401149,-0.019785806812,0.998887950447
1573179815962155179,0,1573179815668999502,grasp_lab,tag_8,-0.850480332114,-0.00374711888239,-1.21067403117,0.00346536996739,0.0389649518103,-0.00528309777111,0.99922060258
1573179815962274360,0,1573179815668999502,grasp_lab,tag_14,-1.22250373363,0.0374838302779,-3.06202600668,0.0053556422896,0.041408456086,0.00182547046811,0.999126280566
1573179815962443815,0,1573179815668999502,map,rig,0.0171052751809,0.00438597523601,0.0141615414392,0.999273751528,-0.00633890306983,-0.0375187313748,0.0020328822159
1573179815962539951,0,1573179815668999502,rig,cam0,5.3697823134e-23,1.90459382367e-24,-2.52049935947e-24,3.01918982827e-24,9.73652779496e-24,-2.41988964932e-24,1.0
1573179816175003474,0,1573179815888960096,map,grasp_lab,-6.57880107919e-19,4.87805591998e-19,-1.06828715455e-19,4.25115128556e-21,-2.39878096111e-21,-1.37391494785e-21,1.0
1573179816175125489,0,1573179815888960096,grasp_lab,tag_7,0.469,-0.018,-2.54,-2.86532205128e-22,-1.35525396921e-20,-1.03896504285e-23,1.0
1573179816175136790,0,1573179815888960096,grasp_lab,tag_9,-0.648532586728,0.0234355534846,-3.10996547971,0.00887901519424,0.0418385147805,-0.0197828883447,0.998889052447
1573179816175147142,0,1573179815888960096,grasp_lab,tag_8,-0.85051932657,-0.00375169775043,-1.21071596332,0.00345177184712,0.0389293871883,-0.00527872015887,0.999222059003
1573179816175152207,0,1573179815888960096,grasp_lab,tag_14,-1.22248395232,0.0374792829597,-3.06208130059,0.0053559907784,0.0413892845666,0.00182875070728,0.999127067072
1573179816175158352,0,1573179815888960096,map,rig,0.0169703063251,0.00436125785521,0.0139979405857,0.999274442151,-0.00634201709514,-0.0374997109786,0.0020346399964
1573179816175166553,0,1573179815888960096,rig,cam0,5.3555410798e-23,6.17620906909e-24,-3.7593040767e-24,8.22540621816e-25,1.11209415176e-23,-3.17797283079e-24,1.0
1573179816367346492,0,1573179816108251999,map,grasp_lab,-6.70940679958e-19,4.71487818345e-19,-8.04701321319e-20,4.43537969347e-21,-2.41239149138e-21,-1.52980665112e-21,1.0
1573179816367360867,0,1573179816108251999,grasp_lab,tag_7,0.469,-0.018,-2.54,3.71474777107e-22,-1.43220574749e-20,-1.329156968e-21,1.0
1573179816367364736,0,1573179816108251999,grasp_lab,tag_9,-0.648518549022,0.0234832558218,-3.10998662114,0.00894564969905,0.0418317095715,-0.0197710790614,0.998888976743
1573179816367368643,0,1573179816108251999,grasp_lab,tag_8,-0.850551620352,-0.00394092450043,-1.21074077524,0.00350907233903,0.0388934461112,-0.00526567488323,0.999223327855
1573179816367374739,0,1573179816108251999,grasp_lab,tag_14,-1.22247480726,0.0375102209185,-3.06212375818,0.00541222210385,0.0413819980021,0.00183867616462,0.999127047659
1573179816367378472,0,1573179816108251999,map,rig,0.016853207364,0.00408968335703,0.0140017556522,0.999275066835,-0.0063209184163,-0.0374892859322,0.00198500213467
1573179816367382435,0,1573179816108251999,rig,cam0,5.29076296964e-23,-1.45422262868e-24,-4.63808148818e-24,8.43033322883e-24,1.01409219503e-23,-2.94015645759e-24,1.0
1573179816594009136,0,1573179816298003590,map,grasp_lab,-7.79021287836e-19,5.3537539463e-19,-8.7382165749e-20,3.88720949304e-21,-2.82998163482e-21,-1.26121594185e-21,1.0
1573179816594022165,0,1573179816298003590,grasp_lab,tag_7,0.469,-0.018,-2.54,7.23881092024e-22,-1.63067271483e-20,2.23911864819e-22,1.0
1573179816594026471,0,1573179816298003590,grasp_lab,tag_9,-0.64848944709,0.0234704033572,-3.11005678302,0.00891976380216,0.0418231146615,-0.0197656082707,0.998889676402
1573179816594315120,0,1573179816298003590,grasp_lab,tag_8,-0.850617731234,-0.00393679975411,-1.21080921621,0.00349738000665,0.0388379205507,-0.00526119678222,0.99922555215
1573179816594343902,0,1573179816298003590,grasp_lab,tag_14,-1.22244843282,0.0374941395307,-3.06222075694,0.00538776632549,0.0413600425418,0.00184804074732,0.999128071671
1573179816594351534,0,1573179816298003590,map,rig,0.0168284355412,0.00413016754768,0.0140693798398,0.99927526164,-0.00631422773948,-0.0374845772216,0.00199711612853
1573179816594357663,0,1573179816298003590,rig,cam0,5.8103272466e-23,1.25651348664e-23,-3.25490684038e-24,-4.52314086493e-24,1.12049187286e-23,-9.55775924641e-25,1.0
1573179816806391248,0,1573179816523281542,map,grasp_lab,-7.44496631281e-19,6.20913544486e-19,-1.12846830057e-19,3.66660787265e-21,-2.73139961231e-21,-1.63645671527e-21,1.0
1573179816806406929,0,1573179816523281542,grasp_lab,tag_7,0.469,-0.018,-2.54,-1.13803706956e-22,-1.46153339891e-20,-5.16011291026e-23,1.0
1573179816806418556,0,1573179816523281542,grasp_lab,tag_9,-0.64848794796,0.023494739948,-3.11004637613,0.00893179996987,0.0418247635549,-0.0197581760476,0.998889646849
1573179816806424711,0,1573179816523281542,grasp_lab,tag_8,-0.850617966278,-0.00402111522185,-1.21080057634,0.0035197325371,0.0388085664288,-0.00525703071199,0.999226636095
1573179816806428982,0,1573179816523281542,grasp_lab,tag_14,-1.22245139408,0.0375119561195,-3.06222395879,0.00542902020904,0.0413610801956,0.00184903470765,0.999127803564
1573179816806577492,0,1573179816523281542,map,rig,0.016771381232,0.00389601714121,0.0140589633803,0.999275775889,-0.00631688108672,-0.0374728180858,0.00195157369859
1573179816806691171,0,1573179816523281542,rig,cam0,5.70747244205e-23,1.28211125801e-23,-3.23488223114e-24,1.17319846992e-25,1.10538465507e-23,-2.78615193453e-24,1.0
1573179817017294920,0,1573179816763282129,map,grasp_lab,-7.44845692558e-19,6.72288520753e-19,-1.25222155184e-19,6.08481648395e-21,-2.7632089032e-21,-1.56114338373e-21,1.0
1573179817017308157,0,1573179816763282129,grasp_lab,tag_7,0.469,-0.018,-2.54,2.0682508301e-21,-1.59107422143e-20,-6.74036565628e-22,1.0
1573179817017378556,0,1573179816763282129,grasp_lab,tag_9,-0.648454124808,0.0235511286923,-3.11012277602,0.00897272121945,0.0417977064901,-0.0197512659299,0.99889054931
1573179817017448207,0,1573179816763282129,grasp_lab,tag_8,-0.850693459746,-0.00421301252313,-1.21088369664,0.00357902009021,0.0387543270808,-0.00524643809609,0.999228586278
1573179817017466879,0,1573179816763282129,grasp_lab,tag_14,-1.22241751551,0.0375535816569,-3.06232302452,0.0054811795175,0.0413290061294,0.00186125128194,0.999128823359
1573179817017470629,0,1573179816763282129,map,rig,0.0166167372744,0.00355151164498,0.0140829829318,0.999277097773,-0.00630625900534,-0.0374427701975,0.00188465470259
1573179817017554474,0,1573179816763282129,rig,cam0,5.88626114899e-23,-1.12672031484e-24,-4.7411217869e-24,-5.75760544925e-24,1.07354432838e-23,-1.49682760321e-24,1.0
1573179817216877092,0,1573179816947980745,map,grasp_lab,-7.19016595241e-19,6.1710138475e-19,-1.22134275135e-19,4.54081045153e-21,-3.0588307147e-21,-1.35245057328e-21,1.0
1573179817216892351,0,1573179816947980745,grasp_lab,tag_7,0.469,-0.018,-2.54,1.07882007056e-21,-1.48401319471e-20,7.28574794762e-22,1.0
1573179817216902801,0,1573179816947980745,grasp_lab,tag_9,-0.648429032787,0.0235570124507,-3.1101683511,0.00900426814894,0.0417772119911,-0.0197510695667,0.998891126682
1573179817216908139,0,1573179816947980745,grasp_lab,tag_8,-0.850742461771,-0.00424732488382,-1.21093634893,0.00358436388409,0.0387141652797,-0.00524398598671,0.999230136832
1573179817216913118,0,1573179816947980745,grasp_lab,tag_14,-1.22239939922,0.0375553681226,-3.06240546943,0.00548862745531,0.0413101164015,0.00186489297075,0.999129556877
1573179817216917612,0,1573179816947980745,map,rig,0.0164416741083,0.00350079812197,0.0141037322121,0.999278371549,-0.00630565240905,-0.0374095596263,0.00187076215743
1573179817216921868,0,1573179816947980745,rig,cam0,5.9465856734e-23,9.30384548938e-24,-2.39473916964e-24,1.46303782838e-23,1.29917029218e-23,-2.65585453726e-24,1.0
1573179817418527181,0,1573179817137868203,map,grasp_lab,-7.23052686184e-19,5.91300596853e-19,-1.19027515933e-19,4.96930409811e-21,-3.13106529669e-21,-1.71258500906e-21,1.0
1573179817418631248,0,1573179817137868203,grasp_lab,tag_7,0.469,-0.018,-2.54,2.30215261693e-21,-1.55973040499e-20,5.06885461205e-22,1.0
1573179817418638728,0,1573179817137868203,grasp_lab,tag_9,-0.648422027732,0.0235722143335,-3.11017713921,0.0090368210547,0.0417638054949,-0.0197539939324,0.998891335501
1573179817418717680,0,1573179817137868203,grasp_lab,tag_8,-0.850753567233,-0.00431167764977,-1.21094387189,0.00359957389896,0.0386887892487,-0.00523888922948,0.999231091737
1573179817418769813,0,1573179817137868203,grasp_lab,tag_14,-1.22239410909,0.037564598859,-3.06242327103,0.00549643182005,0.0413086564984,0.00187236126708,0.999129560367
1573179817418905194,0,1573179817137868203,map,rig,0.0162988897756,0.00342470219622,0.0140265851439,0.999279222196,-0.0063108444205,-0.0373865228193,0.00185936597378
1573179817418918156,0,1573179817137868203,rig,cam0,5.87700436752e-23,8.9118696415e-24,-2.6094104271e-24,7.76884496551e-24,1.10739223063e-23,-3.29864966066e-24,1.0
1573179817630325337,0,1573179817367118199,map,grasp_lab,-7.41629108494e-19,6.72142960538e-19,-1.05277562105e-19,5.59678473579e-21,-3.1819276433e-21,-1.52235650214e-21,1.0
1573179817630419663,0,1573179817367118199,grasp_lab,tag_7,0.469,-0.018,-2.54,1.55683769604e-21,-1.53828089616e-20,3.53408230281e-22,1.0
1573179817630618213,0,1573179817367118199,grasp_lab,tag_9,-0.648413062955,0.0235860298175,-3.11020120585,0.00905094855427,0.0417637571857,-0.0197509216094,0.998891270365
1573179817630625001,0,1573179817367118199,grasp_lab,tag_8,-0.850770296663,-0.00438163434131,-1.21096200913,0.00361084033167,0.0386566097208,-0.0052339663828,0.999232322312
1573179817630629275,0,1573179817367118199,grasp_lab,tag_14,-1.22238473746,0.037571123426,-3.06245078501,0.00550422812185,0.0412976850065,0.00187741362011,0.999129961519
1573179817630633602,0,1573179817367118199,map,rig,0.016405362268,0.00329891678791,0.0140228223879,0.999279234158,-0.00629485380007,-0.0373903728692,0.00182948435464
1573179817630646001,0,1573179817367118199,rig,cam0,6.13674040287e-23,-2.25805759215e-24,-3.14401230469e-24,1.86011507476e-23,1.20026664047e-23,-6.40397796268e-24,1.0
1573179817837066105,0,1573179817550738264,map,grasp_lab,-7.82162495638e-19,6.5791598669e-19,-1.07376032011e-19,4.27787577031e-21,-3.29383133706e-21,-1.85349295526e-21,1.0
1573179817837085723,0,1573179817550738264,grasp_lab,tag_7,0.469,-0.018,-2.54,3.51834317956e-22,-1.5900395339e-20,1.91537059365e-22,1.0
1573179817837090686,0,1573179817550738264,grasp_lab,tag_9,-0.648397839564,0.0235598347331,-3.11021091833,0.00905612857447,0.0417297135105,-0.0197526005128,0.998892613006
1573179817837095014,0,1573179817550738264,grasp_lab,tag_8,-0.850794047912,-0.00432492148151,-1.21098596082,0.00358135433336,0.0386230636041,-0.00523366718894,0.999233727206
1573179817837098976,0,1573179817550738264,grasp_lab,tag_14,-1.22237124684,0.0375466298803,-3.0624821588,0.00549137856305,0.0412888841264,0.00187669936579,0.9991303973
1573179817837118396,0,1573179817550738264,map,rig,0.0163794592381,0.00343226223582,0.013995378703,0.999279775836,-0.00629926614863,-0.0373735633698,0.00186161528872
1573179817837188924,0,1573179817550738264,rig,cam0,6.33850060728e-23,6.00277112617e-24,-2.14602577918e-24,8.86565835078e-24,1.1036326646e-23,-5.10144584093e-24,1.0
1573179818054953273,0,1573179817781160990,map,grasp_lab,-7.95734916698e-19,5.95401780353e-19,-1.11467616161e-19,3.43711421467e-21,-3.14692029376e-21,-1.568467644e-21,1.0
1573179818054967347,0,1573179817781160990,grasp_lab,tag_7,0.469,-0.018,-2.54,6.64743077822e-23,-1.5519144349e-20,1.3740323861e-22,1.0
1573179818059640575,0,1573179817781160990,grasp_lab,tag_9,-0.648394591719,0.0235213301035,-3.11020558503,0.00904284551091,0.0417242351112,-0.0197530278689,0.998892953744
1573179818059668552,0,1573179817781160990,grasp_lab,tag_8,-0.850794503301,-0.00425508893885,-1.21098427868,0.00353988767383,0.0386051004435,-0.00523056338589,0.999234585381
1573179818059679848,0,1573179817781160990,grasp_lab,tag_14,-1.22236861669,0.0375084000816,-3.06248439721,0.00546741839528,0.0412929900047,0.00187986462283,0.999130353068
1573179818059690334,0,1573179817781160990,map,rig,0.0163642646188,0.00358039220612,0.0139906798272,0.999280091402,-0.00629025400879,-0.0373651827461,0.00189070116622
1573179818059697573,0,1573179817781160990,rig,cam0,6.49134639296e-23,8.4398938894e-24,-1.17969141558e-24,1.35101229214e-23,1.30134905864e-23,-3.65957408315e-24,1.0
1573179818428473065,0,1573179817978152187,map,grasp_lab,8.43345474701e-21,1.73196365495e-20,1.08804142647e-20,-1.09542064323e-22,-1.37347338028e-22,-4.47886875699e-23,1.0
1573179818428488925,0,1573179817978152187,grasp_lab,tag_7,0.469,-0.018,-2.54,-1.97671055706e-22,-2.13204347854e-22,-1.8127850919e-23,1.0
1573179818428493602,0,1573179817978152187,grasp_lab,tag_9,-0.648454304032,0.0235355020187,-3.11003254187,0.00910044980372,0.0417594655095,-0.0197556104437,0.998890907312
1573179818428497542,0,1573179817978152187,grasp_lab,tag_8,-0.850655324673,-0.00429132175506,-1.21080525208,0.0035589118385,0.0386456001902,-0.00523101246398,0.999232949938
1573179818428500901,0,1573179817978152187,grasp_lab,tag_14,-1.22241267435,0.0375203594336,-3.06223574683,0.00549191660101,0.0413330432734,0.00187885444973,0.999128564446
1573179818428511053,0,1573179817978152187,map,rig,0.0165159610232,0.00351489971679,0.0140590276266,0.999278613758,-0.00629998407295,-0.0374035312437,0.00188099375404
1573179818428517689,0,1573179817978152187,rig,cam0,-4.5815441402e-25,1.66727768234e-24,1.42885012668e-25,3.19401185926e-25,9.03034488658e-26,-5.01175781265e-26,1.0
1573179818513861485,0,1573179818212934408,map,grasp_lab,2.353570649e-21,-1.43071837385e-20,-6.65129833056e-21,-3.94598436081e-23,5.04213125574e-23,4.92864872138e-23,1.0
1573179818513876013,0,1573179818212934408,grasp_lab,tag_7,0.469,-0.018,-2.54,2.80879476828e-22,2.2022672096e-22,1.08348756046e-22,1.0
1573179818513880711,0,1573179818212934408,grasp_lab,tag_9,-0.648454816996,0.0235174451855,-3.11003993394,0.00906416924183,0.0417758570646,-0.0197618080318,0.998890429199
1573179818513885451,0,1573179818212934408,grasp_lab,tag_8,-0.850656133217,-0.00422433341273,-1.2107994324,0.00351566594537,0.0386270251305,-0.00523381174728,0.999233806592
1573179818513889661,0,1573179818212934408,grasp_lab,tag_14,-1.22241672763,0.0375079238538,-3.0622511186,0.00547438374384,0.0413411978956,0.00187413198138,0.999128332152
1573179818514104493,0,1573179818212934408,map,rig,0.0165464536599,0.0035792155326,0.0139376269393,0.999278543311,-0.00629880315004,-0.0374052933085,0.00188732336651
1573179818514112561,0,1573179818212934408,rig,cam0,1.48092291776e-26,3.5636400304e-25,-6.87640832844e-26,2.72572375053e-25,1.21147185978e-25,1.79071928968e-25,1.0
1573179818743297817,0,1573179818441115439,map,grasp_lab,6.08344082035e-21,3.1792078371e-21,-9.92079211292e-21,-6.28541016849e-22,2.39967362888e-23,1.92660161571e-22,1.0
1573179818743473327,0,1573179818441115439,grasp_lab,tag_7,0.469,-0.018,-2.54,-3.57997238983e-22,2.84596310109e-22,1.00228383892e-22,1.0
1573179818743589928,0,1573179818441115439,grasp_lab,tag_9,-0.648438367802,0.0235231891137,-3.11007509198,0.00909316410547,0.0417600851929,-0.0197626415238,0.998890808673
1573179818743690943,0,1573179818441115439,grasp_lab,tag_8,-0.850687885086,-0.00426568605463,-1.21083831986,0.00350770808848,0.038597665547,-0.00522436360567,0.999235018513
1573179818743801944,0,1573179818441115439,grasp_lab,tag_14,-1.22240293604,0.0375088561764,-3.06230360155,0.00549893858785,0.0413269053752,0.00187318547194,0.999128790368
1573179818743940857,0,1573179818441115439,map,rig,0.0164140409353,0.00357920638681,0.0140325177805,0.999279716555,-0.00628727430325,-0.0373756759733,0.00189132467539
1573179818744059224,0,1573179818441115439,rig,cam0,-2.58982621622e-25,-1.89794674595e-24,3.58985758447e-25,1.30640676205e-24,5.94363776953e-25,-4.87816123724e-25,1.0
1573179818963232169,0,1573179818668390847,map,grasp_lab,2.11992898124e-20,3.25226373151e-20,-1.35396931375e-20,1.2851514685e-22,-4.93492427038e-24,5.59694634948e-23,1.0
1573179818963271436,0,1573179818668390847,grasp_lab,tag_7,0.469,-0.018,-2.54,-2.31863189921e-22,3.54519482357e-22,5.6583194496e-23,1.0
1573179818963305353,0,1573179818668390847,grasp_lab,tag_9,-0.648420453335,0.0235223750679,-3.11012108629,0.00913067867739,0.0417735731526,-0.0197610750688,0.998889933479
1573179818963424130,0,1573179818668390847,grasp_lab,tag_8,-0.850725933281,-0.00428570495648,-1.21088068703,0.00350693198457,0.0385654930985,-0.00522032678026,0.999236284549
1573179818963431711,0,1573179818668390847,grasp_lab,tag_14,-1.22238243935,0.0375046828023,-3.06235456595,0.00551162305691,0.0413073099263,0.00187719181094,0.99912952329
1573179818963561659,0,1573179818668390847,map,rig,0.0164021883055,0.00349332627129,0.0139911491103,0.999279489098,-0.00629547475067,-0.0373811552779,0.00187587177652
1573179818963571541,0,1573179818668390847,rig,cam0,3.30019631602e-25,7.63274442401e-25,9.40129936215e-25,9.27442304651e-25,2.18321409257e-24,7.6928139657e-25,1.0
1573179819183371788,0,1573179818914205782,map,grasp_lab,1.61141280865e-20,5.24700800703e-20,-2.05256832776e-20,-5.24355581911e-23,3.78388496732e-22,5.61692526486e-23,1.0
1573179819183472156,0,1573179818914205782,grasp_lab,tag_7,0.469,-0.018,-2.54,-2.46121202007e-22,3.77710199219e-22,-1.56239417521e-23,1.0
1573179819183683086,0,1573179818914205782,grasp_lab,tag_9,-0.648423392394,0.0235303716199,-3.11011625211,0.00912611020907,0.0417861793344,-0.0197625914715,0.998889417957
1573179819183847655,0,1573179818914205782,grasp_lab,tag_8,-0.850724165893,-0.00427445866681,-1.2108687347,0.00349142651669,0.0385534221863,-0.00522471804789,0.999236781699
1573179819183974043,0,1573179818914205782,grasp_lab,tag_14,-1.22238035569,0.0375175906903,-3.06233384631,0.00553119322872,0.0413032200131,0.00186903193675,0.99912959952
1573179819184124679,0,1573179818914205782,map,rig,0.0164087051686,0.00355846062629,0.0139806207777,0.99927961091,-0.00628849214991,-0.0373786142528,0.00188501526312
1573179819184201504,0,1573179818914205782,rig,cam0,-8.99880255577e-25,-1.19489986817e-24,3.53809696263e-25,3.1977951916e-24,3.73228889777e-24,1.00198020984e-24,1.0
1573179819403008405,0,1573179819139083951,map,grasp_lab,3.4511323401e-20,3.43692660818e-20,-6.4381040433e-21,3.01625391335e-22,-6.11276210227e-23,1.17270416649e-23,1.0
1573179819403080640,0,1573179819139083951,grasp_lab,tag_7,0.469,-0.018,-2.54,5.56374295922e-23,4.11717988247e-22,-3.3645099654e-22,1.0
1573179819403155328,0,1573179819139083951,grasp_lab,tag_9,-0.648410141632,0.0235587838781,-3.11012756435,0.00917113182125,0.0417723877441,-0.0197598590631,0.998889636513
1573179819403215998,0,1573179819139083951,grasp_lab,tag_8,-0.850752439375,-0.00433348895934,-1.2108903289,0.00350752016182,0.0385223684932,-0.00522422865364,0.999237925553
1573179819403306232,0,1573179819139083951,grasp_lab,tag_14,-1.22237079227,0.0375447923239,-3.06236791537,0.00555058000413,0.0412988905127,0.0018685699878,0.99912967184
1573179819403386171,0,1573179819139083951,map,rig,0.0164747739857,0.0033689665944,0.0140514810582,0.999279211528,-0.0063095346201,-0.037387397924,0.00185193317023
1573179819403440844,0,1573179819139083951,rig,cam0,-1.14966524982e-24,-6.09128741358e-24,5.94493558714e-25,-2.74758641056e-24,2.03314649726e-24,1.07145725543e-24,1.0
1573179819614655213,0,1573179819333321569,map,grasp_lab,2.28145712075e-20,1.51415243078e-20,-1.88034425492e-20,1.78718173635e-22,1.47616135155e-22,1.27091137475e-23,1.0
1573179819614887476,0,1573179819333321569,grasp_lab,tag_7,0.469,-0.018,-2.54,4.04856608637e-23,5.28779903964e-22,2.37941704908e-23,1.0
1573179819615031886,0,1573179819333321569,grasp_lab,tag_9,-0.648400000062,0.0235453471634,-3.11016327197,0.00917674231694,0.0417858970967,-0.0197662076398,0.998888894342
1573179819615156739,0,1573179819333321569,grasp_lab,tag_8,-0.850775954084,-0.0042911907292,-1.21091767754,0.00348555293566,0.038494941077,-0.00522495267692,0.999239055633
1573179819615286339,0,1573179819333321569,grasp_lab,tag_14,-1.22235709591,0.0375350676626,-3.06240081423,0.00552469529169,0.0412789515771,0.00186774365259,0.999130640823
1573179819615436512,0,1573179819333321569,map,rig,0.0164236484569,0.00349974579792,0.0140672558931,0.999279666222,-0.00630259025512,-0.0373752551472,0.00187518910376
1573179819615552436,0,1573179819333321569,rig,cam0,-1.41867702111e-24,-4.43276196053e-24,1.25241450031e-24,-2.58476949707e-24,6.28149626413e-24,-4.53015476225e-26,1.0
1573179819836818504,0,1573179819528834931,map,grasp_lab,-2.32275790897e-20,-2.8271870618e-20,-3.48569374583e-20,-2.96848273459e-22,4.41801948831e-22,8.86175573667e-23,1.0
1573179819837145151,0,1573179819528834931,grasp_lab,tag_7,0.469,-0.018,-2.54,-5.61195212503e-22,-9.40966814733e-23,-1.37401278053e-22,1.0
1573179819837342649,0,1573179819528834931,grasp_lab,tag_9,-0.648362458218,0.0235902634294,-3.11024722104,0.00933710712971,0.0417505688134,-0.0197699721713,0.998888810947
1573179819837473094,0,1573179819528834931,grasp_lab,tag_8,-0.850835511427,-0.00444294826671,-1.21097325454,0.00352027407773,0.0384262328194,-0.00521525998934,0.999241629119
1573179819837627037,0,1573179819528834931,grasp_lab,tag_14,-1.22233479534,0.0375692004584,-3.062547114,0.00560440563376,0.0412709506778,0.0018685308593,0.999130525937
1573179819837810888,0,1573179819528834931,map,rig,0.0139831117519,0.00424883885844,-0.00839906157549,0.999323943426,-0.00602407378783,-0.03617915502,0.0025368035976
1573179819837945552,0,1573179819528834931,rig,cam0,2.90413934091e-25,-6.19046105322e-24,1.97253009753e-24,-4.30797064657e-24,7.93158098864e-24,-2.77243769258e-25,1.0
1573179820043494053,0,1573179819753290120,map,grasp_lab,-7.20356663771e-21,1.95309778242e-19,-3.65570416832e-20,1.37842598508e-21,2.85729748659e-23,-1.08409963903e-22,1.0
1573179820043748251,0,1573179819753290120,grasp_lab,tag_7,0.469,-0.018,-2.54,1.40338898849e-21,3.3157890532e-22,8.75597823097e-23,1.0
1573179820044413994,0,1573179819753290120,grasp_lab,tag_9,-0.648353602292,0.0236061826694,-3.11029719483,0.00932462338552,0.0417695773987,-0.0197613172606,0.998888304138
1573179820044626167,0,1573179819753290120,grasp_lab,tag_8,-0.850876626023,-0.00452613127986,-1.21101999552,0.00351126718163,0.0384036925031,-0.00520358355624,0.999242588225
1573179820044819195,0,1573179819753290120,grasp_lab,tag_14,-1.22233385998,0.0375757681703,-3.06261493138,0.00560962361893,0.0412702716279,0.00187155833088,0.999130519037
1573179820044835153,0,1573179819753290120,map,rig,0.0121231603506,0.00454958859787,-0.0423526131124,0.999340499781,-0.00580239868826,-0.0358411706615,0.000555114946039
1573179820044845365,0,1573179819753290120,rig,cam0,-8.61793769358e-25,1.46404446641e-23,7.10037056511e-25,-7.93470045189e-24,6.78924696714e-24,-2.52244678232e-24,1.0
1573179820253184680,0,1573179819990105679,map,grasp_lab,8.94119680022e-20,9.9506565072e-20,-6.60641583147e-20,1.33937021485e-21,4.01056451282e-22,5.84895184531e-22,1.0
1573179820253356544,0,1573179819990105679,grasp_lab,tag_7,0.469,-0.018,-2.54,1.41201355212e-21,1.34181842936e-21,-7.71028979871e-23,1.0
1573179820253504622,0,1573179819990105679,grasp_lab,tag_9,-0.648294828391,0.0235602241332,-3.11043022695,0.00925528975327,0.041730635008,-0.0197647922095,0.998890507865
1573179820253520098,0,1573179819990105679,grasp_lab,tag_8,-0.851002137539,-0.00438232847578,-1.2111702652,0.00342758787516,0.0383309020976,-0.0052063700599,0.999245659133
1573179820253526689,0,1573179819990105679,grasp_lab,tag_14,-1.22227099542,0.03753904149,-3.0627826289,0.00553125026049,0.0412033392996,0.00186681472687,0.999133727338
1573179820253531674,0,1573179819990105679,map,rig,0.00869457829535,0.00594091887656,-0.0789248576868,0.999345731643,-0.00522002674965,-0.0357824075521,0.000692299238948
1573179820253540291,0,1573179819990105679,rig,cam0,-5.81024689379e-24,-3.59638972995e-24,2.16774596005e-24,-8.74538320689e-24,1.22143692328e-23,5.80827572972e-24,1.0
1573179820474612971,0,1573179820201335136,map,grasp_lab,5.84314315293e-20,-2.58247977111e-19,-7.27870676702e-20,1.49819269832e-21,1.42632477604e-22,5.08439718837e-22,1.0
1573179820474625121,0,1573179820201335136,grasp_lab,tag_7,0.469,-0.018,-2.54,2.66703663071e-21,7.88122339158e-22,3.14188372585e-23,1.0
1573179820474628959,0,1573179820201335136,grasp_lab,tag_9,-0.648233246401,0.0235995783709,-3.11052610127,0.00931153993383,0.0416375752259,-0.0197634126599,0.998893895803
1573179820474632824,0,1573179820201335136,grasp_lab,tag_8,-0.851119024329,-0.00449665767217,-1.21131318897,0.00344167928443,0.0382579517035,-0.00519985783296,0.999248440306
1573179820474636405,0,1573179820201335136,grasp_lab,tag_14,-1.2222045168,0.0375716988448,-3.06291565824,0.0055302041655,0.0411514271107,0.00187748217819,0.999135852599
1573179820474668519,0,1573179820201335136,map,rig,0.00633025920745,0.0066179810658,-0.116127523428,0.999341400492,-0.00548947432451,-0.0358592320112,0.000863951979641
1573179820474672710,0,1573179820201335136,rig,cam0,-6.12022144803e-24,-4.14276359475e-24,3.18483767815e-24,-2.08419977806e-24,1.31299379127e-23,3.65526525397e-24,1.0
1573179820673046910,0,1573179820415225214,map,grasp_lab,2.68571296969e-20,4.52993564085e-19,-9.98827621941e-20,-6.08980986498e-22,-3.13892192133e-22,1.1627115735e-21,1.0
1573179820673060047,0,1573179820415225214,grasp_lab,tag_7,0.469,-0.018,-2.54,-2.48316631831e-21,6.75298089582e-22,-9.08641668153e-22,1.0
1573179820673064233,0,1573179820415225214,grasp_lab,tag_9,-0.648199007146,0.0236248401605,-3.11059524814,0.00933015508679,0.0415935853576,-0.0197509785416,0.998895800727
1573179820673067994,0,1573179820415225214,grasp_lab,tag_8,-0.851195901357,-0.00462825977243,-1.21140634436,0.00343006404637,0.0382090989559,-0.00518355954396,0.99925043414
1573179820673072108,0,1573179820415225214,grasp_lab,tag_14,-1.2221583737,0.0375819382689,-3.06297708974,0.00551556274277,0.0411044749882,0.0018893850896,0.999137843807
1573179820673080753,0,1573179820415225214,map,rig,0.00408330506589,0.00676422307365,-0.147682859641,0.999367271542,-0.00573870903828,-0.035083594042,0.00112481928305
