%time,field.transforms0.header.seq,field.transforms0.header.stamp,field.transforms0.header.frame_id,field.transforms0.child_frame_id,field.transforms0.transform.translation.x,field.transforms0.transform.translation.y,field.transforms0.transform.translation.z,field.transforms0.transform.rotation.x,field.transforms0.transform.rotation.y,field.transforms0.transform.rotation.z,field.transforms0.transform.rotation.w
1573176714672841727,0,1573176714105839263,map,grasp_lab,1.1408823583e-20,6.31880003298e-21,6.40676824711e-21,-8.75883357019e-24,-1.55245615697e-22,1.12999611958e-24,1.0
1573176714672870248,0,1573176714105839263,grasp_lab,tag_7,0.642,0.052,-2.605,-1.53781922856e-22,1.54079155876e-22,-6.73588289206e-23,1.0
1573176714673071154,0,1573176714105839263,grasp_lab,tag_9,-0.472504470784,0.0950750214277,-3.17893114983,0.0126958440321,0.0383688813388,-0.0194405729214,0.998993848136
1573176714673080589,0,1573176714105839263,grasp_lab,tag_8,-0.683307190465,0.0586449891354,-1.28214220581,0.00581023957831,0.0305955704986,-0.00461573108929,0.999504300745
1573176714673087992,0,1573176714105839263,grasp_lab,tag_14,-1.04655928752,0.108369067409,-3.13404260871,0.00552292650331,0.0392122039515,0.00284711643273,0.999211586338
1573176714673096344,0,1573176714105839263,map,rig,0.176294510502,0.0617689947311,-0.0665091547608,0.999367284833,-0.00568764754576,-0.035068255886,-0.00170238088616
1573176714673252699,0,1573176714105839263,rig,cam0,-1.21195925978e-24,9.50655034736e-25,4.28645506888e-25,1.80738424236e-25,2.43275140506e-25,-3.0221293319e-26,1.0
1573176714793546758,0,1573176714414497036,map,grasp_lab,3.14047114107e-20,1.04776337178e-19,2.85146017896e-20,9.27672231714e-22,5.56894476409e-22,4.10228716418e-22,1.0
1573176714793666927,0,1573176714414497036,grasp_lab,tag_7,0.642,0.052,-2.605,-1.73590174904e-21,-8.44450161723e-23,4.44855243271e-22,1.0
1573176714793730169,0,1573176714414497036,grasp_lab,tag_9,-0.472477717256,0.0950387767943,-3.17898538006,0.012675679607,0.0383330850502,-0.0194486821441,0.99899532056
1573176714793783906,0,1573176714414497036,grasp_lab,tag_8,-0.683367967608,0.0587648197263,-1.28220645001,0.00577157834644,0.0305844646615,-0.0046216625208,0.999504837227
1573176714793847467,0,1573176714414497036,grasp_lab,tag_14,-1.04653534306,0.108342056522,-3.13412743242,0.00547857563904,0.039192370798,0.00283882595808,0.9992126322
1573176714793905829,0,1573176714414497036,map,rig,0.176300078112,0.0620049265964,-0.066588666879,0.999367302339,-0.00570287020614,-0.0350676597172,-0.00165273370081
1573176714793966981,0,1573176714414497036,rig,cam0,-3.2810488524e-24,-4.38203427307e-24,3.92198944917e-25,-5.5663152735e-24,2.19505258417e-24,9.94928615612e-25,1.0
1573176715029915359,0,1573176714734636621,map,grasp_lab,3.67036328012e-20,5.95368595163e-20,4.29796139729e-21,1.08421780105e-21,6.86668833903e-22,4.62343953532e-24,1.0
1573176715030946479,0,1573176714734636621,grasp_lab,tag_7,0.642,0.052,-2.605,-4.53563403637e-22,2.68462336888e-22,-2.75417024765e-22,1.0
1573176715031007732,0,1573176714734636621,grasp_lab,tag_9,-0.472486776828,0.0950503768814,-3.17897510246,0.012693955665,0.0383422022752,-0.0194479434122,0.998994752995
1573176715031018373,0,1573176714734636621,grasp_lab,tag_8,-0.683346433019,0.0587188280746,-1.28218956659,0.00579591151651,0.0306037523444,-0.00461857030842,0.999504120332
1573176715031110598,0,1573176714734636621,grasp_lab,tag_14,-1.04654190574,0.108349412554,-3.13410063683,0.00548807491909,0.0391894564329,0.0028451549646,0.999212676376
1573176715031139541,0,1573176714734636621,map,rig,0.176195804143,0.0619689174478,-0.0666073433313,0.999367966045,-0.00569031838556,-0.035050077077,-0.00166757784224
1573176715031182832,0,1573176714734636621,rig,cam0,-6.21438592321e-24,-6.88133937243e-24,4.29119771984e-25,1.77902849869e-25,-3.66865599641e-24,-2.64953455519e-24,1.0
1573176715261261158,0,1573176714967847414,map,grasp_lab,-1.82070573542e-20,9.37456598243e-20,-8.82748222795e-22,1.22897175349e-21,1.0268797758e-21,-8.55927223747e-23,1.0
1573176715261380812,0,1573176714967847414,grasp_lab,tag_7,0.642,0.052,-2.605,-8.29152793196e-22,3.89712326825e-23,-2.64889709462e-22,1.0
1573176715261553977,0,1573176714967847414,grasp_lab,tag_9,-0.472468317386,0.0950421155517,-3.17900502589,0.0126714659795,0.0383232182372,-0.0194451489947,0.99899582135
1573176715261666758,0,1573176714967847414,grasp_lab,tag_8,-0.683394787774,0.0587287947823,-1.28222910135,0.00579846122805,0.0305982817515,-0.00461806447628,0.999504275369
1573176715261769818,0,1573176714967847414,grasp_lab,tag_14,-1.04652615018,0.108340230822,-3.13415399159,0.00548847765246,0.0391712807929,0.00284283049138,0.99921339347
1573176715261916417,0,1573176714967847414,map,rig,0.176265748234,0.0619607827137,-0.0665642464561,0.999367621668,-0.00569454687161,-0.0350593242168,-0.00166513757033
1573176715261992707,0,1573176714967847414,rig,cam0,-6.67433181254e-24,-6.91365098901e-24,-6.6630774756e-25,3.74887984886e-25,-1.64323579588e-24,-2.82141271617e-24,1.0
1573176715498283370,0,1573176715197456321,map,grasp_lab,-2.11283286796e-20,1.09272754972e-19,2.90389742904e-20,1.22363804081e-21,1.35437310582e-21,-8.92137196836e-23,1.0
1573176715498775185,0,1573176715197456321,grasp_lab,tag_7,0.642,0.052,-2.605,-7.83715161112e-22,1.15278602664e-22,-3.40302881931e-22,1.0
1573176715499039103,0,1573176715197456321,grasp_lab,tag_9,-0.472453002291,0.0950480864427,-3.17903580559,0.0126428918842,0.0383057004408,-0.0194388577126,0.998996977678
1573176715499249195,0,1573176715197456321,grasp_lab,tag_8,-0.683429127777,0.0587096605086,-1.28226713861,0.00581304739052,0.0305898050393,-0.00461664024349,0.999504456689
1573176715499445970,0,1573176715197456321,grasp_lab,tag_14,-1.04651410028,0.108344624938,-3.13420485997,0.00549486105962,0.0391607545921,0.00284253940951,0.999213771808
1573176715500371991,0,1573176715197456321,map,rig,0.17625064802,0.0619336524895,-0.0665497401729,0.999367835794,-0.00568772615497,-0.0350541027051,-0.00166986099216
1573176715500614412,0,1573176715197456321,rig,cam0,-4.53281792781e-24,-7.47649820553e-24,1.42623361745e-24,7.892300853e-25,3.23082529245e-24,-3.34175598567e-24,1.0
1573176715754763277,0,1573176715427810552,map,grasp_lab,-1.60015505675e-20,1.03127297453e-19,3.21367471383e-20,1.34033071406e-21,1.00923938288e-21,-3.47510660709e-23,1.0
1573176715754779286,0,1573176715427810552,grasp_lab,tag_7,0.642,0.052,-2.605,-3.37101948682e-22,9.30607346448e-24,-2.20836059845e-22,1.0
1573176715754942676,0,1573176715427810552,grasp_lab,tag_9,-0.472447167546,0.0950602425817,-3.17903285879,0.0126782868954,0.0382867543289,-0.0194392841589,0.998997247101
1573176715754960670,0,1573176715427810552,grasp_lab,tag_8,-0.683439017631,0.0586779162594,-1.2822740367,0.00582889330558,0.0305920387342,-0.00461537056125,0.999504301903
1573176715754967842,0,1573176715427810552,grasp_lab,tag_14,-1.04651032393,0.108355743202,-3.13421521657,0.00551005599904,0.0391554321723,0.0028421239854,0.999213897895
1573176715754971944,0,1573176715427810552,map,rig,0.176153903093,0.0618475094503,-0.0666127187765,0.999368295978,-0.00569303417904,-0.0350391917072,-0.00168920089182
1573176715755158834,0,1573176715427810552,rig,cam0,-4.17624090334e-24,-7.20037403585e-24,9.92355744168e-25,-1.45592733364e-24,4.57657150828e-24,-3.15013167173e-24,1.0
1573176716052618401,0,1573176715694278184,map,grasp_lab,-2.44790357514e-20,2.07321043086e-19,2.49010452329e-20,1.40065127313e-21,1.17252656467e-21,9.2356125507e-23,1.0
1573176716053059344,0,1573176715694278184,grasp_lab,tag_7,0.642,0.052,-2.605,-1.18077019761e-21,6.85071119871e-23,-1.51784865095e-22,1.0
1573176716053413729,0,1573176715694278184,grasp_lab,tag_9,-0.472434411203,0.0950496364169,-3.17906458728,0.0126093345962,0.0382798765615,-0.0194316945926,0.998998531018
1573176716053688735,0,1573176715694278184,grasp_lab,tag_8,-0.683473922533,0.0587024866431,-1.28230789789,0.00583367332202,0.0305874867301,-0.00461752876513,0.999504403362
1573176716053978063,0,1573176715694278184,grasp_lab,tag_14,-1.04649600418,0.108345426783,-3.13425180161,0.00552750837696,0.0391413328498,0.0028381286765,0.999214365259
1573176716054309082,0,1573176715694278184,map,rig,0.176186284096,0.0619592086667,-0.0665349241373,0.999368339852,-0.00569535013113,-0.0350387929227,-0.00166351396034
1573176716054574850,0,1573176715694278184,rig,cam0,-6.18210898129e-24,-6.12234418063e-24,7.34616497436e-25,-3.16833120105e-24,6.77090641319e-24,-4.5569376193e-24,1.0
1573176716295688130,0,1573176716001188953,map,grasp_lab,-3.50717419559e-20,9.85975982298e-20,2.5844546522e-20,7.61198569763e-22,8.8243806214e-22,3.85696850318e-22,1.0
1573176716295734638,0,1573176716001188953,grasp_lab,tag_7,0.642,0.052,-2.605,-1.18417905153e-21,-2.44161315192e-22,1.93266414514e-22,1.0
1573176716295745625,0,1573176716001188953,grasp_lab,tag_9,-0.47244088086,0.0950569710812,-3.17904529985,0.0126812849788,0.0382899327526,-0.0194338550797,0.998997192858
1573176716295766528,0,1573176716001188953,grasp_lab,tag_8,-0.683460748321,0.0586594530244,-1.28229494845,0.00584883711077,0.0306060124388,-0.00461278386754,0.999503769544
1573176716295774870,0,1573176716001188953,grasp_lab,tag_14,-1.046511417,0.10834830126,-3.13425107608,0.00554494645433,0.0391571806067,0.00284730917543,0.999213621608
1573176716295796181,0,1573176716001188953,map,rig,0.176130645446,0.0618112694369,-0.0665730216128,0.999368599534,-0.00568254364407,-0.0350320364868,-0.0016933345657
1573176716295802481,0,1573176716001188953,rig,cam0,-2.34711388967e-24,-1.14134026933e-23,2.16551026546e-24,-2.02194510616e-24,-2.30067709487e-24,-3.57475196009e-24,1.0
1573176716549998943,0,1573176716242413869,map,grasp_lab,-3.39213979968e-20,1.80416202539e-19,2.60257801094e-20,8.78351018811e-22,7.96939944067e-22,4.40206571476e-22,1.0
1573176716550352817,0,1573176716242413869,grasp_lab,tag_7,0.642,0.052,-2.605,-1.35522087118e-21,-3.69679658222e-22,1.81331128595e-22,1.0
1573176716550365044,0,1573176716242413869,grasp_lab,tag_9,-0.472438511734,0.0950816474184,-3.17906076998,0.0127033723214,0.0382949710701,-0.0194305537193,0.99899678333
1573176716550405251,0,1573176716242413869,grasp_lab,tag_8,-0.683467731928,0.058572542865,-1.28230528019,0.00588656707881,0.0306091139196,-0.00460993731569,0.999503466203
1573176716550411247,0,1573176716242413869,grasp_lab,tag_14,-1.04650614194,0.108365840052,-3.1342569657,0.00558082526246,0.0391469596695,0.00285190543993,0.999213809239
1573176716550762443,0,1573176716242413869,map,rig,0.176157340324,0.0616951442103,-0.0666013349702,0.999368366417,-0.00567084385842,-0.0350394069107,-0.00171746876161
1573176716550781931,0,1573176716242413869,rig,cam0,-2.77571207344e-24,-8.55544625338e-24,1.97779176881e-24,5.8705412845e-24,-2.16228675215e-24,-3.14518750053e-24,1.0
1573176716789280940,0,1573176716478670678,map,grasp_lab,-3.89598942691e-20,2.20185859083e-19,2.98926166253e-20,-3.16381920424e-22,8.63883944374e-22,5.57786678776e-22,1.0
1573176716789294457,0,1573176716478670678,grasp_lab,tag_7,0.642,0.052,-2.605,-3.31434677053e-21,-3.84989658205e-22,-1.82982081493e-22,1.0
1573176716789299425,0,1573176716478670678,grasp_lab,tag_9,-0.472429537689,0.0950683848783,-3.17906843278,0.0127342512982,0.0382631427881,-0.0194321703157,0.998997578328
1573176716789313180,0,1573176716478670678,grasp_lab,tag_8,-0.683484930861,0.0585744547972,-1.28232608207,0.005886776981,0.0306064552006,-0.00460564899442,0.999503566154
1573176716789318750,0,1573176716478670678,grasp_lab,tag_14,-1.0464965561,0.108348936374,-3.13427480705,0.00556889445223,0.0391365750619,0.00285636483322,0.999214269858
1573176716789325421,0,1573176716478670678,map,rig,0.176269904208,0.0616964677619,-0.0665540046828,0.999367888719,-0.00567186506173,-0.0350529093431,-0.00171653476949
1573176716789330469,0,1573176716478670678,rig,cam0,-2.28901392955e-24,-4.94941837556e-24,2.32543540105e-24,8.05069119207e-24,-1.59624470465e-24,-1.35600334036e-24,1.0
1573176717030916661,0,1573176716724936929,map,grasp_lab,-1.99085676902e-20,2.99552917943e-19,3.27315932898e-20,-4.60719469442e-22,8.30560641162e-22,4.35958671324e-22,1.0
1573176717033497571,0,1573176716724936929,grasp_lab,tag_7,0.642,0.052,-2.605,-3.80277414235e-21,-5.15296510131e-22,-5.50527889237e-22,1.0
1573176717033944025,0,1573176716724936929,grasp_lab,tag_9,-0.472417525388,0.095042989705,-3.17911336002,0.0126640668094,0.0382631526497,-0.0194277536619,0.998998556029
1573176717033963523,0,1573176716724936929,grasp_lab,tag_8,-0.683516164539,0.0586287086452,-1.28236498735,0.0058748775384,0.030593895534,-0.00460861150158,0.99950400703
1573176717033975426,0,1573176716724936929,grasp_lab,tag_14,-1.04648608672,0.108324461908,-3.13433024133,0.00553958725519,0.0391313883906,0.00285825561974,0.999214630493
1573176717033987013,0,1573176716724936929,map,rig,0.176323739995,0.0618154906275,-0.0666244497323,0.999367780165,-0.00565348418371,-0.0350599344766,-0.00169678499983
1573176717034007331,0,1573176716724936929,rig,cam0,-2.91442854172e-24,-2.10501579344e-24,2.191586535e-24,1.06007566723e-23,-7.21582163268e-25,-2.6456369508e-24,1.0
1573176717253423070,0,1573176716954203609,map,grasp_lab,-3.44681490938e-20,2.05676319591e-19,3.0404175855e-20,4.7412526754e-22,7.85283118599e-22,9.97933790653e-23,1.0
1573176717253520290,0,1573176716954203609,grasp_lab,tag_7,0.642,0.052,-2.605,-3.02631189685e-21,-6.6729766506e-22,-8.61194016398e-22,1.0
1573176717253585045,0,1573176716954203609,grasp_lab,tag_9,-0.472416490654,0.0950151749737,-3.17911954323,0.0125764916104,0.0382738108395,-0.0194225491495,0.998999355279
1573176717253626229,0,1573176716954203609,grasp_lab,tag_8,-0.683516264913,0.0587059841918,-1.28236643131,0.0058523536641,0.0305915807999,-0.0046110766628,0.999504198647
1573176717253634515,0,1573176716954203609,grasp_lab,tag_14,-1.04648128351,0.108300170903,-3.13432742473,0.00553002941747,0.0391261593462,0.00285077249651,0.999214909579
1573176717253638833,0,1573176716954203609,map,rig,0.176175287746,0.0619422766734,-0.0666243940826,0.999368408684,-0.0056790000698,-0.0350390711405,-0.00167217726144
1573176717253697938,0,1573176716954203609,rig,cam0,-2.49221789118e-24,-9.53096418608e-24,2.27297749911e-24,7.53307829757e-24,-5.61558242797e-25,-1.94427177377e-24,1.0
1573176717491814088,0,1573176717222939459,map,grasp_lab,-3.99036088042e-20,2.60401282726e-19,3.46306144744e-20,6.3700124715e-22,7.81298750556e-22,3.05080105278e-22,1.0
1573176717492152213,0,1573176717222939459,grasp_lab,tag_7,0.642,0.052,-2.605,-4.02765708545e-21,-6.51232888246e-22,-6.76922709977e-22,1.0
1573176717492374213,0,1573176717222939459,grasp_lab,tag_9,-0.472410748584,0.0950096953101,-3.17914052893,0.0125656506354,0.0382752309322,-0.0194215612987,0.998999456495
1573176717493692233,0,1573176717222939459,grasp_lab,tag_8,-0.683532733627,0.0587246089146,-1.28238552793,0.00584635915976,0.0305880440485,-0.0046103117097,0.999504345499
1573176717493921682,0,1573176717222939459,grasp_lab,tag_14,-1.04647342617,0.108296023505,-3.13434525169,0.00551158248146,0.0391217250472,0.00285336955971,0.999215177712
1573176717494273993,0,1573176717222939459,map,rig,0.176199988832,0.0620208726763,-0.0666014189725,0.999368454209,-0.0056824261126,-0.0350379757085,-0.00165620758313
1573176717494564207,0,1573176717222939459,rig,cam0,-2.57058037189e-24,1.10291952645e-25,2.43490895687e-24,7.23912168344e-24,1.27245009209e-24,-1.51358298771e-24,1.0
1573176717736445539,0,1573176717421570339,map,grasp_lab,-3.40443580039e-20,4.76912750679e-19,3.41097429853e-20,3.62915368357e-22,7.77499720812e-22,4.95503400137e-22,1.0
1573176717736643971,0,1573176717421570339,grasp_lab,tag_7,0.642,0.052,-2.605,-7.18492080605e-21,-9.31170982742e-22,-1.12920249953e-21,1.0
1573176717747322507,0,1573176717421570339,grasp_lab,tag_9,-0.472411067388,0.0949869112195,-3.17913972619,0.0125340067522,0.0382753003461,-0.0194230495403,0.998999822425
1573176717747341606,0,1573176717421570339,grasp_lab,tag_8,-0.683533506493,0.0587832246054,-1.28238411368,0.00582591503293,0.0305854050786,-0.00461268033056,0.999504534702
1573176717747380761,0,1573176717421570339,grasp_lab,tag_14,-1.04647456956,0.108276685561,-3.13434720889,0.00550538958896,0.0391227515189,0.00284867782706,0.99921518505
1573176717747399551,0,1573176717421570339,map,rig,0.176295354336,0.0621157558769,-0.0666520580369,0.999367812079,-0.00567812191688,-0.0350578723506,-0.00163728385416
1573176717747486003,0,1573176717421570339,rig,cam0,-1.70433809155e-24,1.97166350046e-25,2.0657499724e-24,1.17859995834e-23,-1.19145383864e-24,-1.77356447334e-24,1.0
1573176718005036155,0,1573176717697557580,map,grasp_lab,-3.10781867499e-20,4.06959516576e-19,3.28599163582e-20,9.91473961645e-22,8.403839287e-22,6.9723232118e-22,1.0
1573176718005202620,0,1573176717697557580,grasp_lab,tag_7,0.642,0.052,-2.605,-5.28246828734e-21,-8.1865384938e-22,-8.1484978694e-22,1.0
1573176718005313965,0,1573176717697557580,grasp_lab,tag_9,-0.472407443829,0.0950231545563,-3.17913309163,0.0126056844314,0.0382682883561,-0.0194197063998,0.998999254169
1573176718005418920,0,1573176717697557580,grasp_lab,tag_8,-0.683538725104,0.0586555154741,-1.28239143797,0.00586988178047,0.0305800271992,-0.00460646494125,0.999504470678
1573176718005613617,0,1573176717697557580,grasp_lab,tag_14,-1.04646851981,0.108302750774,-3.13433890481,0.00555794210674,0.0391144732339,0.00285509039452,0.999215199905
1573176718005685203,0,1573176717697557580,map,rig,0.176336441141,0.061908275418,-0.0666213337792,0.999367724342,-0.00567054332219,-0.0350599182299,-0.00167290615888
1573176718005694668,0,1573176717697557580,rig,cam0,-1.56737290442e-24,1.35382326038e-25,2.15708541921e-24,6.27222966927e-24,-6.10147526614e-25,-9.39120996226e-25,1.0
1573176718243289028,0,1573176717969165528,map,grasp_lab,-2.76809547179e-20,3.70266862866e-19,2.58585552648e-20,9.88596061886e-22,7.16886791536e-22,7.16808586357e-22,1.0
1573176718246018212,0,1573176717969165528,grasp_lab,tag_7,0.642,0.052,-2.605,-4.96980040248e-21,-6.79806629968e-22,-9.39534997476e-22,1.0
1573176718246137761,0,1573176717969165528,grasp_lab,tag_9,-0.472416115601,0.0950014367299,-3.1791152802,0.0125796991476,0.0382694893444,-0.0194237870581,0.998999456382
1573176718246151080,0,1573176717969165528,grasp_lab,tag_8,-0.683523499912,0.0587173309773,-1.2823630062,0.00584732596832,0.030580258627,-0.00460746300325,0.999504591208
1573176718246158424,0,1573176717969165528,grasp_lab,tag_14,-1.04647447618,0.108284713665,-3.1343092526,0.00551629691307,0.0391171611484,0.00286107137575,0.999215308351
1573176718246163272,0,1573176717969165528,map,rig,0.176193929987,0.0620067530306,-0.0666872026062,0.999368387288,-0.00567312481326,-0.0350414570413,-0.00165482127286
1573176718246246892,0,1573176717969165528,rig,cam0,-2.56300084095e-24,4.72360050257e-25,1.9436152616e-24,6.94829160564e-24,-2.00136996819e-24,-2.79181547469e-24,1.0
1573176718520496466,0,1573176718201477653,map,grasp_lab,-2.77812599062e-20,5.70984260059e-19,2.24101019741e-20,4.03615669912e-22,8.25656549117e-22,5.8731582991e-22,1.0
1573176718521095255,0,1573176718201477653,grasp_lab,tag_7,0.642,0.052,-2.605,-5.20467496001e-21,-5.95898701719e-22,-8.21955214298e-22,1.0
1573176718524307156,0,1573176718201477653,grasp_lab,tag_9,-0.472418296622,0.0950300848937,-3.17911699484,0.0125803138519,0.0382800556583,-0.0194154212594,0.998999206436
1573176718524566289,0,1573176718201477653,grasp_lab,tag_8,-0.683521207211,0.0586364464534,-1.28235719958,0.00588048490282,0.0305765250278,-0.00460677890906,0.999504514048
1573176718524750068,0,1573176718201477653,grasp_lab,tag_14,-1.04647526786,0.108308394857,-3.13430331934,0.00555300164673,0.0391178600433,0.00285877136638,0.999215084266
1573176718525017266,0,1573176718201477653,map,rig,0.176283649365,0.0618962326038,-0.066646326778,0.999367919488,-0.00566202586265,-0.0350555236091,-0.0016772674708
1573176718525222044,0,1573176718201477653,rig,cam0,-2.16434040412e-24,-4.65444478665e-24,2.13202480757e-24,8.12314113544e-24,-8.54082312032e-25,-2.18597200564e-24,1.0
1573176718752073093,0,1573176718455098328,map,grasp_lab,-2.94751433379e-20,5.94017423223e-19,2.63522440668e-20,1.34065803345e-21,8.96689938331e-22,7.97203893832e-22,1.0
1573176718752171970,0,1573176718455098328,grasp_lab,tag_7,0.642,0.052,-2.605,-5.7357173383e-21,-6.25649567596e-22,-1.14871846611e-21,1.0
1573176718752218499,0,1573176718455098328,grasp_lab,tag_9,-0.472414236689,0.0950369465096,-3.17912330143,0.0125644497826,0.0382697120356,-0.0194163959244,0.998999783439
1573176718752290514,0,1573176718455098328,grasp_lab,tag_8,-0.683531190684,0.058652647953,-1.28237006301,0.00587519932786,0.0305741477464,-0.00461102489821,0.999504598274
1573176718752349601,0,1573176718455098328,grasp_lab,tag_14,-1.04646998279,0.108320196408,-3.13431154451,0.00555650342553,0.0391187885274,0.0028553314128,0.999215038286
1573176718752619520,0,1573176718455098328,map,rig,0.176385492673,0.0619177532505,-0.0666133443692,0.999367301148,-0.00567849215241,-0.0350706753572,-0.00167327641057
1573176718752696249,0,1573176718455098328,rig,cam0,-2.03195453715e-24,2.30489057612e-24,2.27804248955e-24,1.63230920943e-24,-4.49264316906e-25,-1.51527505728e-24,1.0
1573176718983646413,0,1573176718716571741,map,grasp_lab,-3.08756879782e-20,6.06639181254e-19,2.2790749242e-20,1.44490276614e-21,1.05310793668e-21,8.37500501187e-22,1.0
1573176718983729639,0,1573176718716571741,grasp_lab,tag_7,0.642,0.052,-2.605,-5.92095991092e-21,-7.0822024395e-22,-9.92445374855e-22,1.0
1573176718983792648,0,1573176718716571741,grasp_lab,tag_9,-0.47239634428,0.095035592747,-3.17917245128,0.012560256912,0.0382573995744,-0.0194180152384,0.99900027628
1573176718983905178,0,1573176718716571741,grasp_lab,tag_8,-0.683573595827,0.0586653541652,-1.28241921166,0.00587272679701,0.0305575645477,-0.00461271968297,0.999505112116
1573176718983914625,0,1573176718716571741,grasp_lab,tag_14,-1.04645925685,0.108320501705,-3.13438995211,0.00555095925404,0.0391089046602,0.00285465591316,0.999215457931
1573176718983968139,0,1573176718716571741,map,rig,0.176245462808,0.0619382330709,-0.0666639087598,0.999368256748,-0.00566851697925,-0.0350451000721,-0.00167220805767
1573176718984033582,0,1573176718716571741,rig,cam0,-2.09785979378e-24,2.35181042788e-24,2.39484415518e-24,-4.73839449712e-25,-1.38245677787e-24,-9.20355613021e-25,1.0
1573176719219564527,0,1573176718946637657,map,grasp_lab,-9.67481811846e-21,5.08815104628e-19,2.80554217099e-20,5.91308987931e-22,1.30054829042e-21,7.83535048244e-22,1.0
1573176719219590475,0,1573176718946637657,grasp_lab,tag_7,0.642,0.052,-2.605,-5.15245006893e-21,-3.28379361706e-22,-1.61349982193e-21,1.0
1573176719219599656,0,1573176718946637657,grasp_lab,tag_9,-0.472388984268,0.0950625825295,-3.17918289552,0.0125509759381,0.0382534861014,-0.0194154940881,0.999000591788
1573176719219604782,0,1573176718946637657,grasp_lab,tag_8,-0.68359506798,0.0586125866628,-1.2824377039,0.00589272787622,0.0305549008931,-0.00461153304874,0.999505081304
1573176719219611395,0,1573176718946637657,grasp_lab,tag_14,-1.04645030945,0.108347100868,-3.13440146251,0.00555822663204,0.0391052770302,0.00285892217124,0.999215547312
1573176719219621317,0,1573176718946637657,map,rig,0.176123274763,0.0617516567621,-0.0665845630022,0.999368930986,-0.00569083176311,-0.0350206476452,-0.00170541872755
1573176719219631456,0,1573176718946637657,rig,cam0,-5.27085210587e-24,9.42775771015e-24,2.35634600882e-24,-4.65284364481e-24,3.76161803011e-24,8.26023368571e-25,1.0
1573176719450559992,0,1573176719184576789,map,grasp_lab,2.70306982349e-21,5.69944602784e-19,4.04783059328e-20,2.22112496361e-21,1.07361203943e-21,4.90685387679e-23,1.0
1573176719450726702,0,1573176719184576789,grasp_lab,tag_7,0.642,0.052,-2.605,-3.72425917005e-21,-2.95155937694e-22,-1.31507187292e-21,1.0
1573176719450869448,0,1573176719184576789,grasp_lab,tag_9,-0.472376192231,0.0950587861661,-3.17921174296,0.0125653741022,0.0382305188807,-0.0194196153461,0.999001209879
1573176719450965965,0,1573176719184576789,grasp_lab,tag_8,-0.683620080295,0.0586264447171,-1.28246869736,0.00589599432721,0.0305456057322,-0.00461306761679,0.99950533907
1573176719451090771,0,1573176719184576789,grasp_lab,tag_14,-1.04643534449,0.108344350609,-3.13443427159,0.00555624499364,0.0390896943329,0.00285951372578,0.999216166362
1573176719451229013,0,1573176719184576789,map,rig,0.175927728334,0.0618143152888,-0.0666331792918,0.999370179183,-0.00567077488351,-0.0349890082049,-0.00169014121987
1573176719451318443,0,1573176719184576789,rig,cam0,-6.69944932579e-24,1.23302512368e-23,2.9378832248e-24,-8.46491720562e-24,4.4646305992e-24,-2.71981412653e-24,1.0
1573176719707878907,0,1573176719414939232,map,grasp_lab,-1.13367372305e-20,4.87232475953e-19,4.77110026715e-20,1.69731837653e-21,1.04107779673e-21,1.83538080891e-22,1.0
1573176719707892171,0,1573176719414939232,grasp_lab,tag_7,0.642,0.052,-2.605,-3.54413658654e-21,-8.36062146406e-22,-7.2105814582e-22,1.0
1573176719708070566,0,1573176719414939232,grasp_lab,tag_9,-0.472381967071,0.0950405938631,-3.17920837692,0.012529000267,0.0382387392958,-0.0194188139099,0.999001367685
1573176719708079669,0,1573176719414939232,grasp_lab,tag_8,-0.68361362718,0.0586695963692,-1.28245518942,0.0058876917196,0.0305533276578,-0.00461619745619,0.999505137544
1573176719708181745,0,1573176719414939232,grasp_lab,tag_14,-1.04644056305,0.108327485249,-3.13442447827,0.00552914935363,0.0390968244337,0.00286129709743,0.9992160326
1573176719708396232,0,1573176719414939232,map,rig,0.175933857073,0.0618653481815,-0.0666465988364,0.999370027333,-0.00566955193923,-0.0349940084367,-0.00168048274956
1573176719708405650,0,1573176719414939232,rig,cam0,-7.17811623125e-24,-6.80005776808e-25,2.6666431822e-24,-5.74687189088e-24,4.28586969003e-24,-1.71117123497e-24,1.0
1573176719944508522,0,1573176719677442185,map,grasp_lab,-2.64144940296e-20,5.44627412428e-19,3.4614312209e-20,1.75537191075e-21,1.19766106737e-21,2.78318460295e-22,1.0
1573176719949353708,0,1573176719677442185,grasp_lab,tag_7,0.642,0.052,-2.605,-3.564159536e-21,-3.43075348438e-22,-6.94982278062e-22,1.0
1573176719949371290,0,1573176719677442185,grasp_lab,tag_9,-0.472370573271,0.0950321307723,-3.17923585563,0.0125349926971,0.0382345940967,-0.0194221052103,0.999001387187
1573176719949378191,0,1573176719677442185,grasp_lab,tag_8,-0.683642257467,0.0586990927567,-1.28248398769,0.00588217825411,0.0305515509169,-0.00461795128187,0.999505216215
1573176719949382662,0,1573176719677442185,grasp_lab,tag_14,-1.04642998961,0.108321723015,-3.13446079576,0.00551273378897,0.0390817144502,0.00286227140306,0.999216711612
1573176719949395631,0,1573176719677442185,map,rig,0.175851547068,0.0619539090518,-0.0666397434788,0.999370636892,-0.00568712225639,-0.0349745590079,-0.00166342415136
1573176719949460023,0,1573176719677442185,rig,cam0,-6.56367499864e-24,1.67684792893e-24,2.32469993878e-24,-5.54201451512e-24,5.23019773406e-24,-1.74948628267e-25,1.0
1573176720207043470,0,1573176719876947912,map,grasp_lab,-4.53052116291e-20,3.96419300071e-19,3.72468184911e-20,-8.86454935194e-23,1.37668479306e-21,-2.05246118255e-22,1.0
1573176720207228289,0,1573176719876947912,grasp_lab,tag_7,0.642,0.052,-2.605,-4.61748252257e-21,-2.91033203306e-22,-5.09917747645e-22,1.0
1573176720207318215,0,1573176719876947912,grasp_lab,tag_9,-0.472374756437,0.0950235168734,-3.17921463583,0.0125504175012,0.0382336950963,-0.0194238390782,0.999001194221
1573176720207553624,0,1573176719876947912,grasp_lab,tag_8,-0.683629893466,0.0587189232294,-1.28247036855,0.00588318569131,0.0305704445444,-0.00461938896636,0.999504625948
1573176720207750364,0,1573176719876947912,grasp_lab,tag_14,-1.04643733257,0.108314149205,-3.1344485273,0.00552557846495,0.0390889092277,0.00285812790112,0.999216371094
1573176720207777506,0,1573176719876947912,map,rig,0.175782872475,0.0619512196747,-0.0666343242848,0.999371004228,-0.00568228837125,-0.0349647532763,-0.00166539329694
1573176720207783650,0,1573176719876947912,rig,cam0,-5.32538278938e-24,9.62899369262e-24,3.0055593674e-24,-7.62661295459e-24,1.99277375626e-24,-8.00949710474e-26,1.0
1573176720448424954,0,1573176720173508129,map,grasp_lab,-4.92926516994e-20,6.47538971761e-19,5.28647182186e-20,1.4530466808e-21,1.32570908924e-21,-1.33350361888e-22,1.0
1573176720448804201,0,1573176720173508129,grasp_lab,tag_7,0.642,0.052,-2.605,-6.44768065838e-21,-9.86964223711e-23,-1.33780924046e-21,1.0
1573176720479435193,0,1573176720173508129,grasp_lab,tag_9,-0.472362483599,0.0949968828048,-3.17923054485,0.0125476337757,0.0381960170358,-0.0194319372376,0.999002513002
1573176720479552239,0,1573176720173508129,grasp_lab,tag_8,-0.68365185635,0.0588174547659,-1.28249577709,0.00585453022667,0.0305671039317,-0.00462375737894,0.999504876177
1573176720479563755,0,1573176720173508129,grasp_lab,tag_14,-1.0464281105,0.108295799561,-3.13448477888,0.00550107036511,0.0390805270363,0.00284768595662,0.999216864007
1573176720479568228,0,1573176720173508129,map,rig,0.175714504446,0.0621412316641,-0.0666148779949,0.999371481685,-0.00569194082441,-0.0349510094008,-0.00163411939083
1573176720479591181,0,1573176720173508129,rig,cam0,-4.43780984354e-24,-1.09976349132e-23,3.30908471805e-24,-1.69241427026e-23,2.44691649942e-24,-4.73256724521e-24,1.0
1573176720704389991,0,1573176720410097099,map,grasp_lab,-4.12184607126e-20,7.07912165691e-19,5.35499980137e-20,1.77625867728e-21,1.27897347095e-21,1.93184172e-22,1.0
1573176720704580795,0,1573176720410097099,grasp_lab,tag_7,0.642,0.052,-2.605,-7.3704092186e-21,-2.48088032565e-22,-1.78403007852e-21,1.0
1573176720704635101,0,1573176720410097099,grasp_lab,tag_9,-0.4723633814,0.0949858933092,-3.1792201534,0.0125499503789,0.0381801493892,-0.019430712325,0.999003114288
1573176720704706553,0,1573176720410097099,grasp_lab,tag_8,-0.683649607751,0.0588238437264,-1.28248792878,0.00585521433164,0.0305761333396,-0.00462116857357,0.999504607961
1573176720706076370,0,1573176720410097099,grasp_lab,tag_14,-1.04643245119,0.108282461073,-3.13448425275,0.00549357957494,0.0390837755833,0.0028499400382,0.999216771732
1573176720706200526,0,1573176720410097099,map,rig,0.175705229627,0.0621258231782,-0.0666427008817,0.999371449345,-0.00568809126112,-0.0349526994777,-0.00163115029668
1573176720706291270,0,1573176720410097099,rig,cam0,-5.0244897198e-24,1.91850246742e-23,3.45766688875e-24,-2.04234010249e-23,2.06939880672e-24,-1.71932833904e-24,1.0
1573176720931590921,0,1573176720649104130,map,grasp_lab,-2.05215022758e-20,7.18401851697e-19,5.13641732961e-20,2.08569762048e-21,1.27315625157e-21,4.79012444349e-22,1.0
1573176720931673713,0,1573176720649104130,grasp_lab,tag_7,0.642,0.052,-2.605,-6.26344831787e-21,1.1963571719e-22,-1.36788196552e-21,1.0
1573176720931721591,0,1573176720649104130,grasp_lab,tag_9,-0.472345969904,0.0949680073437,-3.17926005367,0.0125228674272,0.0381593501799,-0.0194355675227,0.999004154396
1573176720934343100,0,1573176720649104130,grasp_lab,tag_8,-0.683682937743,0.0589049645863,-1.28253079916,0.00583275275183,0.0305724533679,-0.00462540360309,0.99950483227
1573176720934508505,0,1573176720649104130,grasp_lab,tag_14,-1.0464184709,0.108272872708,-3.13454633075,0.00545578035453,0.0390749398454,0.00284524220442,0.999217337787
1573176720934750242,0,1573176720649104130,map,rig,0.17560576933,0.0622858957015,-0.0666788621925,0.999372253187,-0.00567632060549,-0.0349329551738,-0.00160236918673
1573176720934989538,0,1573176720649104130,rig,cam0,-6.50312907388e-24,1.96751979178e-23,3.40438027954e-24,-1.86223194319e-23,-2.53860079404e-25,-8.9683593171e-25,1.0
1573176721174848864,0,1573176720875710040,map,grasp_lab,-6.51843991904e-20,6.67190110093e-19,6.98586536997e-20,1.78004142765e-21,1.55367714562e-21,4.07708930139e-22,1.0
1573176721175006545,0,1573176720875710040,grasp_lab,tag_7,0.642,0.052,-2.605,-5.80668229288e-21,-4.68268026606e-23,-1.31507187292e-21,1.0
1573176721175122028,0,1573176720875710040,grasp_lab,tag_9,-0.472344325675,0.0949680407905,-3.17926830721,0.0125407007844,0.0381696828454,-0.0194358057465,0.99900353132
1573176721175316202,0,1573176720875710040,grasp_lab,tag_8,-0.683691758423,0.0588987354061,-1.28253981418,0.00583666315312,0.0305819585604,-0.004623845884,0.999504525864
1573176721178406186,0,1573176720875710040,grasp_lab,tag_14,-1.04641351042,0.108271687586,-3.13454564755,0.00545964291281,0.0390693885721,0.00284654084675,0.999217530061
1573176721178481681,0,1573176720875710040,map,rig,0.175670101239,0.0622635414492,-0.0666067065815,0.999371855752,-0.00568814447888,-0.0349420172283,-0.00161070638759
1573176721178522591,0,1573176720875710040,rig,cam0,-4.55460448947e-24,7.49474340236e-24,4.67973095845e-24,-1.78968342551e-23,2.50821422428e-24,-5.45235373609e-25,1.0
1573176721408266274,0,1573176721111033543,map,grasp_lab,-7.95124677349e-20,6.57484478072e-19,6.31897283485e-20,1.37305240751e-21,1.78140913129e-21,5.34561398983e-22,1.0
1573176721414229992,0,1573176721111033543,grasp_lab,tag_7,0.642,0.052,-2.605,-6.25808595248e-21,-4.80145422703e-22,-1.42507745141e-21,1.0
1573176721414286033,0,1573176721111033543,grasp_lab,tag_9,-0.472345712998,0.0949742452868,-3.17926815316,0.012545191344,0.0381826476513,-0.0194377499447,0.999002941672
1573176721414328759,0,1573176721111033543,grasp_lab,tag_8,-0.683694427354,0.0588782945988,-1.28253812704,0.00584908816305,0.0305955573891,-0.00462324138122,0.999504039849
1573176721415026222,0,1573176721111033543,grasp_lab,tag_14,-1.04641296755,0.10827639239,-3.13453848259,0.00544503524692,0.0390667418152,0.00285043387083,0.999217702156
1573176721415048000,0,1573176721111033543,map,rig,0.175574456819,0.0622469728697,-0.066659863168,0.999372355465,-0.00569099874003,-0.0349271432104,-0.00161317452395
1573176721415066705,0,1573176721111033543,rig,cam0,-3.71146519505e-24,7.09813422224e-24,3.61882585857e-24,-1.84584678104e-23,-3.26213483905e-25,-6.89740571456e-25,1.0
1573176721664256097,0,1573176721374029576,map,grasp_lab,-6.02534623781e-20,5.80579133544e-19,9.58821188664e-20,1.4303609892e-21,1.79342932182e-21,4.61947497383e-22,1.0
1573176721664505003,0,1573176721374029576,grasp_lab,tag_7,0.642,0.052,-2.605,-6.96703620039e-21,-1.88642882789e-22,-1.49540045959e-21,1.0
1573176721664962162,0,1573176721374029576,grasp_lab,tag_9,-0.472331755287,0.0949875779208,-3.179284728,0.0125319365824,0.0381610725296,-0.0194327839527,0.999004029029
1573176721665032591,0,1573176721374029576,grasp_lab,tag_8,-0.683721574399,0.0588464024483,-1.28257102664,0.00586655057916,0.0306012741865,-0.00462378511968,0.99950375998
1573176721665258731,0,1573176721374029576,grasp_lab,tag_14,-1.04639987513,0.108288650335,-3.13457038552,0.00544791929134,0.0390504559349,0.00285287509443,0.99921831607
1573176721665547087,0,1573176721374029576,map,rig,0.175482959168,0.0622090213658,-0.0666911757738,0.999372902698,-0.00569238806273,-0.0349109542123,-0.00161967479842
1573176721665870594,0,1573176721374029576,rig,cam0,-2.77599254637e-24,1.15670999164e-23,5.07407503434e-24,-1.0898433411e-23,4.15424053144e-24,-8.97243846718e-25,1.0
1573176721901760250,0,1573176721610935756,map,grasp_lab,-3.66216183403e-20,5.14777419017e-19,8.32729164867e-20,7.94267406476e-22,1.68099161139e-21,2.1669367968e-22,1.0
1573176721902045709,0,1573176721610935756,grasp_lab,tag_7,0.642,0.052,-2.605,-5.64376449058e-21,-7.36950276194e-23,-1.86255456494e-21,1.0
1573176721902055936,0,1573176721610935756,grasp_lab,tag_9,-0.472331207017,0.0949676873581,-3.17928020307,0.0125297257064,0.0381534057892,-0.0194399638219,0.999004209905
1573176721902204716,0,1573176721610935756,grasp_lab,tag_8,-0.68372028777,0.0589108655641,-1.2825725775,0.00583256365806,0.030620009542,-0.00462477636536,0.999503380515
1573176721902254189,0,1573176721610935756,grasp_lab,tag_14,-1.04640021069,0.108273862356,-3.13457131611,0.00542909153047,0.0390537656489,0.00285116097475,0.999218294085
1573176721902389871,0,1573176721610935756,map,rig,0.17552392664,0.0623012572264,-0.0667446671919,0.99937275353,-0.00567632302831,-0.0349182897571,-0.00160993776523
1573176721902556332,0,1573176721610935756,rig,cam0,-5.75733112249e-24,4.49220853473e-24,4.52179361526e-24,-1.33834083474e-23,1.55988408931e-24,-5.18745432067e-25,1.0
1573176722133571369,0,1573176721842506512,map,grasp_lab,-3.04471608844e-20,4.84559942781e-19,8.46612870637e-20,1.05259424474e-21,1.45693990567e-21,3.36951201855e-22,1.0
1573176722133662619,0,1573176721842506512,grasp_lab,tag_7,0.642,0.052,-2.605,-5.62709261642e-21,-1.15216540977e-22,-1.6703432408e-21,1.0
1573176722133673385,0,1573176721842506512,grasp_lab,tag_9,-0.472324209498,0.0949670112439,-3.17929528309,0.012503508344,0.0381527559255,-0.019442631508,0.999004511288
1573176722133683151,0,1573176721842506512,grasp_lab,tag_8,-0.683733901641,0.0589449496157,-1.28258975581,0.00582827509107,0.0306239139271,-0.00462980898548,0.999503262613
1573176722133707117,0,1573176721842506512,grasp_lab,tag_14,-1.04639625389,0.108278736834,-3.13459916904,0.00541061077479,0.0390503011026,0.00284996861931,0.999218533132
1573176722133779512,0,1573176721842506512,map,rig,0.175553364864,0.0623689966533,-0.0666695779793,0.999372658593,-0.00569651048079,-0.0349185041003,-0.00159282686164
1573176722133828286,0,1573176721842506512,rig,cam0,-5.16905195802e-24,9.72627984926e-25,5.20812410684e-24,-1.93679253017e-23,8.07337415447e-25,8.69088448565e-25,1.0
1573176722370730914,0,1573176722080085482,map,grasp_lab,-4.16969206214e-20,5.10714519836e-19,7.73002438362e-20,1.22819445051e-21,1.87883197505e-21,3.83829495943e-22,1.0
1573176722371468684,0,1573176722080085482,grasp_lab,tag_7,0.642,0.052,-2.605,-5.79343593428e-21,3.40144971943e-22,-1.76733139754e-21,1.0
1573176722371520243,0,1573176722080085482,grasp_lab,tag_9,-0.472322902476,0.0949783943356,-3.17929611584,0.0125143553964,0.0381536141964,-0.0194433090817,0.999004329502
1573176722371586470,0,1573176722080085482,grasp_lab,tag_8,-0.68373690153,0.0589261315832,-1.2825905915,0.00583575472325,0.0306330715247,-0.00463143435282,0.999502930817
1573176722371650735,0,1573176722080085482,grasp_lab,tag_14,-1.04639445519,0.108290381688,-3.13459903535,0.00542791802602,0.0390472247852,0.00284815328201,0.999218564662
1573176722371706637,0,1573176722080085482,map,rig,0.175518838901,0.0623234935556,-0.0667582702182,0.999372959452,-0.0056941234724,-0.0349099332992,-0.00160044713597
1573176722371770409,0,1573176722080085482,rig,cam0,-6.18631536347e-24,3.27575364023e-24,5.21952135861e-24,-1.98127487968e-23,2.95975422643e-24,2.51472929861e-25,1.0
1573176722619135782,0,1573176722308005185,map,grasp_lab,-5.41294586589e-20,4.66758164785e-19,7.74332916227e-20,1.69716312007e-21,1.59442817438e-21,5.53486223664e-22,1.0
1573176722619247759,0,1573176722308005185,grasp_lab,tag_7,0.642,0.052,-2.605,-5.68351885736e-21,-6.64625886567e-22,-1.566042468e-21,1.0
1573176722619329630,0,1573176722308005185,grasp_lab,tag_9,-0.472313731392,0.0949968928327,-3.17931283124,0.0125317879046,0.038143423818,-0.0194430395106,0.999004505358
1573176722619723449,0,1573176722308005185,grasp_lab,tag_8,-0.683750073442,0.0588998116983,-1.28261079684,0.00585273440111,0.0306350381044,-0.00463341620059,0.999502762075
1573176722622377860,0,1573176722308005185,grasp_lab,tag_14,-1.04638871684,0.108309995254,-3.13463078861,0.00543950282634,0.0390460072827,0.00284725928052,0.999218551789
1573176722622394687,0,1573176722308005185,map,rig,0.17540272237,0.0622517766734,-0.0667243196156,0.999373882527,-0.00570903324786,-0.0348808752459,-0.00160449526416
1573176722622400578,0,1573176722308005185,rig,cam0,-4.78764444502e-24,1.05017999586e-24,6.25050480538e-24,-1.77791130726e-23,2.10458827246e-24,1.26189258234e-24,1.0
1573176722862450735,0,1573176722566969502,map,grasp_lab,-5.73339219935e-20,4.83890349893e-19,7.35145898507e-20,1.38207854672e-21,1.39357601328e-21,4.24721671299e-22,1.0
1573176722863329254,0,1573176722566969502,grasp_lab,tag_7,0.642,0.052,-2.605,-5.80437302899e-21,-2.68960225428e-22,-2.20467137809e-21,1.0
1573176722863678641,0,1573176722566969502,grasp_lab,tag_9,-0.472305393583,0.0949909316378,-3.17931562219,0.0125076489424,0.0381075325852,-0.0194509637294,0.999006023349
1573176722869773753,0,1573176722566969502,grasp_lab,tag_8,-0.683762134982,0.0589532425453,-1.28262872063,0.00584269700922,0.0306413192659,-0.00463957934941,0.999502599671
1573176722869859579,0,1573176722566969502,grasp_lab,tag_14,-1.04638502101,0.108311227648,-3.1346549054,0.00541421347735,0.0390408487501,0.00284353360252,0.999218901311
1573176722870099811,0,1573176722566969502,map,rig,0.175432279174,0.0623705282755,-0.0667358518373,0.999373724579,-0.00569534274932,-0.0348888592999,-0.00157771641845
1573176722870115024,0,1573176722566969502,rig,cam0,-4.74793715878e-24,1.47562544202e-24,6.08768016844e-24,-2.14951243443e-23,6.55249657986e-25,6.70630927736e-25,1.0
1573176723092468831,0,1573176722800898627,map,grasp_lab,-2.20973926199e-20,3.32223783819e-19,7.81558637971e-20,1.83576561458e-21,1.46786651081e-21,6.28077846598e-22,1.0
1573176723092553464,0,1573176722800898627,grasp_lab,tag_7,0.642,0.052,-2.605,-3.68462193166e-21,7.3324802053e-23,-1.71310151014e-21,1.0
1573176723092601115,0,1573176722800898627,grasp_lab,tag_9,-0.47229313717,0.0949709898039,-3.17934865371,0.0124771933309,0.0381084284606,-0.0194498318789,0.999006392055
1573176723092647537,0,1573176722800898627,grasp_lab,tag_8,-0.683789667455,0.0590151121783,-1.28266106048,0.00582783723103,0.0306409503826,-0.0046428429327,0.999502682579
1573176723092687306,0,1573176722800898627,grasp_lab,tag_14,-1.04637421069,0.108295571993,-3.13470013381,0.00539957310321,0.0390353135306,0.00283684416652,0.9992192158
1573176723092926968,0,1573176722800898627,map,rig,0.175371808518,0.0624162005532,-0.0667470754302,0.999374044957,-0.0057092164903,-0.0348782180205,-0.00155981414617
1573176723092986929,0,1573176722800898627,rig,cam0,-5.73266164986e-24,-9.87432522291e-24,6.16581700985e-24,-1.60524414156e-23,1.86692604832e-24,1.14956213055e-24,1.0
1573176723328090001,0,1573176723032298969,map,grasp_lab,-5.10448941438e-20,4.91942275576e-19,5.42525641671e-20,1.3249991328e-21,1.35499451668e-21,5.56367176399e-22,1.0
1573176723328360992,0,1573176723032298969,grasp_lab,tag_7,0.642,0.052,-2.605,-5.80583852338e-21,-8.80382813347e-23,-1.92329645473e-21,1.0
1573176723328397413,0,1573176723032298969,grasp_lab,tag_9,-0.472298805066,0.0949773331478,-3.17931925704,0.0124893865964,0.0380870180558,-0.0194494965865,0.999007062718
1573176723328445510,0,1573176723032298969,grasp_lab,tag_8,-0.683770184972,0.0589968925872,-1.28264012875,0.00583807257421,0.0306554466802,-0.00464341214827,0.999502175696
1573176723328678250,0,1573176723032298969,grasp_lab,tag_14,-1.04638282358,0.108300854229,-3.13467752332,0.00540626300368,0.0390407579208,0.00284274572604,0.99921895015
1573176723328755728,0,1573176723032298969,map,rig,0.175477249267,0.0623935645542,-0.0666946731474,0.99937346455,-0.00571568373851,-0.0348938592563,-0.0015581716755
1573176723328763080,0,1573176723032298969,rig,cam0,-6.15555902672e-24,7.00314823621e-24,5.95912028086e-24,-1.22833282437e-23,3.1542922814e-24,-1.92751739789e-24,1.0
1573176723596132817,0,1573176723262990105,map,grasp_lab,-5.89167485188e-20,5.1662285307e-19,6.35388049185e-20,1.43529241696e-21,1.42093558274e-21,6.53540133475e-22,1.0
1573176723596370482,0,1573176723262990105,grasp_lab,tag_7,0.642,0.052,-2.605,-5.71139313622e-21,-8.14429853162e-24,-1.98949395803e-21,1.0
1573176723596384282,0,1573176723262990105,grasp_lab,tag_9,-0.472314607668,0.0949672733603,-3.1792958508,0.0124662762009,0.0381037990869,-0.0194512977436,0.999006676389
1573176723596390563,0,1573176723262990105,grasp_lab,tag_8,-0.683738590007,0.0590229671886,-1.28260560468,0.00583115608375,0.0306756222948,-0.00464235123652,0.999501601995
1573176723596395560,0,1573176723262990105,grasp_lab,tag_14,-1.04639164046,0.108291885369,-3.13462176173,0.00539584956376,0.03904500277,0.00284161558452,0.999218843791
1573176723596437800,0,1573176723262990105,map,rig,0.175486954672,0.0624601533659,-0.0667197734314,0.999373526012,-0.00571381055038,-0.0348927240768,-0.00155102636271
1573176723596448270,0,1573176723262990105,rig,cam0,-5.22957577573e-24,4.76361422436e-24,6.91149742122e-24,-1.40697305142e-23,3.71642548947e-24,-1.49711229574e-24,1.0
1573176723830515502,0,1573176723570426196,map,grasp_lab,-6.65287558696e-20,5.36906127544e-19,6.76991260463e-20,1.80986305033e-21,1.55283310461e-21,8.56764149296e-22,1.0
1573176723830618885,0,1573176723570426196,grasp_lab,tag_7,0.642,0.052,-2.605,-5.92164950046e-21,-2.10059190397e-22,-2.03227822989e-21,1.0
1573176723830683539,0,1573176723570426196,grasp_lab,tag_9,-0.472311041843,0.0949556897592,-3.17930634327,0.012469505933,0.038098890798,-0.0194553422261,0.999006744522
1573176723830740210,0,1573176723570426196,grasp_lab,tag_8,-0.683741648063,0.0590632317041,-1.28261776444,0.00582693660451,0.0306854087113,-0.0046446224411,0.999501315649
1573176723830785408,0,1573176723570426196,grasp_lab,tag_14,-1.04638716263,0.108283160755,-3.13463192745,0.00538665084589,0.0390391579497,0.00283778904221,0.999219132669
1573176723830794573,0,1573176723570426196,map,rig,0.17547015444,0.062540781549,-0.0667980508136,0.9993733732,-0.00572186531113,-0.0348967137902,-0.00152988981624
1573176723830841163,0,1573176723570426196,rig,cam0,-3.6381869342e-24,8.63095111667e-24,6.14469670662e-24,-1.0525764365e-23,5.28008422837e-24,2.47577178545e-24,1.0
1573176724087099479,0,1573176723794389082,map,grasp_lab,-5.73988190223e-20,4.81284647819e-19,4.18687108141e-20,1.45452996123e-21,6.1783254237e-22,8.14570750692e-22,1.0
1573176724087269863,0,1573176723794389082,grasp_lab,tag_7,0.642,0.052,-2.605,-5.88963815728e-21,-7.80284541649e-22,-2.12793276262e-21,1.0
1573176724087326515,0,1573176723794389082,grasp_lab,tag_9,-0.472324061315,0.0949680131871,-3.17926109624,0.0125260006576,0.0380886896157,-0.019462003571,0.999006297001
1573176724087763764,0,1573176723794389082,grasp_lab,tag_8,-0.683705300518,0.059039121814,-1.28257900963,0.00583943351103,0.0307037256367,-0.00464530394893,0.999500677038
1573176724087888254,0,1573176723794389082,grasp_lab,tag_14,-1.0464016017,0.108295347126,-3.1345838194,0.00540617144497,0.0390521253187,0.00283424903726,0.999218530578
1573176724088228114,0,1573176723794389082,map,rig,0.175539342231,0.062500332412,-0.066760819193,0.99937264651,-0.00571604728603,-0.034918318548,-0.00153337593256
1573176724088282901,0,1573176723794389082,rig,cam0,-1.35281231654e-24,3.62848980618e-24,6.72828536368e-24,-1.10955894206e-23,2.41305907877e-24,-9.75504269413e-25,1.0
1573176724327170863,0,1573176724022974046,map,grasp_lab,-3.0059563465e-20,3.78311937496e-19,5.46734547197e-20,1.59761146305e-21,1.26471642674e-21,4.02561141093e-22,1.0
1573176724327266321,0,1573176724022974046,grasp_lab,tag_7,0.642,0.052,-2.605,-4.49697439519e-21,7.68520986624e-22,-2.27004130978e-21,1.0
1573176724327994556,0,1573176724022974046,grasp_lab,tag_9,-0.472322482874,0.0949574440155,-3.17925643542,0.0125120020419,0.0380781658252,-0.0194646065381,0.999006822892
1573176724328201570,0,1573176724022974046,grasp_lab,tag_8,-0.683702836709,0.0590777335597,-1.28257985747,0.00583181127589,0.0307119617861,-0.00464808876821,0.999500455553
1573176724328394136,0,1573176724022974046,grasp_lab,tag_14,-1.04640109171,0.108288129873,-3.13458548017,0.00539826934718,0.0390472236927,0.00283072149199,0.999218774857
1573176724328641642,0,1573176724022974046,map,rig,0.175526963058,0.0625229362929,-0.0667288709371,0.999372724369,-0.00572185409426,-0.0349154482045,-0.00152631884379
1573176724331453709,0,1573176724022974046,rig,cam0,-5.4520793276e-24,3.95181636232e-24,6.1705234087e-24,-1.60437218922e-23,6.14564403572e-24,-1.03511994949e-24,1.0
1573176724611150452,0,1573176724284640331,map,grasp_lab,-2.2019155655e-20,5.56282299641e-19,6.97284171068e-20,1.93908933149e-21,1.25369820907e-21,5.84930983673e-22,1.0
1573176724611684255,0,1573176724284640331,grasp_lab,tag_7,0.642,0.052,-2.605,-5.6814491357e-21,4.61921796144e-22,-2.49173064333e-21,1.0
1573176724612008225,0,1573176724284640331,grasp_lab,tag_9,-0.472318323091,0.0949784060412,-3.17927310046,0.0124956648092,0.0380858208996,-0.0194616435771,0.999006793289
1573176724612256286,0,1573176724284640331,grasp_lab,tag_8,-0.683713337932,0.0590267092845,-1.28259111818,0.00585667750518,0.0307154211708,-0.00464766132375,0.99950020584
1573176724612453997,0,1573176724284640331,grasp_lab,tag_14,-1.04639511114,0.108306396713,-3.13459737366,0.00540970691079,0.0390430196348,0.00283127912697,0.999218875696
1573176724612681866,0,1573176724284640331,map,rig,0.175403399143,0.0624425558378,-0.0667616295944,0.999373504054,-0.005709039896,-0.0348945501483,-0.00154163200155
1573176724612864675,0,1573176724284640331,rig,cam0,-5.63263891491e-24,1.08249595865e-23,6.33568471641e-24,-1.51410260454e-23,6.92418752767e-24,-3.83655357894e-24,1.0
1573176724860485473,0,1573176724569599388,map,grasp_lab,-1.36254360789e-20,6.6635385084e-19,6.45533293833e-20,2.50637285937e-21,1.19933978912e-21,5.16327941289e-22,1.0
1573176724860577185,0,1573176724569599388,grasp_lab,tag_7,0.642,0.052,-2.605,-6.05022081556e-21,2.01507883488e-22,-2.84415984027e-21,1.0
1573176724860590161,0,1573176724569599388,grasp_lab,tag_9,-0.472313956714,0.094973871488,-3.17927810589,0.0125216667249,0.0380694323822,-0.0194631546914,0.999007062933
1573176724860595617,0,1573176724569599388,grasp_lab,tag_8,-0.683723056907,0.0590255932471,-1.2826009702,0.00585135939824,0.0307247936226,-0.00464594650708,0.999499956894
1573176724860606439,0,1573176724569599388,grasp_lab,tag_14,-1.0463928285,0.108300410238,-3.13461280506,0.0053911918349,0.0390478278143,0.00283673098273,0.999218772417
1573176724860611141,0,1573176724569599388,map,rig,0.17547089644,0.0624667082246,-0.0668003463336,0.999373033561,-0.00570473650322,-0.0349089398109,-0.00153678008592
1573176724860617957,0,1573176724569599388,rig,cam0,-5.26624278238e-24,2.19706762931e-23,6.11962503353e-24,-1.27139595607e-23,9.94064013023e-24,-3.62587466395e-24,1.0
1573176725104790504,0,1573176724825432413,map,grasp_lab,-1.60949213935e-20,6.82377543463e-19,6.25175662738e-20,1.49882137166e-21,1.08429581176e-21,5.52123800524e-22,1.0
1573176725104883798,0,1573176724825432413,grasp_lab,tag_7,0.642,0.052,-2.605,-7.39462187628e-21,-3.31818356102e-22,-3.48120913062e-21,1.0
1573176725104932671,0,1573176724825432413,grasp_lab,tag_9,-0.472313414352,0.0949928058321,-3.17927543781,0.0125532319553,0.0380670584205,-0.0194614404161,0.999006790651
1573176725105368522,0,1573176724825432413,grasp_lab,tag_8,-0.683721048814,0.0589633032716,-1.28260106557,0.00587963612127,0.0307351037887,-0.00464489608659,0.999499478847
1573176725105426101,0,1573176724825432413,grasp_lab,tag_14,-1.04639469986,0.108314552489,-3.13461686293,0.00539723848897,0.0390475436037,0.0028419112782,0.999218736161
1573176725105468999,0,1573176724825432413,map,rig,0.175361908503,0.0623344070787,-0.0667791303252,0.999373801541,-0.00570307502385,-0.0348862173644,-0.00155934816348
1573176725108758857,0,1573176724825432413,rig,cam0,-5.83525797586e-24,2.72455445556e-23,6.04367498737e-24,-1.26861962854e-23,6.83986659227e-24,-4.24282218203e-24,1.0
1573176725349080202,0,1573176725047669796,map,grasp_lab,-6.30644770178e-21,6.42752210324e-19,6.25051994585e-20,2.77682514301e-21,1.24873524215e-21,4.7748778707e-22,1.0
1573176725352825263,0,1573176725047669796,grasp_lab,tag_7,0.642,0.052,-2.605,-5.68962037716e-21,1.36137951798e-22,-3.25059028513e-21,1.0
1573176725353792547,0,1573176725047669796,grasp_lab,tag_9,-0.47232025684,0.0950152090625,-3.17924544218,0.0126120963933,0.0380652084692,-0.0194657907848,0.999006034976
1573176725353803359,0,1573176725047669796,grasp_lab,tag_8,-0.683702622112,0.0589056489971,-1.28258183799,0.00590570933413,0.0307549177669,-0.00464466969872,0.999498716694
1573176725353808187,0,1573176725047669796,grasp_lab,tag_14,-1.04640173404,0.108334542183,-3.13458400755,0.00541570969674,0.0390486156511,0.0028444198076,0.999218587187
1573176725353819267,0,1573176725047669796,map,rig,0.175506161661,0.0622253588324,-0.066705185695,0.999372811041,-0.00570551751996,-0.0349131337446,-0.00158262871101
1573176725353828851,0,1573176725047669796,rig,cam0,-7.3733155096e-24,2.51103076456e-23,6.23418262383e-24,-9.77585576666e-24,6.44293990931e-24,-4.23569089676e-24,1.0
1573176725632581520,0,1573176725286248960,map,grasp_lab,2.71751809753e-21,6.25338615302e-19,7.2741385216e-20,3.12942428081e-21,9.57943891168e-22,4.80329639529e-22,1.0
1573176725632596460,0,1573176725286248960,grasp_lab,tag_7,0.642,0.052,-2.605,-5.69884671162e-21,-4.40584339471e-23,-3.17320267263e-21,1.0
1573176725632605686,0,1573176725286248960,grasp_lab,tag_9,-0.472319710442,0.0950190406397,-3.17925254261,0.0126014189412,0.0380690305834,-0.0194656636268,0.999006026554
1573176725632611769,0,1573176725286248960,grasp_lab,tag_8,-0.683706285363,0.0588967293946,-1.28258449347,0.00591248547306,0.0307618431808,-0.00464568794955,0.99949845878
1573176725632617043,0,1573176725286248960,grasp_lab,tag_14,-1.04639675898,0.108338019974,-3.13457873235,0.00542823049255,0.0390403985513,0.00284193454524,0.999218847402
1573176725632623961,0,1573176725286248960,map,rig,0.175582299938,0.0621999451023,-0.066654987188,0.99937227652,-0.00570807425989,-0.0349275462082,-0.0015928987508
1573176725632630331,0,1573176725286248960,rig,cam0,-7.16942463629e-24,2.44204685751e-23,5.88064808213e-24,-1.34004696368e-23,5.46029887109e-24,-5.01831263751e-24,1.0
1573176725868188292,0,1573176725604358746,map,grasp_lab,3.74048032508e-22,7.22212879516e-19,7.64340431293e-20,4.10759193644e-21,1.04777948092e-21,3.63793584e-22,1.0
1573176725868494335,0,1573176725604358746,grasp_lab,tag_7,0.642,0.052,-2.605,-5.72159480027e-21,9.51041088075e-23,-3.73660151639e-21,1.0
1573176725868507086,0,1573176725604358746,grasp_lab,tag_9,-0.472294639338,0.0949835756863,-3.17930891232,0.0125333828611,0.0380443533313,-0.0194721549466,0.999007696004
1573176725868701067,0,1573176725604358746,grasp_lab,tag_8,-0.683745061574,0.0590123408952,-1.28264082989,0.00588169812745,0.030761980421,-0.00465272888659,0.999498603452
1573176725868774512,0,1573176725604358746,grasp_lab,tag_14,-1.04636900854,0.108310642646,-3.13464725304,0.00535796332619,0.0390022165738,0.00283893926742,0.999220726244
1573176725868823408,0,1573176725604358746,map,rig,0.173971699267,0.0637637785911,-0.104435445556,0.999383196129,-0.00684585877711,-0.0343907707331,-0.00190693497497
1573176725868874110,0,1573176725604358746,rig,cam0,-5.10481060417e-24,2.37564331264e-23,6.83057984746e-24,-1.44610978968e-23,8.60066187423e-24,-4.6865345866e-24,1.0
1573176726125886858,0,1573176725830707083,map,grasp_lab,1.18488595913e-20,7.25431858579e-19,7.44387057132e-20,4.18781539288e-21,9.04889441941e-22,-1.79803407633e-22,1.0
1573176726125968808,0,1573176725830707083,grasp_lab,tag_7,0.642,0.052,-2.605,-5.32582249645e-21,3.06135301328e-22,-3.94407999523e-21,1.0
1573176726126166352,0,1573176725830707083,grasp_lab,tag_9,-0.472280909377,0.0949636725914,-3.17935571521,0.0125113182002,0.0380382117496,-0.0194842366416,0.999007970882
1573176726126217478,0,1573176725830707083,grasp_lab,tag_8,-0.683780277371,0.0591316661671,-1.28268283837,0.00584369041331,0.0307583763332,-0.00466371566182,0.999498886104
1573176726126334660,0,1573176725830707083,grasp_lab,tag_14,-1.04635592799,0.108304468842,-3.13470287402,0.00532177415201,0.0389833293772,0.00282995346373,0.999221682168
1573176726126512181,0,1573176725830707083,map,rig,0.169360575369,0.0653121343709,-0.144696944055,0.999407939422,-0.00488550997504,-0.0339391557907,-0.00283480465752
1573176726126521642,0,1573176725830707083,rig,cam0,-1.19678941325e-23,1.87734558311e-23,7.14820817397e-24,-3.18764251865e-23,5.71894999089e-24,-6.7579174565e-24,1.0
1573176726379490247,0,1573176726095766498,map,grasp_lab,-1.08097285979e-20,8.65430466676e-19,7.86436635375e-20,3.76180651737e-21,1.00171286715e-21,1.54571107303e-22,1.0
1573176726379799917,0,1573176726095766498,grasp_lab,tag_7,0.642,0.052,-2.605,-7.55834777221e-21,2.056601176e-22,-4.47840813252e-21,1.0
1573176726381804770,0,1573176726095766498,grasp_lab,tag_9,-0.472278324779,0.0949664553171,-3.17936208552,0.0125050774781,0.0380447853367,-0.0194932791669,0.9990076223
1573176726381814422,0,1573176726095766498,grasp_lab,tag_8,-0.683785320161,0.0591657246018,-1.28268784939,0.00581675814551,0.0307674158643,-0.00466812605896,0.999498744394
1573176726381826350,0,1573176726095766498,grasp_lab,tag_14,-1.04635167104,0.108313818885,-3.13470632039,0.00531798480538,0.0389778542907,0.00282021619699,0.999221943461
1573176726381837167,0,1573176726095766498,map,rig,0.166976645111,0.0667558144093,-0.187828995961,0.999399060437,-0.0048755191348,-0.034273355446,-0.00175625064229
1573176726381918905,0,1573176726095766498,rig,cam0,-1.25019124762e-23,1.60993830884e-23,6.92942579898e-24,-1.53408017654e-23,7.28006457199e-24,-3.42714890721e-24,1.0
1573176726675436427,0,1573176726350762987,map,grasp_lab,-1.04194617802e-20,6.63816199504e-19,7.58658892369e-20,1.64625472803e-21,7.56648854885e-22,7.36304354443e-22,1.0
1573176726675572700,0,1573176726350762987,grasp_lab,tag_7,0.642,0.052,-2.605,-8.45812631665e-21,-2.18788363168e-22,-3.36229543348e-21,1.0
1573176726675804387,0,1573176726350762987,grasp_lab,tag_9,-0.472280509171,0.0950318461131,-3.17934839378,0.0126194021233,0.0380367567166,-0.0194977705173,0.999006402769
1573176726675930441,0,1573176726350762987,grasp_lab,tag_8,-0.683787025218,0.0590180660813,-1.28268927779,0.00583999353326,0.0307991738684,-0.00466600422724,0.999497640702
1573176726676089969,0,1573176726350762987,grasp_lab,tag_14,-1.0463601247,0.10837503781,-3.13470523926,0.00538516077215,0.0389776564311,0.00281792009125,0.99922159788
1573176726676839669,0,1573176726350762987,map,rig,0.163979602982,0.0676493026609,-0.22604599453,0.999424931296,-0.00425034839365,-0.0336392815307,-0.000374140685482
1573176726676910957,0,1573176726350762987,rig,cam0,-1.1998372817e-23,1.19859125261e-23,6.98256406888e-24,-9.04917665771e-24,4.02369422927e-24,-3.01258718925e-24,1.0
1573176726915197363,0,1573176726637950252,map,grasp_lab,-3.88764122246e-20,7.58290852761e-19,7.48832249649e-20,5.28500114874e-21,8.80768234968e-22,7.23398775805e-22,1.0
1573176726915344941,0,1573176726637950252,grasp_lab,tag_7,0.642,0.052,-2.605,-5.54442397993e-21,-4.84379181e-22,-3.42205798294e-21,1.0
1573176726915473817,0,1573176726637950252,grasp_lab,tag_9,-0.472301407788,0.0950529065094,-3.17930989217,0.012636772597,0.0380622772967,-0.0194966930418,0.999005232211
1573176726915608731,0,1573176726637950252,grasp_lab,tag_8,-0.683756404321,0.0589676161749,-1.28264980933,0.00584235136313,0.0308404038959,-0.00466655229589,0.999496353024
1573176726915741677,0,1573176726637950252,grasp_lab,tag_14,-1.0463761985,0.108394081689,-3.13463376305,0.00538950737879,0.0389869631357,0.00281851387118,0.99922120969
1573176726915903645,0,1573176726637950252,map,rig,0.16101298105,0.0690378461172,-0.274790631487,0.999439937636,-0.0043924922304,-0.0331595787401,0.000979493624097
1573176726916046138,0,1573176726637950252,rig,cam0,-1.10836790517e-23,2.35137237863e-23,6.53630004234e-24,-3.94286589778e-23,2.65856235235e-24,-3.78077872649e-24,1.0
1573176727342067482,0,1573176726870757358,map,grasp_lab,2.97087220981e-22,2.87919982445e-21,-3.6926214121e-21,5.17483309327e-23,-1.36422444437e-22,2.37746824707e-23,1.0
1573176727342084311,0,1573176726870757358,grasp_lab,tag_7,0.642,0.052,-2.605,-1.38831009806e-22,-7.26871491361e-23,-1.74657285947e-22,1.0
1573176727342230549,0,1573176726870757358,grasp_lab,tag_9,-0.472309041917,0.0950548626436,-3.1793003129,0.012594223615,0.0380772230085,-0.0194983595568,0.999005167451
1573176727342281206,0,1573176726870757358,grasp_lab,tag_8,-0.683740940452,0.0589853962938,-1.28262975759,0.00583742819712,0.0308456583348,-0.00466913007424,0.999496207606
1573176727342322724,0,1573176726870757358,grasp_lab,tag_14,-1.04637677349,0.108398692228,-3.13459629483,0.00538435586881,0.0389774537446,0.0028132953942,0.999221623155
1573176727342413099,0,1573176726870757358,map,rig,0.159079046463,0.0689185309627,-0.31341449301,0.999454688217,-0.00433552755453,-0.0326927912098,0.00164645233178
1573176727342457507,0,1573176726870757358,rig,cam0,-6.32136103461e-25,3.65005774189e-25,2.15072806551e-25,6.98976571783e-26,1.25935751775e-25,-1.19445897873e-26,1.0
