%time,field.transforms0.header.seq,field.transforms0.header.stamp,field.transforms0.header.frame_id,field.transforms0.child_frame_id,field.transforms0.transform.translation.x,field.transforms0.transform.translation.y,field.transforms0.transform.translation.z,field.transforms0.transform.rotation.x,field.transforms0.transform.rotation.y,field.transforms0.transform.rotation.z,field.transforms0.transform.rotation.w
1573178782598088586,0,1573178782292459117,map,grasp_lab,1.91801279228e-19,3.99714226553e-19,4.81944112158e-21,9.64699257712e-21,-1.67292147192e-21,4.02726179366e-22,1.0
1573178782598259126,0,1573178782292459117,grasp_lab,tag_7,0.469,-0.018,-2.54,8.55574455034e-21,-9.94674950231e-22,1.54594288851e-21,1.0
1573178782598269871,0,1573178782292459117,grasp_lab,tag_14,-1.21932629555,0.0389498458864,-3.07073438927,0.00367994749774,0.0394492059496,0.00259765154695,0.999211424246
1573178782598275914,0,1573178782292459117,grasp_lab,tag_8,-0.857577632519,-0.00719002530607,-1.21792515073,0.00380174103575,0.0322788225537,-0.0052558827165,0.999457853077
1573178782598281615,0,1573178782292459117,grasp_lab,tag_9,-0.645102177346,0.0249669209187,-3.11508228559,0.0138891892596,0.0383357136308,-0.0200628907566,0.99896693834
1573178782598285609,0,1573178782292459117,map,rig,-0.000271682928984,-0.00242526533121,0.00334207290763,0.999529795734,-0.00528887634235,-0.0302024854364,-0.000158429800675
1573178782598293737,0,1573178782292459117,rig,cam0,5.7014635295e-24,-8.37694746722e-23,1.02910278249e-24,5.72686142973e-24,-1.21983783025e-23,-9.65017199087e-25,1.0
1573178782818224425,0,1573178782551721237,map,grasp_lab,2.13241156091e-19,4.85601216095e-19,-2.75889047837e-21,1.08387713078e-20,-1.58769972298e-21,8.03635153124e-22,1.0
1573178782818304012,0,1573178782551721237,grasp_lab,tag_7,0.469,-0.018,-2.54,7.51612105887e-21,-7.52642392854e-22,1.83888460015e-21,1.0
1573178782818346634,0,1573178782551721237,grasp_lab,tag_14,-1.21935786051,0.0389029056205,-3.07072183161,0.0036252574006,0.0394804594054,0.00260866290569,0.999210361091
1573178782818358766,0,1573178782551721237,grasp_lab,tag_8,-0.857566018882,-0.007183459141,-1.21786879877,0.00377986679237,0.0322816814443,-0.00524775286787,0.999457886426
1573178782818366381,0,1573178782551721237,grasp_lab,tag_9,-0.645135308509,0.0249303896681,-3.11512533462,0.013867230304,0.0384825606894,-0.0200442626311,0.998961971239
1573178782818372644,0,1573178782551721237,map,rig,-0.000323928546667,-0.00241318807025,0.00333750185562,0.999530004944,-0.00529895020222,-0.0301938342889,-0.000150709978038
1573178782818376840,0,1573178782551721237,rig,cam0,4.80443922122e-24,-8.44833803127e-23,1.7621714804e-24,7.51944095555e-24,-1.18271568515e-23,-1.82914957788e-24,1.0
1573178783028578528,0,1573178782762941028,map,grasp_lab,2.32652164716e-19,5.62516925669e-19,2.19896684434e-20,9.94856352462e-21,-1.09470300878e-21,6.93443019275e-22,1.0
1573178783028597255,0,1573178782762941028,grasp_lab,tag_7,0.469,-0.018,-2.54,5.20236365301e-21,-8.14014552716e-22,4.52920000434e-21,1.0
1573178783028604245,0,1573178782762941028,grasp_lab,tag_14,-1.2193023212,0.0388832540516,-3.07089343502,0.00353818397764,0.0394492419548,0.0026043142015,0.999211917518
1573178783028608930,0,1573178782762941028,grasp_lab,tag_8,-0.857661975402,-0.00696380276445,-1.21800927711,0.00372278652462,0.0322287399355,-0.00526936789928,0.999459695508
1573178783028614985,0,1573178782762941028,grasp_lab,tag_9,-0.645082502705,0.0248851826087,-3.11526483475,0.0138835218293,0.0384342677762,-0.0200742382584,0.998963002238
1573178783028632162,0,1573178782762941028,map,rig,-0.000468477530666,-0.00206845502735,0.00325504522466,0.999530832359,-0.00531138639144,-0.0301644919857,-8.80963048651e-05
1573178783028648158,0,1573178782762941028,rig,cam0,7.53228224659e-24,-7.53853036048e-23,2.0805672565e-24,1.5901550497e-23,-1.07289337675e-23,-5.60583335476e-24,1.0
1573178783244429516,0,1573178782971285729,map,grasp_lab,2.67650321228e-19,5.58079147714e-19,1.79000047068e-20,9.61370272219e-21,-1.36496212423e-21,4.03904168517e-22,1.0
1573178783244443260,0,1573178782971285729,grasp_lab,tag_7,0.469,-0.018,-2.54,5.82280890171e-21,-1.33231203847e-21,1.01438857314e-21,1.0
1573178783244453858,0,1573178782971285729,grasp_lab,tag_14,-1.21930307907,0.0388614593227,-3.07089362433,0.00347798816297,0.0394882091512,0.00260086125832,0.999210598651
1573178783244458500,0,1573178782971285729,grasp_lab,tag_8,-0.857675278162,-0.00689511591513,-1.21801494912,0.00366144738602,0.0322300655344,-0.00526799383563,0.999459886599
1573178783244464978,0,1573178782971285729,grasp_lab,tag_9,-0.645083419161,0.0248600422846,-3.11527532455,0.0136655240103,0.0384477251093,-0.0200643409572,0.998965689155
1573178783244471847,0,1573178782971285729,map,rig,-0.000436177699357,-0.00192783643923,0.00322885381003,0.999530671086,-0.0053098822595,-0.0301701641887,-6.2464098238e-05
1573178783244477656,0,1573178782971285729,rig,cam0,7.32434624883e-24,-8.34259389944e-23,1.35774813094e-24,1.92505984529e-23,-1.27384990959e-23,-9.00806394767e-24,1.0
1573178783487186193,0,1573178783179047323,map,grasp_lab,2.58671272367e-19,6.46139201289e-19,5.32199733131e-21,1.01403594294e-20,-1.1339255299e-21,4.29093109263e-22,1.0
1573178783487302131,0,1573178783179047323,grasp_lab,tag_7,0.469,-0.018,-2.54,5.94365780426e-21,-9.76942061274e-22,2.3414075593e-21,1.0
1573178783487406056,0,1573178783179047323,grasp_lab,tag_14,-1.21923628072,0.0387750308011,-3.07106063521,0.00339531791494,0.0394498322006,0.00258515187616,0.999212439647
1573178783487701900,0,1573178783179047323,grasp_lab,tag_8,-0.85778518633,-0.00667603486016,-1.21817061177,0.00357147378612,0.0321683047737,-0.00526606416092,0.999462212048
1573178783488067950,0,1573178783179047323,grasp_lab,tag_9,-0.645028312318,0.0247669467448,-3.11543356342,0.0135337565363,0.0383736274308,-0.0200471636342,0.998970676938
1573178783488160120,0,1573178783179047323,map,rig,-0.000637692116759,-0.00152513215062,0.00315041896114,0.999531897062,-0.00530351880031,-0.0301307006722,1.79281199254e-05
1573178783488196523,0,1573178783179047323,rig,cam0,1.11943140584e-23,-8.15574027874e-23,2.62381054224e-24,2.43523269687e-23,-8.39838405326e-24,-2.81537635334e-24,1.0
1573178783712482632,0,1573178783435185447,map,grasp_lab,2.40578032166e-19,3.84609610802e-19,2.12414797044e-20,9.77608175989e-21,-8.19166723221e-22,1.22266026398e-21,1.0
1573178783712502546,0,1573178783435185447,grasp_lab,tag_7,0.469,-0.018,-2.54,7.2793326905e-21,-1.67659586105e-21,3.65815108819e-21,1.0
1573178783712509550,0,1573178783435185447,grasp_lab,tag_14,-1.21921451845,0.0389041292919,-3.07107002185,0.00346254304113,0.0394363677656,0.00259491007822,0.999212715159
1573178783712514622,0,1573178783435185447,grasp_lab,tag_8,-0.857814060531,-0.00699419026974,-1.2182136267,0.00367987689271,0.0321491284863,-0.0052596848678,0.99946246941
1573178783712521422,0,1573178783435185447,grasp_lab,tag_9,-0.645022036135,0.0249062298157,-3.11549713622,0.0135385542799,0.0384169859118,-0.0200325377165,0.998969238853
1573178783712528921,0,1573178783435185447,map,rig,-0.000738347028808,-0.00215387263579,0.0031611693958,0.999532473653,-0.00530610764052,-0.0301109361728,-0.000104204502641
1573178783712535262,0,1573178783435185447,rig,cam0,1.34056815173e-23,-8.82648085278e-23,2.14398306884e-24,3.24157459251e-23,-7.99193990188e-24,-4.8582205503e-24,1.0
1573178783934297676,0,1573178783637016842,map,grasp_lab,2.82285255799e-19,4.29013886257e-19,2.77301648046e-20,9.97119102363e-21,-1.00660158036e-21,6.51152000718e-22,1.0
1573178783934353131,0,1573178783637016842,grasp_lab,tag_7,0.469,-0.018,-2.54,4.83169282556e-21,-1.23114614138e-21,1.06944206875e-21,1.0
1573178783934367975,0,1573178783637016842,grasp_lab,tag_14,-1.21922527036,0.038982795432,-3.07103860433,0.00357328966278,0.0394200311278,0.00261635691452,0.999212913959
1573178783934403927,0,1573178783637016842,grasp_lab,tag_8,-0.857811247938,-0.00737031859949,-1.21820327128,0.00379854156333,0.0321481394216,-0.0052380665162,0.999462170806
1573178783934602159,0,1573178783637016842,grasp_lab,tag_9,-0.645037202452,0.0250142321567,-3.11550374848,0.0136847541317,0.0384981679108,-0.0200189297828,0.998964394271
1573178783934610359,0,1573178783637016842,map,rig,-0.00069157718415,-0.00281268554676,0.00321491857138,0.999532362322,-0.00528741794533,-0.0301172065363,-0.000231846425903
1573178783934614238,0,1573178783637016842,rig,cam0,1.16430449448e-23,-9.56079603374e-23,1.02714298049e-24,3.32663774486e-23,-1.03425415576e-23,-1.38693923447e-23,1.0
1573178784137796720,0,1573178783885020016,map,grasp_lab,2.94549924375e-19,5.47498528982e-19,1.17154649021e-20,1.1839792248e-20,-7.04249405134e-22,4.87597928502e-22,1.0
1573178784137823461,0,1573178783885020016,grasp_lab,tag_7,0.469,-0.018,-2.54,4.38016282657e-21,-8.04617771276e-22,1.16302945861e-21,1.0
1573178784137829435,0,1573178783885020016,grasp_lab,tag_14,-1.21922586856,0.0388868460624,-3.07102302001,0.00342052219994,0.0394244137744,0.00260691501207,0.999213300362
1573178784137835881,0,1573178783885020016,grasp_lab,tag_8,-0.857784025518,-0.00703303288071,-1.21819363734,0.00369740113243,0.0321484611565,-0.00525490272067,0.999462451354
1573178784137847912,0,1573178783885020016,grasp_lab,tag_9,-0.64503511313,0.0248978035566,-3.11546900532,0.0137050479637,0.0384737587676,-0.0200433236587,0.998964567301
1573178784137857113,0,1573178783885020016,map,rig,-0.000673774643791,-0.00218002350286,0.00318354063142,0.999532175254,-0.00531289524105,-0.0301196187372,-0.000111098081362
1573178784137861834,0,1573178783885020016,rig,cam0,5.86466703622e-24,-7.293914206e-23,-9.91633339098e-25,3.91199129336e-23,-9.66402283474e-24,-1.14128016546e-23,1.0
1573178784337410987,0,1573178784075143118,map,grasp_lab,2.83610095408e-19,5.15258649727e-19,9.67113131349e-21,1.18604658954e-20,-1.10855782742e-21,9.48713045088e-22,1.0
1573178784337587871,0,1573178784075143118,grasp_lab,tag_7,0.469,-0.018,-2.54,4.32975949382e-21,-8.10339140334e-22,3.49835794334e-21,1.0
1573178784337720834,0,1573178784075143118,grasp_lab,tag_14,-1.21921743857,0.0388824902563,-3.07109117479,0.00345653135247,0.0394324700584,0.00259999000376,0.999212876592
1573178784337844990,0,1573178784075143118,grasp_lab,tag_8,-0.857818718631,-0.00706554186908,-1.21824602308,0.00370158661703,0.0321362178335,-0.00524888841566,0.999462861206
1573178784337958938,0,1573178784075143118,grasp_lab,tag_9,-0.645011138839,0.0248974105788,-3.11546819714,0.013839678741,0.0384207549912,-0.0200630682228,0.998964354805
1573178784338144030,0,1573178784075143118,map,rig,-0.000753491506873,-0.00221270222796,0.0031505583592,0.999532669174,-0.00529494031484,-0.0301063690523,-0.00011577650539
1573178784338270020,0,1573178784075143118,rig,cam0,7.46852392709e-24,-9.24439348685e-23,-3.21446906629e-25,3.12275549355e-23,-1.02337522218e-23,-6.3976662226e-24,1.0
1573178784540711935,0,1573178784256106300,map,grasp_lab,3.05621381578e-19,6.4381583958e-19,2.75511577299e-20,1.17735487077e-20,-7.34915841891e-22,5.62348978537e-22,1.0
1573178784540732946,0,1573178784256106300,grasp_lab,tag_7,0.469,-0.018,-2.54,6.31108498794e-21,-2.14317452674e-22,2.42792452809e-21,1.0
1573178784540739386,0,1573178784256106300,grasp_lab,tag_14,-1.21920685999,0.0388928189039,-3.07115586763,0.00350368647666,0.0394342377881,0.00257775588717,0.999212700202
1573178784540760539,0,1573178784256106300,grasp_lab,tag_8,-0.857856902225,-0.00707519766163,-1.21827408521,0.00370790522248,0.0321050228032,-0.00524814938292,0.999463844207
1573178784540765126,0,1573178784256106300,grasp_lab,tag_9,-0.645002226974,0.0249064882417,-3.11554213217,0.0137031777486,0.0384984021776,-0.0200451775471,0.998963606347
1573178784540774979,0,1573178784256106300,map,rig,-0.000879934442517,-0.00225104483235,0.003128885033,0.999533308303,-0.00530629055232,-0.0300831148154,-0.000122783490587
1573178784540779750,0,1573178784256106300,rig,cam0,3.81349351726e-24,-9.49352507423e-23,-2.22212218998e-27,2.31195912169e-23,-7.20837684514e-24,-8.16756832143e-24,1.0
1573178784762367076,0,1573178784484975473,map,grasp_lab,2.94764455982e-19,8.58375143691e-19,2.0631307473e-20,1.10780192301e-20,-2.91903921933e-22,1.9476519117e-22,1.0
1573178784762617422,0,1573178784484975473,grasp_lab,tag_7,0.469,-0.018,-2.54,4.71252005732e-21,-1.02242163878e-22,1.53394957458e-21,1.0
1573178784762758531,0,1573178784484975473,grasp_lab,tag_14,-1.21923856406,0.0388685153422,-3.07103174666,0.00352323219946,0.0394660720537,0.00259134478129,0.999211339469
1573178784762767118,0,1573178784484975473,grasp_lab,tag_8,-0.857775926687,-0.00711724301001,-1.21817960182,0.00371962241923,0.0321333997975,-0.00524690359749,0.999462895274
1573178784762901946,0,1573178784484975473,grasp_lab,tag_9,-0.645043392922,0.0248939947413,-3.11548444277,0.013603265916,0.038533083892,-0.0200246605987,0.998964046185
1573178784763010386,0,1573178784484975473,map,rig,-0.000633811353636,-0.00232851249442,0.00319950989636,0.99953195277,-0.00529657288238,-0.0301297819227,-0.00013397534514
1573178784763071916,0,1573178784484975473,rig,cam0,8.81863939969e-24,-9.25032288017e-23,1.86828041399e-24,2.0478308941e-23,-2.58778234577e-24,-9.86475606761e-24,1.0
1573178784982048815,0,1573178784712241029,map,grasp_lab,3.35277828418e-19,6.57337476042e-19,1.92479195365e-20,1.00334192731e-20,-5.64738048552e-23,9.68642365464e-23,1.0
1573178784982066235,0,1573178784712241029,grasp_lab,tag_7,0.469,-0.018,-2.54,4.91781412224e-21,3.63831515739e-22,2.92965723701e-21,1.0
1573178784982076803,0,1573178784712241029,grasp_lab,tag_14,-1.2191737365,0.0388778092639,-3.07116921745,0.00343919055852,0.0394411650836,0.00258269968418,0.999212638094
1573178784982084047,0,1573178784712241029,grasp_lab,tag_8,-0.857892716934,-0.00695969641429,-1.21832700404,0.0036730637279,0.0320944802432,-0.00526449672783,0.99946422548
1573178784982089322,0,1573178784712241029,grasp_lab,tag_9,-0.644988380951,0.0248811547285,-3.11559869002,0.0135826785577,0.0384874492915,-0.0200457445542,0.998965662681
1573178784982094292,0,1573178784712241029,map,rig,-0.000842546881947,-0.00204675137461,0.00314590959069,0.999533112055,-0.00531055558648,-0.0300890109809,-8.55794433791e-05
1573178784982100981,0,1573178784712241029,rig,cam0,6.26000921991e-24,-9.63154504103e-23,9.98131896907e-25,3.17359690633e-23,-6.90867584005e-25,-9.00054244085e-24,1.0
1573178785201926353,0,1573178784902066824,map,grasp_lab,2.98289332593e-19,6.86878265706e-19,5.77971030257e-20,1.03610758153e-20,-2.98225950823e-22,4.32925157232e-22,1.0
1573178785201939998,0,1573178784902066824,grasp_lab,tag_7,0.469,-0.018,-2.54,5.20827825312e-21,-1.13731246643e-21,3.15480974677e-22,1.0
1573178785202123249,0,1573178784902066824,grasp_lab,tag_14,-1.21911546367,0.0388619803093,-3.07131762278,0.00344660529831,0.0393934179259,0.00259820554537,0.999214455892
1573178785202230751,0,1573178784902066824,grasp_lab,tag_8,-0.858011919858,-0.00702461036665,-1.21845216767,0.00368237695071,0.032039497382,-0.00524955710038,0.999466033869
1573178785202304972,0,1573178784902066824,grasp_lab,tag_9,-0.644933442113,0.0248776642794,-3.11571534809,0.0136129295352,0.0384372126595,-0.0200377989987,0.998967344533
1573178785202409060,0,1573178784902066824,map,rig,-0.00119236814566,-0.00217600325381,0.00309020264999,0.99953520141,-0.0053098252684,-0.0300195802569,-0.000108160080091
1573178785202450816,0,1573178784902066824,rig,cam0,9.37204345294e-24,-9.15236814112e-23,2.96663613343e-24,2.93368503628e-23,7.26567024158e-25,-6.38518645048e-24,1.0
1573178785421252935,0,1573178785156866118,map,grasp_lab,3.5226845437e-19,6.87006418489e-19,5.77881027162e-20,1.00849544784e-20,8.41734015341e-23,1.55250097604e-22,1.0
1573178785421328711,0,1573178785156866118,grasp_lab,tag_7,0.469,-0.018,-2.54,4.66044069666e-21,-9.05308376185e-23,-3.54653205651e-22,1.0
1573178785421346221,0,1573178785156866118,grasp_lab,tag_14,-1.21907378939,0.0389216372688,-3.07143757459,0.00348211621169,0.0393433065183,0.0026209190736,0.999216247807
1573178785421358899,0,1573178785156866118,grasp_lab,tag_8,-0.858105265737,-0.00727586260195,-1.21856466628,0.00377078299461,0.0320207592543,-0.00523574753245,0.999466377183
1573178785421364624,0,1573178785156866118,grasp_lab,tag_9,-0.644891121994,0.0249550784727,-3.11580199614,0.0136228136737,0.0383971383598,-0.0200211417261,0.998969084906
1573178785421370193,0,1573178785156866118,map,rig,-0.00142822366786,-0.00259849370925,0.0030814292327,0.999536656651,-0.00528813263176,-0.0299745319796,-0.000187342893284
1573178785421376645,0,1573178785156866118,rig,cam0,8.6556469774e-24,-1.07676194696e-22,8.48242963134e-25,3.11299402941e-23,8.09966353309e-24,-8.28381938662e-24,1.0
1573178785641940176,0,1573178785347332233,map,grasp_lab,3.33441962893e-19,6.43798510193e-19,6.33361696676e-20,9.27859060692e-21,-6.66974595708e-23,7.4617131387e-24,1.0
1573178785641952308,0,1573178785347332233,grasp_lab,tag_7,0.469,-0.018,-2.54,3.74213993126e-21,2.12080353279e-22,-1.68753899743e-24,1.0
1573178785641956313,0,1573178785347332233,grasp_lab,tag_14,-1.21906487278,0.0389151723313,-3.07135521216,0.0034733045512,0.0393613657978,0.00262444688345,0.999215557984
1573178785641960195,0,1573178785347332233,grasp_lab,tag_8,-0.858083959186,-0.00724498820145,-1.21853994129,0.00377322153947,0.0320402206131,-0.00524004186672,0.999465721785
1573178785641969351,0,1573178785347332233,grasp_lab,tag_9,-0.644894917441,0.0249460076891,-3.11574331363,0.013702721877,0.0383561261675,-0.0200350474253,0.998969288754
1573178785641975158,0,1573178785347332233,map,rig,-0.00130661574942,-0.00253930677107,0.00309585600116,0.99953592243,-0.00529332270907,-0.029998157828,-0.000176164760207
1573178785641983372,0,1573178785347332233,rig,cam0,9.63596901859e-24,-9.78025087555e-23,1.23467344687e-24,2.2237752895e-23,1.75448832162e-24,-1.01549133077e-23,1.0
1573178785867662835,0,1573178785583683525,map,grasp_lab,4.09660651742e-19,5.71589934657e-19,9.08565791217e-20,8.91315218139e-21,1.1637100571e-22,8.57650794548e-22,1.0
1573178785867679680,0,1573178785583683525,grasp_lab,tag_7,0.469,-0.018,-2.54,2.95634678783e-21,9.70343500168e-22,2.30747367971e-21,1.0
1573178785867686613,0,1573178785583683525,grasp_lab,tag_14,-1.21898294223,0.0389118152668,-3.07161552045,0.00335272098669,0.0392630684366,0.00262709807838,0.999219830205
1573178785867692192,0,1573178785583683525,grasp_lab,tag_8,-0.858265308907,-0.00711038591336,-1.21875077462,0.00373820367266,0.0319810562094,-0.00524800847257,0.999467706474
1573178785867696960,0,1573178785583683525,grasp_lab,tag_9,-0.644810880443,0.0249246405745,-3.11593440988,0.013624514864,0.0382898018744,-0.0200425207144,0.998972752897
1573178785867701671,0,1573178785583683525,map,rig,-0.0017700100002,-0.0023557797969,0.002927291569,0.999538438833,-0.00530821455439,-0.029911734037,-0.000142547274293
1573178785867706626,0,1573178785583683525,rig,cam0,9.34074002239e-24,-9.88643821994e-23,-3.93572877901e-25,3.42731583793e-23,5.74070179589e-24,-3.69700712516e-24,1.0
1573178786076369527,0,1573178785794189843,map,grasp_lab,4.54971375793e-19,3.79204459438e-19,8.79892205806e-20,1.07425729637e-20,3.62401281481e-22,1.45810027267e-21,1.0
1573178786076383903,0,1573178785794189843,grasp_lab,tag_7,0.469,-0.018,-2.54,1.92518867878e-21,3.73495612505e-22,-2.44305068078e-21,1.0
1573178786076390490,0,1573178785794189843,grasp_lab,tag_14,-1.21889086577,0.0390431189723,-3.07192656183,0.00350153467414,0.0391904258769,0.00264712077937,0.999222118713
1573178786076395636,0,1573178785794189843,grasp_lab,tag_8,-0.858495227783,-0.00757669625425,-1.21900192618,0.0039046019317,0.0318977698932,-0.00522796552509,0.999469836832
1573178786076426125,0,1573178785794189843,grasp_lab,tag_9,-0.644707731092,0.0250835035119,-3.11614117097,0.0138583194788,0.0381977894703,-0.0200238716754,0.998973433292
1573178786076432006,0,1573178785794189843,map,rig,-0.00219228396647,-0.003221275096,0.00285359161234,0.999540974453,-0.00528561724458,-0.0298296073039,-0.00031171718857
1573178786076435946,0,1573178785794189843,rig,cam0,1.12054064398e-23,-1.04231081108e-22,-9.42902083319e-26,1.83021300846e-23,1.26622678965e-23,-9.30546762266e-24,1.0
1573178786316892290,0,1573178786012128917,map,grasp_lab,5.08107434645e-19,3.8631787953e-19,1.41758129621e-19,1.05568525124e-20,-7.26667447677e-23,6.42794358047e-22,1.0
1573178786316910063,0,1573178786012128917,grasp_lab,tag_7,0.469,-0.018,-2.54,4.22772927777e-21,-4.69102534595e-22,-9.89075488178e-22,1.0
1573178786316918869,0,1573178786012128917,grasp_lab,tag_14,-1.21883515619,0.038950995228,-3.07210731522,0.00339148517458,0.0391573950631,0.00263320812814,0.999223830008
1573178786316928835,0,1573178786012128917,grasp_lab,tag_8,-0.858611621386,-0.00728615755496,-1.219154761,0.00379675505739,0.0318469689971,-0.00523176107861,0.999471852476
1573178786316941915,0,1573178786012128917,grasp_lab,tag_9,-0.644648497405,0.0249752965699,-3.11626185721,0.0138280159863,0.0381363412516,-0.0200377735859,0.998975922172
1573178786316985700,0,1573178786012128917,map,rig,-0.00230783150648,-0.00264469950705,0.00276768309606,0.999541859981,-0.00529713547496,-0.029798844707,-0.000198383438139
1573178786316991490,0,1573178786012128917,rig,cam0,5.75298822332e-24,-7.9759381661e-23,3.20090634347e-24,4.51757253204e-23,1.45804251693e-23,-7.17361898492e-24,1.0
1573178786521474468,0,1573178786252931687,map,grasp_lab,5.32333922713e-19,8.58175301242e-19,1.50060334662e-19,1.13521617923e-20,-6.11212645283e-22,-2.20233651328e-22,1.0
1573178786521539520,0,1573178786252931687,grasp_lab,tag_7,0.469,-0.018,-2.54,3.51185747149e-22,-6.05715477775e-22,5.15854026162e-22,1.0
1573178786521638701,0,1573178786252931687,grasp_lab,tag_14,-1.21884498018,0.039013517936,-3.07204700558,0.0034748767627,0.0391573181853,0.00266400252578,0.999223464874
1573178786521714671,0,1573178786252931687,grasp_lab,tag_8,-0.858590954047,-0.00763910014063,-1.21912544046,0.00391110113789,0.0318550379362,-0.00521654311561,0.999471233965
1573178786521913863,0,1573178786252931687,grasp_lab,tag_9,-0.644664071946,0.0250674614581,-3.11623899996,0.0139576749709,0.0381517693554,-0.0200211297709,0.998973863606
1573178786521922381,0,1573178786252931687,map,rig,-0.00226190377413,-0.0032619977526,0.00281274809324,0.999541767013,-0.00525670127552,-0.0298080699216,-0.000319463207778
1573178786521997828,0,1573178786252931687,rig,cam0,2.00467329809e-24,-7.6533536629e-23,2.71126740316e-24,4.23948926584e-23,1.39270533456e-23,-5.83680183896e-24,1.0
1573178786732208783,0,1573178786448294796,map,grasp_lab,5.3159274008e-19,8.52938396079e-19,1.17052328404e-19,1.21194313765e-20,-7.75757674029e-22,-1.70036429947e-22,1.0
1573178786732231160,0,1573178786448294796,grasp_lab,tag_7,0.469,-0.018,-2.54,7.32225672087e-22,-8.77136006149e-22,1.08960756503e-21,1.0
1573178786732238092,0,1573178786448294796,grasp_lab,tag_14,-1.21884792639,0.0390224567511,-3.07198847402,0.00350021634985,0.0391669691385,0.00266758249559,0.999222988635
1573178786732244730,0,1573178786448294796,grasp_lab,tag_8,-0.858562668433,-0.0076783616161,-1.21909473893,0.0039246899583,0.0318551212737,-0.00521636742703,0.999471178958
1573178786732249217,0,1573178786448294796,grasp_lab,tag_9,-0.64467597884,0.0250793770476,-3.11621388967,0.0139652379121,0.0381684454266,-0.0200191864127,0.998973159839
1573178786732257597,0,1573178786448294796,map,rig,-0.00214235434455,-0.00333947128622,0.00283083115167,0.999541010378,-0.00527755767706,-0.0298296031156,-0.00033276789497
1573178786732262576,0,1573178786448294796,rig,cam0,-5.1440296404e-25,-7.96515210491e-23,2.46148462854e-24,5.01734870547e-23,9.26232033772e-24,8.11165276062e-25,1.0
1573178786953757125,0,1573178786663030342,map,grasp_lab,4.89041808258e-19,4.8305746832e-19,1.34885512064e-19,1.2504281641e-20,-3.95697170759e-22,-9.90395362742e-23,1.0
1573178786953775649,0,1573178786663030342,grasp_lab,tag_7,0.469,-0.018,-2.54,3.9692617804e-21,2.66544174905e-22,1.79783517095e-22,1.0
1573178786953779803,0,1573178786663030342,grasp_lab,tag_14,-1.218867978,0.0389455289664,-3.07190953015,0.00335612029424,0.0391778582589,0.00265586216643,0.999223087341
1573178786954219939,0,1573178786663030342,grasp_lab,tag_8,-0.858517691517,-0.00732289321992,-1.2190264473,0.00379526607178,0.0318712270205,-0.00523141929498,0.999471086673
1573178786954229112,0,1573178786663030342,grasp_lab,tag_9,-0.644700897021,0.0249754321204,-3.11616390116,0.0138066381274,0.0381794694389,-0.0200299553079,0.998974727282
1573178786954233052,0,1573178786663030342,map,rig,-0.00212977436319,-0.00272533891462,0.00287189619554,0.999540821231,-0.00530122761136,-0.0298328234485,-0.0002152282338
1573178786954495745,0,1573178786663030342,rig,cam0,9.15498484322e-25,-8.98728593504e-23,5.8679737266e-24,5.52953605992e-23,1.3985886619e-23,2.12324985484e-24,1.0
1573178787171531981,0,1573178786900174775,map,grasp_lab,5.29306161166e-19,3.00219374181e-19,1.23870209208e-19,1.22728837376e-20,-1.57767343414e-22,2.07694895481e-22,1.0
1573178787171558685,0,1573178786900174775,grasp_lab,tag_7,0.469,-0.018,-2.54,2.78319589597e-21,2.90156787486e-22,3.42481598636e-21,1.0
1573178787171565595,0,1573178786900174775,grasp_lab,tag_14,-1.21882106345,0.038850647728,-3.07203436312,0.00325575349278,0.0391347883677,0.00263742854811,0.999225155998
1573178787171928748,0,1573178786900174775,grasp_lab,tag_8,-0.858596901056,-0.00698191420008,-1.21912994609,0.00366850349799,0.0318308583605,-0.00524322230132,0.999472784601
1573178787171950280,0,1573178786900174775,grasp_lab,tag_9,-0.644662647029,0.0248590204928,-3.11628223409,0.0137536207741,0.0381771500761,-0.0200466431661,0.998975212518
1573178787171957488,0,1573178786900174775,map,rig,-0.00231837129657,-0.00206224177145,0.00276744687378,0.999541778956,-0.00530813940827,-0.0298001457165,-8.4218550037e-05
1573178787171976854,0,1573178786900174775,rig,cam0,-1.79498913679e-24,-7.42648390959e-23,4.4252675898e-24,4.14636231668e-23,1.35443193886e-23,5.54360263977e-25,1.0
1573178787381812581,0,1573178787089313781,map,grasp_lab,4.82598364146e-19,3.86193233149e-19,9.3625042806e-20,1.22182551825e-20,-5.44462002667e-22,7.81940230368e-22,1.0
1573178787381828082,0,1573178787089313781,grasp_lab,tag_7,0.469,-0.018,-2.54,1.75034166711e-21,-1.40078836754e-21,1.7689905482e-21,1.0
1573178787381834222,0,1573178787089313781,grasp_lab,tag_14,-1.21886471368,0.0388747063284,-3.0718989114,0.00330726317961,0.0391817241883,0.00263917368638,0.999223142878
1573178787381843433,0,1573178787089313781,grasp_lab,tag_8,-0.858492953202,-0.00707655002579,-1.21902437874,0.00370747007201,0.0318701595535,-0.00523731074538,0.999471419387
1573178787381847580,0,1573178787089313781,grasp_lab,tag_9,-0.644709166616,0.0248893609239,-3.11619653031,0.0138062713808,0.0382262080128,-0.0200463889755,0.998972615331
1573178787381853062,0,1573178787089313781,map,rig,-0.00208115544146,-0.00228118989564,0.00280713696738,0.999540629641,-0.00529505632758,-0.0298408173148,-0.000133034075876
1573178787381857426,0,1573178787089313781,rig,cam0,1.36479961622e-24,-6.4247509305e-23,1.82239566479e-24,5.29611309225e-23,1.00848652402e-23,7.49510004341e-25,1.0
1573178787595146627,0,1573178787314960332,map,grasp_lab,5.11103012512e-19,3.44188384799e-19,6.64767213832e-20,1.19809966443e-20,-8.07505053577e-22,6.35856129955e-22,1.0
1573178787595160017,0,1573178787314960332,grasp_lab,tag_7,0.469,-0.018,-2.54,2.48521893494e-21,-5.81733259189e-22,1.24280982023e-21,1.0
1573178787595164610,0,1573178787314960332,grasp_lab,tag_14,-1.21886658471,0.0388435414144,-3.07189629971,0.0033304167055,0.0391785668761,0.00262933105975,0.999223215723
1573178787595216751,0,1573178787314960332,grasp_lab,tag_8,-0.858493569149,-0.00700964905806,-1.21901737024,0.00367026273182,0.0318632225338,-0.00523495432076,0.999471790234
1573178787595296613,0,1573178787314960332,grasp_lab,tag_9,-0.644712460811,0.024857390695,-3.11620338427,0.0137070118278,0.0382748005099,-0.0200315175381,0.998972419928
1573178787595417305,0,1573178787314960332,map,rig,-0.00210341387973,-0.00213454188223,0.0028145307315,0.999540438086,-0.00529769482712,-0.0298469013278,-9.76793957402e-05
1573178787595463652,0,1573178787314960332,rig,cam0,3.99386013119e-25,-5.85549296521e-23,1.68951773437e-24,5.92260275657e-23,1.41233489313e-23,-1.51206479931e-24,1.0
1573178787829412483,0,1573178787541462493,map,grasp_lab,4.77110640288e-19,2.03908526108e-19,8.3945382184e-20,1.15767025976e-20,-5.30208470174e-22,4.28253439706e-22,1.0
1573178787829682102,0,1573178787541462493,grasp_lab,tag_7,0.469,-0.018,-2.54,2.21700984954e-21,-5.90066179437e-22,-8.31895075196e-22,1.0
1573178787829689821,0,1573178787541462493,grasp_lab,tag_14,-1.21885424479,0.038890195371,-3.07187491398,0.00335320673112,0.0391568063888,0.00263052681518,0.999223989327
1573178787829694509,0,1573178787541462493,grasp_lab,tag_8,-0.858502283403,-0.00714643579984,-1.21902120851,0.00371313003428,0.0318512296534,-0.00522407037839,0.999472071107
1573178787829800365,0,1573178787541462493,grasp_lab,tag_9,-0.644712195289,0.0249095095427,-3.11621851907,0.0137778994999,0.0382880933286,-0.0200260872336,0.998971044237
1573178787829986537,0,1573178787541462493,map,rig,-0.00205367312624,-0.00238800603115,0.00285699536087,0.999540332982,-0.00530394093544,-0.0298491429565,-0.000140063070247
1573178787830080938,0,1573178787541462493,rig,cam0,3.55585241961e-24,-7.54017262971e-23,1.58146870035e-24,6.28166082105e-23,1.59720663278e-23,1.22145052991e-25,1.0
1573178788046820167,0,1573178787778114820,map,grasp_lab,4.32169583055e-19,4.2811443333e-19,7.67405738549e-20,1.10681262574e-20,-8.83812898893e-22,7.87576815939e-22,1.0
1573178788046839270,0,1573178787778114820,grasp_lab,tag_7,0.469,-0.018,-2.54,1.12432348106e-22,-9.17371624352e-22,7.78912363828e-22,1.0
1573178788046847578,0,1573178787778114820,grasp_lab,tag_14,-1.21887164061,0.0389428240629,-3.07170524907,0.00342778919654,0.039155836961,0.00263250883447,0.999223769028
1573178788046865922,0,1573178787778114820,grasp_lab,tag_8,-0.858436588834,-0.00735887197024,-1.21892627471,0.00379092491843,0.0318829606802,-0.00521408780603,0.999470819481
1573178788046881521,0,1573178787778114820,grasp_lab,tag_9,-0.644749988248,0.0249775489933,-3.11612811322,0.0137945925731,0.0382882050671,-0.0200058784915,0.998971214497
1573178788046897959,0,1573178787778114820,map,rig,-0.00195138044815,-0.00274507497192,0.00291209581296,0.99953987162,-0.00529295726929,-0.0298661920605,-0.000200543180985
1573178788046903260,0,1573178787778114820,rig,cam0,3.14046590322e-24,-5.91821462457e-23,3.83813990154e-24,5.29245822678e-23,1.66712593851e-23,3.13654777406e-25,1.0
1573178788265236175,0,1573178787989127673,map,grasp_lab,4.56861148082e-19,5.30552579799e-19,6.42646934519e-20,1.12823976908e-20,-1.84433231023e-21,1.61501257238e-21,1.0
1573178788265248894,0,1573178787989127673,grasp_lab,tag_7,0.469,-0.018,-2.54,-8.06880632864e-23,-1.22902754515e-21,-2.06258597788e-21,1.0
1573178788265254345,0,1573178787989127673,grasp_lab,tag_14,-1.21886296167,0.0389072732384,-3.07178793827,0.00341092488322,0.0391677697246,0.00264685351048,0.999223321171
1573178788265258723,0,1573178787989127673,grasp_lab,tag_8,-0.858469558776,-0.00737988781367,-1.21897199629,0.00378613477702,0.031871977802,-0.0052024532845,0.999471248558
1573178788265299546,0,1573178787989127673,grasp_lab,tag_9,-0.644728611677,0.0249527228994,-3.11615655141,0.013841308815,0.0382793404075,-0.0199997977836,0.998971029789
1573178788265304330,0,1573178787989127673,map,rig,-0.00216173762264,-0.00274121997269,0.00282065435129,0.999540787082,-0.00527902035184,-0.0298380542658,-0.000193443466273
1573178788265308390,0,1573178787989127673,rig,cam0,-4.58492735661e-24,-5.74636645399e-23,1.66902746707e-24,3.69596733832e-23,9.989262685e-24,4.91017834034e-24,1.0
1573178788568676110,0,1573178788198027875,map,grasp_lab,-8.59201926602e-21,2.62265141031e-21,2.55812789256e-21,-1.86941838855e-23,4.97806711796e-23,-1.52456002064e-23,1.0
1573178788568688904,0,1573178788198027875,grasp_lab,tag_7,0.469,-0.018,-2.54,-9.29287352806e-23,2.8348988083e-23,-8.02028638379e-23,1.0
1573178788568693280,0,1573178788198027875,grasp_lab,tag_14,-1.21891500931,0.0388825399838,-3.07166500189,0.00338679972699,0.0392018231558,0.00266184835215,0.999222027986
1573178788568697500,0,1573178788198027875,grasp_lab,tag_8,-0.858337554787,-0.00740567584435,-1.21879666459,0.00378073843015,0.0318635599401,-0.00518839080893,0.999471610485
1573178788568717297,0,1573178788198027875,grasp_lab,tag_9,-0.644774872061,0.0249384533184,-3.11606204791,0.0137880099917,0.0383477803665,-0.0199945450453,0.998969247119
1573178788568721951,0,1573178788198027875,map,rig,-0.00189448349092,-0.00274900967191,0.00288946858269,0.999538774073,-0.00528386202583,-0.0299045697143,-0.000191407385493
1573178788568753700,0,1573178788198027875,rig,cam0,3.75538525457e-25,5.39657049082e-25,-1.33235076534e-25,1.03047517501e-25,-7.58258049809e-26,-1.46357542443e-26,1.0
1573178788736295894,0,1573178788410560809,map,grasp_lab,-1.23657563339e-21,1.50941363946e-20,5.55996026141e-21,2.95735454687e-22,1.95651546714e-22,-3.29645991735e-23,1.0
1573178788736344761,0,1573178788410560809,grasp_lab,tag_7,0.469,-0.018,-2.54,-4.70987288241e-23,-1.73033826896e-23,-5.46233253505e-23,1.0
1573178788736348425,0,1573178788410560809,grasp_lab,tag_14,-1.21890785129,0.0388662283667,-3.07174128179,0.00342009905492,0.0392024477676,0.00266066820404,0.999221893203
1573178788736351892,0,1573178788410560809,grasp_lab,tag_8,-0.858377633104,-0.00748030464727,-1.21883661428,0.00379947764759,0.03184608302,-0.00517690298942,0.999472156011
1573178788736387074,0,1573178788410560809,grasp_lab,tag_9,-0.644754970629,0.0249353413427,-3.11608901599,0.0137645075573,0.0382849278466,-0.0199718491542,0.998972435993
1573178788736392803,0,1573178788410560809,map,rig,-0.00187109522392,-0.00283646292543,0.00284846204595,0.999538356475,-0.00527836670591,-0.0299194428223,-0.000199303405345
1573178788736398681,0,1573178788410560809,rig,cam0,1.94165150091e-25,1.42437806723e-24,-1.67553159565e-25,-4.26909237466e-25,5.04403775867e-25,1.14727250618e-24,1.0
1573178788955829639,0,1573178788664121179,map,grasp_lab,-1.54959411829e-21,1.72900661759e-19,1.84796050573e-21,-1.20957234505e-21,2.32704866044e-22,-1.29088345997e-22,1.0
1573178788955939770,0,1573178788664121179,grasp_lab,tag_7,0.469,-0.018,-2.54,-1.78402044639e-21,6.81393812856e-23,-4.49685086433e-22,1.0
1573178788955952035,0,1573178788664121179,grasp_lab,tag_14,-1.21890499256,0.0388357651621,-3.07173351964,0.00341769665252,0.0392137073679,0.00265482251584,0.99922147516
1573178788955958588,0,1573178788664121179,grasp_lab,tag_8,-0.858374051806,-0.00742267884917,-1.21883713535,0.00377595958891,0.0318520209297,-0.00517294784661,0.9994720764
1573178788955978675,0,1573178788664121179,grasp_lab,tag_9,-0.644754408719,0.0249047507369,-3.1160827249,0.013830292316,0.0382704172514,-0.0199890659006,0.998971739051
1573178788956028837,0,1573178788664121179,map,rig,-0.00194316800504,-0.00268688921403,0.0028568944439,0.999539054228,-0.00527219594949,-0.0298973485219,-0.00017769388598
1573178788956034277,0,1573178788664121179,rig,cam0,-3.89663225095e-25,5.86133720275e-24,1.14310033149e-25,-1.73806387111e-24,4.62432844536e-25,5.81817511727e-25,1.0
1573178789165305879,0,1573178788884034831,map,grasp_lab,2.49331390315e-20,1.61682092317e-19,7.65552495714e-21,-1.12013472195e-21,-4.79076521421e-23,-4.43195657846e-23,1.0
1573178789165319885,0,1573178788884034831,grasp_lab,tag_7,0.469,-0.018,-2.54,-1.63995513438e-21,1.57460660756e-23,-3.53872706314e-23,1.0
1573178789165323952,0,1573178788884034831,grasp_lab,tag_14,-1.21888052533,0.0388493102289,-3.0718081025,0.0034633810237,0.039191563231,0.00265610483916,0.999222183236
1573178789165328080,0,1573178788884034831,grasp_lab,tag_8,-0.85842895958,-0.00748938828137,-1.21889913692,0.00378415616256,0.0318390256235,-0.0051687635512,0.999472481108
1573178789165331904,0,1573178788884034831,grasp_lab,tag_9,-0.644729435428,0.0249235472734,-3.11613653835,0.0137851179235,0.0382466327076,-0.019978460505,0.998973486498
1573178789165336014,0,1573178788884034831,map,rig,-0.0020428819792,-0.00286832341562,0.00283609908031,0.999540192525,-0.00525660259968,-0.0298617920453,-0.000212206975929
1573178789165350681,0,1573178788884034831,rig,cam0,2.96153363038e-26,-9.46546276144e-25,1.01439644454e-26,4.25348632036e-24,2.16957860726e-25,7.06331708646e-25,1.0
1573178789391176196,0,1573178789109289847,map,grasp_lab,5.42870200997e-21,1.98170194568e-19,8.06812435206e-21,-6.68721861622e-22,2.68189022915e-22,1.25526108384e-22,1.0
1573178789391403810,0,1573178789109289847,grasp_lab,tag_7,0.469,-0.018,-2.54,-6.48478492599e-22,6.86355695679e-23,-1.84743976636e-22,1.0
1573178789391445490,0,1573178789109289847,grasp_lab,tag_14,-1.21890589817,0.0388437966372,-3.07167818395,0.00346729930795,0.0391998464875,0.00265936259542,0.999221836061
1573178789391452656,0,1573178789109289847,grasp_lab,tag_8,-0.858353334594,-0.00754431000419,-1.21879469807,0.00378771602812,0.0318610481548,-0.00515768483193,0.999471823067
1573178789391457264,0,1573178789109289847,grasp_lab,tag_9,-0.644765501642,0.0249269274083,-3.1160616875,0.0137280681812,0.0382964036734,-0.0199711546835,0.998972511429
1573178789391464311,0,1573178789109289847,map,rig,-0.0019242467469,-0.00292500028106,0.00290728180913,0.999539588864,-0.00524549820845,-0.0298838740193,-0.000221620183149
1573178789391503862,0,1573178789109289847,rig,cam0,1.7683597672e-24,-3.72115520894e-24,-3.36565019372e-25,-2.60200681275e-24,2.3695421372e-24,-1.13476532798e-26,1.0
1573178789617076452,0,1573178789328227941,map,grasp_lab,3.28987111679e-21,1.66288452375e-19,1.16377839225e-20,-1.28600614482e-21,2.07764201896e-22,2.86160701773e-22,1.0
1573178789617089488,0,1573178789328227941,grasp_lab,tag_7,0.469,-0.018,-2.54,-1.41791330179e-21,6.28103107674e-23,-1.44151710056e-22,1.0
1573178789617093869,0,1573178789328227941,grasp_lab,tag_14,-1.21891096521,0.0388302967698,-3.07168495906,0.00350871906335,0.0391968644022,0.00265441514319,0.999221821615
1573178789617097289,0,1573178789328227941,grasp_lab,tag_8,-0.858345270592,-0.00754531531907,-1.21879349763,0.00378742007553,0.0318766979382,-0.00515354800048,0.999471346523
1573178789617119067,0,1573178789328227941,grasp_lab,tag_9,-0.644767005141,0.0249171334423,-3.11606276579,0.0136299596254,0.0382960298597,-0.0199558178008,0.998974175659
1573178789617145827,0,1573178789328227941,map,rig,-0.00202195319874,-0.00294397468747,0.00292662748257,0.999539879666,-0.00524783318906,-0.0298737355593,-0.000221647323355
1573178789617155069,0,1573178789328227941,rig,cam0,1.54305591239e-24,-4.32781206728e-24,-7.69734454791e-26,2.89898313888e-24,2.23232590189e-24,2.2147810504e-24,1.0
1573178789848624942,0,1573178789540894555,map,grasp_lab,-8.8689548324e-21,1.87457893275e-19,1.21068082022e-20,-1.96070806674e-21,1.74369901821e-22,4.07594128524e-22,1.0
1573178789848887976,0,1573178789540894555,grasp_lab,tag_7,0.469,-0.018,-2.54,-1.80862350094e-21,-5.25072045883e-23,2.76095529007e-22,1.0
1573178789848897986,0,1573178789540894555,grasp_lab,tag_14,-1.21891676451,0.038827141264,-3.07168281457,0.00351619035112,0.0392065699955,0.00264626127582,0.999221436207
1573178789849153579,0,1573178789540894555,grasp_lab,tag_8,-0.858334371576,-0.00750697102179,-1.21878266495,0.00378013426697,0.0318951215188,-0.00515694554563,0.999470768818
1573178789849300821,0,1573178789540894555,grasp_lab,tag_9,-0.644766262953,0.0249098757723,-3.11603677132,0.0136604396809,0.0382452957625,-0.0199687397134,0.99897544473
1573178789849309732,0,1573178789540894555,map,rig,-0.00208988982601,-0.0028107341564,0.00288518838251,0.99954032673,-0.00524544045476,-0.0298593555306,-0.000198699613433
1573178789850730050,0,1573178789540894555,rig,cam0,3.00613497273e-24,-2.37085521599e-26,-2.24773563053e-25,2.22316611687e-24,2.73848168667e-24,1.35363103553e-24,1.0
1573178790056492060,0,1573178789795100922,map,grasp_lab,-1.05564940756e-20,2.10069041322e-19,1.31043310789e-20,-1.67130290571e-21,4.26355568338e-22,7.75605353034e-22,1.0
1573178790056617068,0,1573178789795100922,grasp_lab,tag_7,0.469,-0.018,-2.54,-1.69457592101e-21,8.36901875262e-23,-3.0586924827e-22,1.0
1573178790056668370,0,1573178789795100922,grasp_lab,tag_14,-1.2189184238,0.0388576412437,-3.0716390335,0.00356035589265,0.0392032573385,0.00265939776219,0.999221374913
1573178790056751499,0,1573178789795100922,grasp_lab,tag_8,-0.858310226884,-0.00766833716155,-1.21874337657,0.00381541296585,0.0319048888218,-0.00514901829339,0.999470363895
1573178790056835350,0,1573178789795100922,grasp_lab,tag_9,-0.644772143622,0.0249528046551,-3.11600586346,0.013761262368,0.0382508280422,-0.0199595404952,0.998974032974
1573178790056959277,0,1573178789795100922,map,rig,-0.00187445071217,-0.00307630893061,0.00273042814029,0.999539650812,-0.00523040132839,-0.0298842109506,-0.000251579692445
1573178790057026294,0,1573178789795100922,rig,cam0,3.5924249807e-24,2.99078574966e-24,1.80396551893e-25,4.65872043817e-24,3.24652724447e-24,7.8711978404e-25,1.0
1573178790270719470,0,1573178790009184965,map,grasp_lab,-4.1974880037e-21,1.42176352199e-19,1.03858523316e-20,-1.11387716897e-21,4.69109208785e-22,3.45668270221e-22,1.0
1573178790271045144,0,1573178790009184965,grasp_lab,tag_7,0.469,-0.018,-2.54,-1.67712519613e-21,1.79328700667e-22,-8.07448434699e-22,1.0
1573178790271055276,0,1573178790009184965,grasp_lab,tag_14,-1.21891737465,0.0388284361235,-3.07166827231,0.00351348152628,0.0392007390996,0.0026637988478,0.999221627907
1573178790271092761,0,1573178790009184965,grasp_lab,tag_8,-0.858307447036,-0.00761578725412,-1.21874015837,0.00378639506814,0.0319101502563,-0.00514494572285,0.999470327252
1573178790271098670,0,1573178790009184965,grasp_lab,tag_9,-0.644769791052,0.0249236272111,-3.11603518767,0.0136466248532,0.038240113168,-0.0199440801163,0.998976324566
1573178790271127230,0,1573178790009184965,map,rig,-0.00204914539944,-0.00303157105115,0.00276995330405,0.999540775854,-0.00523743863068,-0.0298454017104,-0.000242152717305
1573178790271132754,0,1573178790009184965,rig,cam0,2.83483421777e-24,9.60286909981e-24,-8.08525577205e-25,1.46490935101e-25,2.56938181831e-24,3.84713936634e-25,1.0
1573178790487832418,0,1573178790192301449,map,grasp_lab,-1.88323216649e-20,1.99440917759e-19,9.03278693723e-21,-7.59309123887e-22,4.12039870668e-22,2.8548920609e-22,1.0
1573178790487864926,0,1573178790192301449,grasp_lab,tag_7,0.469,-0.018,-2.54,-1.25048854203e-21,-6.47375574789e-23,-9.2408598629e-22,1.0
1573178790487893101,0,1573178790192301449,grasp_lab,tag_14,-1.21894067746,0.0388659982051,-3.07163987663,0.0035527687492,0.0392183944997,0.00266596407082,0.999220790418
1573178790487897566,0,1573178790192301449,grasp_lab,tag_8,-0.858267862524,-0.007762244765,-1.21869252419,0.0038434039595,0.0319367848125,-0.00513679860894,0.99946930084
1573178790487918733,0,1573178790192301449,grasp_lab,tag_9,-0.64478622335,0.0249704092092,-3.11600714937,0.0137867188346,0.0382660384597,-0.0199402381431,0.998973484927
1573178790487951529,0,1573178790192301449,map,rig,-0.00196931987958,-0.00324706406774,0.00285727413738,0.999540554878,-0.00523808855723,-0.0298522920729,-0.000286776090556
1573178790487957564,0,1573178790192301449,rig,cam0,3.83702266347e-24,1.35225870278e-23,-7.73078083215e-25,-2.54271415371e-24,1.33558086033e-24,-4.45744545446e-25,1.0
1573178790707524585,0,1573178790423903835,map,grasp_lab,-1.9779466447e-20,1.59012861016e-19,8.17136547407e-21,1.99453439764e-22,7.09087159682e-22,-1.58134922946e-22,1.0
1573178790707541785,0,1573178790423903835,grasp_lab,tag_7,0.469,-0.018,-2.54,-1.66047573524e-21,1.05173140533e-22,-1.10466709353e-21,1.0
1573178790707548878,0,1573178790423903835,grasp_lab,tag_14,-1.21894431172,0.0388849993074,-3.07159575246,0.00360108907222,0.039220731651,0.00267776985269,0.999220494143
1573178790707554062,0,1573178790423903835,grasp_lab,tag_8,-0.858250775196,-0.00793362697712,-1.21865838116,0.00386574247126,0.031934103568,-0.00512143372706,0.999469379211
1573178790707582815,0,1573178790423903835,grasp_lab,tag_9,-0.644795936805,0.0250072201857,-3.11598784151,0.0138792344622,0.0382723755488,-0.0199317252467,0.998972130967
1573178790707605411,0,1573178790423903835,map,rig,-0.00180474631959,-0.00354195230454,0.0028495542993,0.999539521887,-0.00521077306091,-0.029891072617,-0.000340305505516
1573178790707611679,0,1573178790423903835,rig,cam0,4.25256340871e-24,3.30895361196e-24,-1.14825692858e-24,1.15496613872e-24,3.16259915068e-24,2.3450384159e-25,1.0
1573178790921627979,0,1573178790638537649,map,grasp_lab,-1.7310264872e-20,1.73382910627e-19,-4.5545180825e-21,2.21362987657e-21,9.40899772974e-22,5.76490722703e-22,1.0
1573178790921894207,0,1573178790638537649,grasp_lab,tag_7,0.469,-0.018,-2.54,-8.69243616148e-22,2.36752288294e-22,-1.58316137822e-21,1.0
1573178790921907186,0,1573178790638537649,grasp_lab,tag_14,-1.21896304923,0.0389582303839,-3.07156783449,0.00370968530571,0.039237095699,0.00268494078851,0.999219435184
1573178790921913034,0,1573178790638537649,grasp_lab,tag_8,-0.858213143591,-0.00822163565192,-1.21862020114,0.00395929672784,0.0319471783743,-0.00510494872568,0.99946867948
1573178790921918353,0,1573178790638537649,grasp_lab,tag_9,-0.644811347151,0.0250999801533,-3.1159733016,0.0139510386822,0.0382942365298,-0.0199135343596,0.998970655784
1573178790921941386,0,1573178790638537649,map,rig,-0.00194697823075,-0.00408175190776,0.00288328031824,0.999539758571,-0.00521197151364,-0.0298816841228,-0.000437426591513
1573178790921946205,0,1573178790638537649,rig,cam0,3.99575733614e-24,7.33515728855e-24,-1.98955142242e-24,4.77205329458e-24,1.43562172039e-24,-1.49930640495e-24,1.0
1573178791144921542,0,1573178790854153361,map,grasp_lab,-4.05014102566e-20,3.08104381071e-19,-1.62845655411e-20,1.84680366974e-21,8.07613364535e-22,3.09104527886e-22,1.0
1573178791145112065,0,1573178790854153361,grasp_lab,tag_7,0.469,-0.018,-2.54,9.32029161053e-22,-6.04389318111e-22,-9.30011975807e-22,1.0
1573178791145166470,0,1573178790854153361,grasp_lab,tag_14,-1.21894334973,0.0390121815356,-3.07161906781,0.00377175800354,0.0392239571395,0.00268673143519,0.999219713828
1573178791145225861,0,1573178790854153361,grasp_lab,tag_8,-0.858249406607,-0.00838761863575,-1.21866379059,0.00400859522073,0.0319427554582,-0.0050970449869,0.999468664677
1573178791145286346,0,1573178790854153361,grasp_lab,tag_9,-0.644793051813,0.0251624322509,-3.11601694829,0.0140452255752,0.0382783352546,-0.0199111688265,0.998969992565
1573178791145415731,0,1573178790854153361,map,rig,-0.00190709692838,-0.0043688022583,0.00283040032063,0.999539711007,-0.00521330591422,-0.029882144292,-0.000494987956837
1573178791145469528,0,1573178790854153361,rig,cam0,5.15641353909e-24,3.22197750791e-24,-1.8556326117e-24,4.66419200349e-24,1.12862163741e-25,2.88663426639e-24,1.0
1573178791365942331,0,1573178791081235514,map,grasp_lab,-6.07556428139e-20,2.90280952192e-19,-1.08202833092e-20,2.48319078127e-21,6.43322942175e-22,1.15583749335e-22,1.0
1573178791366024626,0,1573178791081235514,grasp_lab,tag_7,0.469,-0.018,-2.54,2.11011092811e-21,-8.1972885186e-22,-1.38156654521e-21,1.0
1573178791366136586,0,1573178791081235514,grasp_lab,tag_14,-1.21895787705,0.0389903961128,-3.07153770424,0.00378130369439,0.039237745326,0.00267591315297,0.999219165435
1573178791366172023,0,1573178791081235514,grasp_lab,tag_8,-0.858193793336,-0.00829428336013,-1.21860248062,0.0039657396147,0.0319704548233,-0.00509862115315,0.999467941952
1573178791366327076,0,1573178791081235514,grasp_lab,tag_9,-0.644814204457,0.0251333161995,-3.1159658985,0.0141130567968,0.038300964485,-0.0199295448604,0.998967802779
1573178791366337432,0,1573178791081235514,map,rig,-0.00186748485146,-0.00425149199414,0.00287001842297,0.999539612981,-0.00521481970009,-0.0298855454277,-0.000471074117008
1573178791366360747,0,1573178791081235514,rig,cam0,7.53677897667e-24,2.02348600758e-23,-1.4525867451e-24,-4.54239728678e-24,-9.85438814406e-25,4.55497888508e-24,1.0
1573178791594098821,0,1573178791282093158,map,grasp_lab,-2.69470556721e-20,2.17246424163e-19,-1.15564258991e-20,3.30545209735e-21,6.22302316316e-22,2.06697256577e-22,1.0
1573178791594111372,0,1573178791282093158,grasp_lab,tag_7,0.469,-0.018,-2.54,4.2017913998e-21,-5.74812976735e-22,-8.83382608773e-22,1.0
1573178791594115587,0,1573178791282093158,grasp_lab,tag_14,-1.21892817497,0.0390106361938,-3.07163622279,0.0038413477752,0.0391952136837,0.00267341902499,0.999220612329
1573178791594342988,0,1573178791282093158,grasp_lab,tag_8,-0.85825905002,-0.00837519195909,-1.21867300241,0.00398963349108,0.0319508733544,-0.00509449196875,0.999468494085
1573178791594356051,0,1573178791282093158,grasp_lab,tag_9,-0.644777757809,0.0251584445665,-3.11601126919,0.0142482526955,0.0382226952393,-0.0199399787207,0.998968673239
1573178791594362417,0,1573178791282093158,map,rig,-0.00202053759314,-0.00442139425226,0.00283205228566,0.999540211094,-0.00521336853042,-0.0298652864239,-0.000501858519802
1573178791594367524,0,1573178791282093158,rig,cam0,5.24792126505e-24,1.48339176006e-23,-1.07724255738e-24,-5.61521319702e-24,3.73971616471e-25,1.34131290749e-24,1.0
1573178791800693405,0,1573178791532409125,map,grasp_lab,-1.94251602468e-20,2.06526384873e-19,-1.23868002192e-20,3.38203625806e-21,4.57112175887e-22,4.47028410604e-22,1.0
1573178791800742336,0,1573178791532409125,grasp_lab,tag_7,0.469,-0.018,-2.54,4.52519869944e-21,-5.99386542435e-22,-9.36059186594e-22,1.0
1573178791800748277,0,1573178791532409125,grasp_lab,tag_14,-1.21891929804,0.0390189623933,-3.07167301437,0.00391168052817,0.0391832301821,0.00267899227338,0.999220794534
1573178791800775796,0,1573178791532409125,grasp_lab,tag_8,-0.858281160348,-0.00851544533479,-1.21869716778,0.00401536619081,0.0319492997117,-0.00507734056744,0.999468528617
1573178791801012433,0,1573178791532409125,grasp_lab,tag_9,-0.644766434965,0.0251825257683,-3.11603640201,0.014340608757,0.0382328513692,-0.0199321085166,0.998967120113
1573178791801021538,0,1573178791532409125,map,rig,-0.00201366330895,-0.00455195420564,0.0028465650564,0.999540483979,-0.00520326670113,-0.0298574266118,-0.000530075020279
1573178791801026348,0,1573178791532409125,rig,cam0,4.08836374087e-24,1.82457858824e-23,-1.03461101741e-24,-5.83829755816e-24,3.47602186389e-24,2.25069238352e-24,1.0
1573178792031145629,0,1573178791747572290,map,grasp_lab,-5.67403901086e-19,1.69053037482e-19,1.22420571193e-19,2.89368101258e-21,8.40705172978e-21,3.57129913602e-22,1.0
1573178792031160361,0,1573178791747572290,grasp_lab,tag_7,0.469,-0.018,-2.54,4.59842967758e-21,4.32215874028e-21,-2.89812970887e-22,1.0
1573178792031201061,0,1573178791747572290,grasp_lab,tag_14,-1.21997044685,0.0390478806216,-3.06959839651,0.00388809132894,0.040154721665,0.0027200352889,0.999182206848
1573178792031206275,0,1573178791747572290,grasp_lab,tag_8,-0.856463109266,-0.00877481389684,-1.21652268873,0.00409027206171,0.0326572066829,-0.00505817471901,0.99944544193
1573178792031231707,0,1573178791747572290,grasp_lab,tag_9,-0.645775840953,0.0252388859855,-3.11485875402,0.0143329433809,0.039934285839,-0.0198955061217,0.998901390721
1573178792031292039,0,1573178791747572290,map,rig,-0.0291224658321,-0.0040312980524,0.008681530058,0.999639594345,-0.00543523061671,-0.0262599054259,-0.00124781915848
1573178792031368106,0,1573178791747572290,rig,cam0,4.52344211637e-23,2.56924384729e-23,-1.31274268399e-23,2.91601409585e-24,2.85375776167e-23,2.10436986643e-24,1.0
1573178792237165335,0,1573178791958658022,map,grasp_lab,-7.6943255456e-19,2.16883747681e-19,1.2567903129e-19,5.98330652373e-22,7.79261110849e-21,-1.38270242375e-22,1.0
1573178792237230696,0,1573178791958658022,grasp_lab,tag_7,0.469,-0.018,-2.54,2.33743890543e-21,3.45076668085e-21,-2.14813772177e-21,1.0
1573178792237437364,0,1573178791958658022,grasp_lab,tag_14,-1.21997946738,0.0390234695629,-3.0696774477,0.00386685331243,0.0401125673735,0.0027284655729,0.999183959469
1573178792237570756,0,1573178791958658022,grasp_lab,tag_8,-0.856508517303,-0.00884354187427,-1.21657058357,0.00406717981978,0.0326889274356,-0.00504570253548,0.999444562223
1573178792237639903,0,1573178791958658022,grasp_lab,tag_9,-0.645776451658,0.0252301318295,-3.11493754161,0.0141240950578,0.0399320263977,-0.0198718411419,0.998904926976
1573178792237729684,0,1573178791958658022,map,rig,-0.000942886982499,-0.00403430059073,-0.0384971698481,0.999479808776,-0.00475092730578,-0.0317869990089,-0.00266968762625
1573178792237791184,0,1573178791958658022,rig,cam0,5.57847778185e-23,1.90535700213e-23,-8.2821879119e-24,1.63771698551e-23,9.762230403e-23,-5.31122746559e-24,1.0
1573178792443162503,0,1573178792189217750,map,grasp_lab,-7.47636551891e-19,1.73459724297e-19,1.5239759515e-19,1.21712525605e-21,6.74879271478e-21,1.97075767769e-22,1.0
1573178792443180640,0,1573178792189217750,grasp_lab,tag_7,0.469,-0.018,-2.54,2.38730950173e-21,2.46897446758e-21,-2.06261709661e-21,1.0
1573178792443190231,0,1573178792189217750,grasp_lab,tag_14,-1.21991700893,0.0389595893055,-3.06978538421,0.00377327828859,0.0400613882653,0.0027090396922,0.999186423369
1573178792443470769,0,1573178792189217750,grasp_lab,tag_8,-0.856579666454,-0.00855810805275,-1.21666636199,0.00395189148744,0.0326564384298,-0.0050582658994,0.999446023319
1573178792443482524,0,1573178792189217750,grasp_lab,tag_9,-0.645725426279,0.0251453922081,-3.11502293425,0.0140811078055,0.0398821055723,-0.0198888231608,0.998907190269
1573178792443488126,0,1573178792189217750,map,rig,-0.00343386228568,-0.00178610523309,-0.0773342116034,0.999494168311,-0.00505884913698,-0.0313965956935,-0.000263319588349
1573178792443493322,0,1573178792189217750,rig,cam0,5.58886968783e-23,1.34317936108e-23,-6.0698198935e-24,2.56511825607e-23,9.39899317434e-23,-8.36755615249e-24,1.0
1573178792683249493,0,1573178792372307961,map,grasp_lab,-6.53369785975e-19,5.08112978472e-19,1.24116949528e-19,-1.02379516943e-21,7.91985476824e-21,-6.09433591536e-22,1.0
1573178792683261659,0,1573178792372307961,grasp_lab,tag_7,0.469,-0.018,-2.54,-2.75923177095e-21,3.97631239215e-21,-3.15792262017e-21,1.0
1573178792683265583,0,1573178792372307961,grasp_lab,tag_14,-1.21988854246,0.0388234759381,-3.06988985661,0.00358228081585,0.0400062279314,0.00268750050816,0.999189394625
1573178792683302645,0,1573178792372307961,grasp_lab,tag_8,-0.856648395949,-0.00810779814681,-1.21672979509,0.00374545838458,0.032642342354,-0.00506743006508,0.999447232314
1573178792683306979,0,1573178792372307961,grasp_lab,tag_9,-0.645694817654,0.0249844770386,-3.11509579752,0.0137413285394,0.0398388037255,-0.0198880836577,0.998913664806
1573178792683310708,0,1573178792372307961,map,rig,-0.00444989553317,-0.000163343407664,-0.102607687381,0.999486184061,-0.00539411741031,-0.0315853242551,-0.000799161734719
1573178792683337130,0,1573178792372307961,rig,cam0,5.11208184338e-23,3.65553172269e-23,-6.00590839868e-24,2.76074666633e-23,1.03463663376e-22,-6.41111005901e-24,1.0
1573178792901122351,0,1573178792616087688,map,grasp_lab,-6.42782843104e-19,6.77319701494e-19,8.46955667065e-20,-1.36561972858e-21,8.00490998223e-21,-2.68634020764e-22,1.0
1573178792901145041,0,1573178792616087688,grasp_lab,tag_7,0.469,-0.018,-2.54,-4.4273510336e-21,5.9312416495e-21,-3.34811190573e-21,1.0
1573178792901153714,0,1573178792616087688,grasp_lab,tag_14,-1.21990982696,0.0388714324688,-3.06975256227,0.00360038636068,0.040005588242,0.00269668208051,0.999189330424
1573178792901159703,0,1573178792616087688,grasp_lab,tag_8,-0.856571061065,-0.00829448489599,-1.21664646812,0.00377475062443,0.0326928554237,-0.00505600403636,0.999445528923
1573178792904015462,0,1573178792616087688,grasp_lab,tag_9,-0.645730606808,0.0250455455483,-3.11503335065,0.0137809774633,0.0398780030085,-0.0198859969487,0.998911596019
1573178792904039402,0,1573178792616087688,map,rig,-0.0070083827515,0.00046414830108,-0.139413942547,0.999502696627,-0.00508171503064,-0.0311079596155,-0.000911293509919
1573178792904054059,0,1573178792616087688,rig,cam0,5.32266402066e-23,6.27557368085e-23,-8.41442306159e-24,1.19428442451e-23,1.04180518883e-22,-4.03461313281e-24,1.0
1573178793128493047,0,1573178792831024652,map,grasp_lab,-6.79778142117e-19,6.23310474558e-19,1.36861007794e-19,-1.47121371336e-21,8.58305881146e-21,-1.75836101685e-22,1.0
1573178793128806781,0,1573178792831024652,grasp_lab,tag_7,0.469,-0.018,-2.54,-2.3103549779e-21,5.29857768598e-21,-2.6466832254e-21,1.0
1573178793128818921,0,1573178792831024652,grasp_lab,tag_14,-1.21996325744,0.0388874002932,-3.06948763098,0.00359397706232,0.0400287419644,0.00269026868528,0.999188443488
1573178793128827028,0,1573178792831024652,grasp_lab,tag_8,-0.856434820146,-0.00832149782194,-1.21647528781,0.00373376209868,0.0327814461263,-0.00504960182962,0.999442813437
1573178793128832229,0,1573178792831024652,grasp_lab,tag_9,-0.645805971521,0.0250626054931,-3.11489187875,0.013733202191,0.0399437206652,-0.0198874173918,0.998909599997
1573178793128924291,0,1573178792831024652,map,rig,-0.00946657800101,0.0013937314484,-0.17718340369,0.999528330175,-0.00459730202452,-0.0303621323491,-0.000350586006218
1573178793128953969,0,1573178792831024652,rig,cam0,5.97574023073e-23,6.51953160709e-23,-7.89772263065e-24,2.71496048745e-23,1.03733262451e-22,-4.27055408041e-24,1.0
1573178793353556867,0,1573178793078498758,map,grasp_lab,-6.76674497242e-19,6.48044360633e-19,9.44238471885e-20,-2.50285021827e-21,8.69590781311e-21,-5.38001295341e-23,1.0
1573178793353657225,0,1573178793078498758,grasp_lab,tag_7,0.469,-0.018,-2.54,-3.64439896429e-21,4.99059626783e-21,-1.83457728735e-21,1.0
1573178793353747898,0,1573178793078498758,grasp_lab,tag_14,-1.21993523463,0.0387968226518,-3.06948400994,0.00349226074599,0.0399699692214,0.00268537772235,0.999191170108
1573178793353824575,0,1573178793078498758,grasp_lab,tag_8,-0.856458374777,-0.00807095814874,-1.21650290614,0.00364170810355,0.0327718941489,-0.00505493110692,0.999443439414
1573178793353886666,0,1573178793078498758,grasp_lab,tag_9,-0.645793639796,0.0249629462736,-3.11491764819,0.0135370766717,0.0399130570318,-0.0198874270134,0.998913502602
1573178793354012841,0,1573178793078498758,map,rig,-0.00922143083134,0.00246538363951,-0.221581488093,0.999516827013,-0.00602221218572,-0.0304799067721,0.000905958356099
1573178793354094151,0,1573178793078498758,rig,cam0,5.40228231667e-23,6.8335627715e-23,-7.98577777019e-24,3.64396161413e-23,1.03287530252e-22,-2.83170405435e-24,1.0
1573178793573277793,0,1573178793309592099,map,grasp_lab,-7.19597132706e-19,5.66246778703e-19,1.05460426319e-19,-5.55309894347e-21,8.76180349486e-21,-4.60492220725e-22,1.0
1573178793573294311,0,1573178793309592099,grasp_lab,tag_7,0.469,-0.018,-2.54,-4.53311029105e-21,4.9677534291e-21,-1.40874014403e-21,1.0
1573178793573324319,0,1573178793309592099,grasp_lab,tag_14,-1.21998427025,0.0388350871942,-3.06933167837,0.00356271071596,0.040002404299,0.00269340784148,0.999189601776
1573178793573329301,0,1573178793309592099,grasp_lab,tag_8,-0.856458374777,-0.00807095814874,-1.21650290614,0.00364170810355,0.0327718941489,-0.00505493110692,0.999443439414
1573178793573333969,0,1573178793309592099,grasp_lab,tag_9,-0.645850346427,0.0250189188471,-3.11484675859,0.0133923401563,0.0399755935153,-0.0198662712323,0.99891337383
1573178793573338203,0,1573178793309592099,map,rig,-0.013307795864,0.00288020327876,-0.253083967716,0.999563056841,-0.0053607145231,-0.0290404239685,0.00126961193228
1573178793573350037,0,1573178793309592099,rig,cam0,5.9694673103e-23,6.94604192356e-23,-7.94073423331e-24,5.70673770598e-23,1.05006274433e-22,-2.30249840814e-24,1.0
1573178793788053467,0,1573178793504063231,map,grasp_lab,-6.5469346806e-19,6.60489584903e-19,9.20750497959e-20,-5.02978530975e-21,8.64287780821e-21,-2.08436001125e-22,1.0
1573178793788166515,0,1573178793504063231,grasp_lab,tag_7,0.469,-0.018,-2.54,-4.92675096666e-21,5.48054323971e-21,-1.12387912037e-21,1.0
1573178793788217298,0,1573178793504063231,grasp_lab,tag_14,-1.21990992754,0.0388998916014,-3.06933877766,0.00357638786327,0.0399114533167,0.00269044364968,0.999193197964
1573178793788286827,0,1573178793504063231,grasp_lab,tag_8,-0.856458374777,-0.00807095814874,-1.21650290614,0.00364170810355,0.0327718941489,-0.00505493110692,0.999443439414
1573178793788346465,0,1573178793504063231,grasp_lab,tag_9,-0.645808549254,0.0250839419393,-3.11490723057,0.0134619648134,0.0398886957433,-0.0198730168793,0.998915777559
