%time,field.transforms0.header.seq,field.transforms0.header.stamp,field.transforms0.header.frame_id,field.transforms0.child_frame_id,field.transforms0.transform.translation.x,field.transforms0.transform.translation.y,field.transforms0.transform.translation.z,field.transforms0.transform.rotation.x,field.transforms0.transform.rotation.y,field.transforms0.transform.rotation.z,field.transforms0.transform.rotation.w
1573179525044703802,0,1573179524745922849,map,grasp_lab,-3.41594024891e-20,1.08862751859e-18,-2.22570927466e-20,-6.47540714253e-21,-2.63144474268e-21,8.53007486152e-23,1.0
1573179525044883076,0,1573179524745922849,grasp_lab,tag_7,0.469,-0.018,-2.54,-1.17779968842e-20,-4.37035815872e-22,-4.54663066334e-22,1.0
1573179525045022689,0,1573179524745922849,grasp_lab,tag_14,-1.21901370232,0.0380462485117,-3.07151804093,0.00525052769963,0.0385066192458,0.00208438874542,0.999242376782
1573179525045068916,0,1573179524745922849,grasp_lab,tag_8,-0.857359927673,-0.00553094642126,-1.21877047376,0.00388119059728,0.0345468382195,-0.00509950576547,0.999382533052
1573179525045108086,0,1573179524745922849,grasp_lab,tag_9,-0.644974692739,0.0240918169382,-3.11600586712,0.0106370978837,0.0373203341471,-0.0202674043117,0.999041178896
1573179525045143580,0,1573179524745922849,map,rig,0.00175724048426,0.000878839080968,0.00589807992725,0.999275029281,-0.00582967480121,-0.0376073308098,0.00105802460369
1573179525045175058,0,1573179524745922849,rig,cam0,6.153287826e-24,3.06341461564e-23,5.14878748099e-24,4.50096901933e-23,-8.97738274793e-25,-5.98149463845e-24,1.0
1573179525240049291,0,1573179524973312141,map,grasp_lab,-7.30761264021e-20,9.12647334244e-19,-1.72484508619e-20,-6.86122856533e-21,-1.98579975535e-21,2.54218090624e-22,1.0
1573179525240127847,0,1573179524973312141,grasp_lab,tag_7,0.469,-0.018,-2.54,-1.13641540622e-20,4.08517664141e-22,3.94351218347e-22,1.0
1573179525240222731,0,1573179524973312141,grasp_lab,tag_14,-1.21902994454,0.0380045900787,-3.07144562272,0.00517378045808,0.0385199770395,0.00208808404415,0.999242254546
1573179525240306574,0,1573179524973312141,grasp_lab,tag_8,-0.857313516057,-0.00540287601445,-1.21871534873,0.00382842350617,0.0345626268902,-0.00509897802551,0.999382193367
1573179525240387520,0,1573179524973312141,grasp_lab,tag_9,-0.644997602214,0.0240442207903,-3.1159679633,0.0106136008427,0.0373603400764,-0.0202746672659,0.999039786162
1573179525240507641,0,1573179524973312141,map,rig,0.00185232104231,0.00113811237305,0.00592981956051,0.999274443922,-0.0058240771579,-0.0376223244907,0.00110749677937
1573179525240565450,0,1573179524973312141,rig,cam0,8.30230396003e-24,3.1287685915e-23,3.86146514359e-24,4.40483987614e-23,5.23212019891e-24,-5.38424903028e-24,1.0
1573179525452098387,0,1573179525194987836,map,grasp_lab,-3.26325622276e-20,8.3738746556e-19,-1.37649023922e-20,-7.05679965163e-21,-2.65075647627e-21,-7.85256814629e-22,1.0
1573179525452991023,0,1573179525194987836,grasp_lab,tag_7,0.469,-0.018,-2.54,-1.11031184247e-20,3.33977290268e-22,-6.01829697189e-22,1.0
1573179525453060850,0,1573179525194987836,grasp_lab,tag_14,-1.21902880935,0.0380025493925,-3.0714681996,0.00512965429109,0.0385175705548,0.0020884357021,0.999242574074
1573179525453100177,0,1573179525194987836,grasp_lab,tag_8,-0.857325866446,-0.00536041585804,-1.21873032952,0.00381378156984,0.0345622968254,-0.00510277998141,0.99938224136
1573179525453109174,0,1573179525194987836,grasp_lab,tag_9,-0.644995510879,0.0240376178114,-3.11599242542,0.0106035757305,0.0373665999547,-0.0202798749147,0.999039552802
1573179525453116895,0,1573179525194987836,map,rig,0.00179335386498,0.00121730623907,0.00587965332786,0.999274628243,-0.00583759271712,-0.0376148860863,0.00112258909242
1573179525453124234,0,1573179525194987836,rig,cam0,2.65351325771e-24,3.71471123693e-23,2.39752320797e-24,4.47516344398e-23,2.645887177e-24,-1.07946985031e-23,1.0
1573179525745176885,0,1573179525383085018,map,grasp_lab,-7.27142432523e-21,-2.17875569713e-20,1.11730488926e-21,1.79167328442e-23,-1.35825795037e-23,6.46857349513e-23,1.0
1573179525745384929,0,1573179525383085018,grasp_lab,tag_7,0.469,-0.018,-2.54,3.07423175159e-22,-1.05906514847e-22,1.69677943292e-22,1.0
1573179525745511096,0,1573179525383085018,grasp_lab,tag_14,-1.21903937097,0.0379894211071,-3.07142151439,0.00514458777562,0.0385241622927,0.00209743587792,0.999242224338
1573179525745629039,0,1573179525383085018,grasp_lab,tag_8,-0.85730547591,-0.00542607915183,-1.21869823389,0.00378178667277,0.0345939693105,-0.00508474660703,0.999381359006
1573179525745739768,0,1573179525383085018,grasp_lab,tag_9,-0.644991918853,0.0240347509135,-3.11587791816,0.0105970288974,0.0372460506107,-0.0202652054665,0.999044421505
1573179525745902444,0,1573179525383085018,map,rig,0.00190323023524,0.00114456330179,0.00586381407904,0.999274121028,-0.00580603742976,-0.0376337673836,0.00110477420684
1573179525746019444,0,1573179525383085018,rig,cam0,5.02375902966e-25,-2.08716887095e-24,-1.6834179836e-25,-3.98630277148e-25,-1.00193956777e-25,6.62422735012e-26,1.0
1573179525914572215,0,1573179525601811640,map,grasp_lab,4.09815804486e-21,-7.19658762621e-21,7.39601096249e-21,5.04642786962e-22,-1.12562439944e-22,5.99601902162e-22,1.0
1573179525914586763,0,1573179525601811640,grasp_lab,tag_7,0.469,-0.018,-2.54,1.58453449715e-22,-5.04397725366e-23,7.26032905392e-22,1.0
1573179525914599177,0,1573179525601811640,grasp_lab,tag_14,-1.21901634149,0.0380384323732,-3.07147751383,0.00521139313138,0.0384997182095,0.00210944050428,0.99924279499
1573179525914607287,0,1573179525601811640,grasp_lab,tag_8,-0.857350291227,-0.00564804518127,-1.21875481721,0.00385916806166,0.0345832219136,-0.00507340611314,0.999381492792
1573179525914613232,0,1573179525601811640,grasp_lab,tag_9,-0.644972605147,0.0241000881518,-3.11593675447,0.0106536203554,0.0372434327201,-0.0202467312983,0.999044291793
1573179525914619527,0,1573179525601811640,map,rig,0.00179626960445,0.000686185043597,0.00590504223846,0.999274744011,-0.00582352006567,-0.0376169035513,0.00102037437803
1573179525914625486,0,1573179525601811640,rig,cam0,5.65554856952e-26,-1.98590541323e-24,8.44475080218e-26,-9.84210563126e-25,7.15972256357e-25,6.8623506514e-25,1.0
1573179526124162282,0,1573179525819464838,map,grasp_lab,-4.49147907198e-21,-1.23844827926e-20,8.66795383295e-21,7.65590588676e-22,-2.04798161195e-22,2.66193694839e-22,1.0
1573179526124176614,0,1573179525819464838,grasp_lab,tag_7,0.469,-0.018,-2.54,1.26807695391e-21,-1.14033347387e-22,5.90319242861e-22,1.0
1573179526124181746,0,1573179525819464838,grasp_lab,tag_14,-1.21900988922,0.0380545534708,-3.07150208543,0.00520905151831,0.038487791561,0.00210668696435,0.999243272458
1573179526124185881,0,1573179525819464838,grasp_lab,tag_8,-0.857365718262,-0.00564859019823,-1.21877845024,0.00385936531297,0.0345819895119,-0.00507479881288,0.999381527605
1573179526124189916,0,1573179525819464838,grasp_lab,tag_9,-0.644965426424,0.0241113917999,-3.11595952369,0.0107145695079,0.0372608899578,-0.0202584980233,0.999042750506
1573179526124194538,0,1573179525819464838,map,rig,0.00188014636049,0.000734361400896,0.00592400962254,0.999274229918,-0.00582975381438,-0.0376293215971,0.0010303145357
1573179526124199387,0,1573179525819464838,rig,cam0,-4.49878192445e-26,-8.16336812463e-24,1.10762783299e-25,1.28557384927e-24,5.14515204693e-25,8.91302967768e-25,1.0
1573179526364500106,0,1573179526051189853,map,grasp_lab,-6.25121675057e-21,4.5758724445e-20,1.64720374255e-20,6.34088068997e-22,-1.68227225627e-22,3.57356376551e-22,1.0
1573179526364514747,0,1573179526051189853,grasp_lab,tag_7,0.469,-0.018,-2.54,5.09927854851e-22,-1.08215778738e-22,4.93685430798e-22,1.0
1573179526364518794,0,1573179526051189853,grasp_lab,tag_14,-1.21900129975,0.038109011104,-3.07153376112,0.0052831318014,0.038479818563,0.0020990944519,0.999243206574
1573179526364523088,0,1573179526051189853,grasp_lab,tag_8,-0.857386757307,-0.00576312098097,-1.21881370438,0.00390994536567,0.0345796382039,-0.00507718349954,0.999381400245
1573179526364527006,0,1573179526051189853,grasp_lab,tag_9,-0.644955752637,0.0241679596463,-3.11598540915,0.0106978271919,0.0372515824129,-0.0202518047418,0.999043412723
1573179526364530810,0,1573179526051189853,map,rig,0.00176738836404,0.00045712990622,0.00589503557606,0.999275152902,-0.00582202236876,-0.037607499094,0.000974094233159
1573179526364534908,0,1573179526051189853,rig,cam0,-1.68764036736e-25,-5.72347442295e-24,2.75140045147e-25,-1.20452985757e-24,1.25868884231e-24,5.33646277047e-25,1.0
1573179526576060015,0,1573179526296896312,map,grasp_lab,-2.40084415904e-20,-4.02383821408e-20,1.97479052744e-20,9.72016066812e-22,-1.22170470383e-22,4.25864911938e-22,1.0
1573179526576191700,0,1573179526296896312,grasp_lab,tag_7,0.469,-0.018,-2.54,1.03457484737e-21,-9.77352733857e-23,7.90692294346e-22,1.0
1573179526576240863,0,1573179526296896312,grasp_lab,tag_14,-1.21898443604,0.0381065774034,-3.0715945166,0.00529418248449,0.0384750440645,0.00209406702162,0.999243342484
1573179526576255024,0,1573179526296896312,grasp_lab,tag_8,-0.857431305462,-0.00576926926066,-1.2188626411,0.00391739279252,0.0345678174866,-0.00507951218313,0.999381768187
1573179526576358189,0,1573179526296896312,grasp_lab,tag_9,-0.644935699623,0.02416661514,-3.11601909421,0.0107780977685,0.03721732815,-0.0202601388268,0.999043657639
1573179526576442265,0,1573179526296896312,map,rig,0.00167712606544,0.000500879422602,0.00586253008225,0.999275890338,-0.00579784164349,-0.0375914363632,0.000981801536254
1573179526576499679,0,1573179526296896312,rig,cam0,-1.16171401949e-25,-1.36104711434e-23,2.95591717918e-25,6.0727162125e-24,1.78836734925e-24,1.74807205525e-24,1.0
1573179526769503947,0,1573179526515357697,map,grasp_lab,-2.80059605464e-20,6.78333396951e-20,1.2119235753e-20,1.83126678298e-21,-3.65658330011e-23,2.49199039748e-22,1.0
1573179526769525348,0,1573179526515357697,grasp_lab,tag_7,0.469,-0.018,-2.54,6.53812758842e-22,-1.62305844498e-22,7.86429037931e-22,1.0
1573179526769530745,0,1573179526515357697,grasp_lab,tag_14,-1.21901282868,0.038097195003,-3.07150734222,0.0052953431995,0.0385094080791,0.00210007505297,0.999241999975
1573179526769535179,0,1573179526515357697,grasp_lab,tag_8,-0.857373860713,-0.00583588060874,-1.21879674069,0.00392000729826,0.0346020826483,-0.00507240416357,0.999380608245
1573179526769539179,0,1573179526515357697,grasp_lab,tag_9,-0.64496523091,0.0241674719832,-3.11595977938,0.0107879058859,0.0372345189966,-0.0202477541883,0.999043162297
1573179526769543132,0,1573179526515357697,map,rig,0.00176269290274,0.000407088277697,0.0058688964942,0.999275216348,-0.00579849160314,-0.0376097065134,0.000964087078456
1573179526769547710,0,1573179526515357697,rig,cam0,7.95736767643e-25,-1.01333407863e-23,-2.0299801047e-25,1.07424356599e-23,2.86501074194e-25,1.68404602466e-24,1.0
1573179526967862813,0,1573179526700881285,map,grasp_lab,-3.11365164179e-20,-9.13835707372e-20,1.24313919575e-20,2.62921436967e-21,-9.92383205497e-23,5.1687450552e-22,1.0
1573179526968097243,0,1573179526700881285,grasp_lab,tag_7,0.469,-0.018,-2.54,2.70514963698e-21,-1.83222446282e-22,6.89795225868e-22,1.0
1573179526968243138,0,1573179526700881285,grasp_lab,tag_14,-1.21901941357,0.0381550688308,-3.07147279196,0.00535699099401,0.0385263096224,0.00209947819266,0.999241021128
1573179526968369869,0,1573179526700881285,grasp_lab,tag_8,-0.857361717581,-0.00594965669108,-1.21877714388,0.00396494254141,0.0346171505634,-0.0050713311177,0.999379914606
1573179526968490056,0,1573179526700881285,grasp_lab,tag_9,-0.644970240143,0.024226240969,-3.11592254842,0.0107989592842,0.0372238722156,-0.0202482584342,0.999043429409
1573179526968684098,0,1573179526700881285,map,rig,0.00181794520554,0.000152673645755,0.00592448863279,0.99927481518,-0.00581337285784,-0.0376191956553,0.000919000407448
1573179526968802902,0,1573179526700881285,rig,cam0,5.44391051787e-25,-1.38463240099e-23,2.06325446596e-25,1.4748540758e-23,1.17602154095e-24,2.12684959522e-24,1.0
1573179527173114322,0,1573179526920819901,map,grasp_lab,-4.56791117529e-20,-3.47005486015e-20,1.29658030546e-20,2.57736197426e-21,5.00329388514e-23,5.66915647126e-22,1.0
1573179527173129172,0,1573179526920819901,grasp_lab,tag_7,0.469,-0.018,-2.54,1.94193792093e-21,-3.20312785363e-22,8.39009200378e-22,1.0
1573179527173150312,0,1573179526920819901,grasp_lab,tag_14,-1.21902523563,0.0381600984603,-3.07147034538,0.00539568151029,0.0385327226764,0.00209489751891,0.999240575291
1573179527173244488,0,1573179526920819901,grasp_lab,tag_8,-0.857352206814,-0.00598615066537,-1.21877030042,0.00396947006361,0.0346233297604,-0.00506567854915,0.999379711243
1573179527173252179,0,1573179526920819901,grasp_lab,tag_9,-0.644971715423,0.0242345727613,-3.11591037541,0.0108713672642,0.0372025299094,-0.0202475610585,0.999043453216
1573179527173257605,0,1573179526920819901,map,rig,0.00186443058235,7.88097962927e-05,0.0059278696131,0.999274536449,-0.00580384130108,-0.0376284998453,0.000901238003964
1573179527173261871,0,1573179526920819901,rig,cam0,1.24008935095e-24,-1.47828124177e-23,3.14967869275e-25,1.30898719428e-23,-4.64017776606e-25,2.34783472924e-24,1.0
1573179527396049699,0,1573179527116688348,map,grasp_lab,-1.63106148477e-20,7.85470741962e-20,1.14754135244e-20,3.8119597062e-21,7.28024819705e-23,9.44853547101e-23,1.0
1573179527396269723,0,1573179527116688348,grasp_lab,tag_7,0.469,-0.018,-2.54,1.40560204727e-21,7.09665332834e-23,8.10002063968e-22,1.0
1573179527396412544,0,1573179527116688348,grasp_lab,tag_14,-1.21900782909,0.0381116509326,-3.07152499392,0.0053576191137,0.0385290527575,0.00209116395572,0.999240929428
1573179527396446833,0,1573179527116688348,grasp_lab,tag_8,-0.857391448076,-0.00586080885067,-1.21881769011,0.00391581695914,0.034614120991,-0.00506529638417,0.99938024384
1573179527396480942,0,1573179527116688348,grasp_lab,tag_9,-0.644954126294,0.0241812150861,-3.11594866489,0.0108474531999,0.0371993634771,-0.0202481999945,0.999043818115
1573179527396516867,0,1573179527116688348,map,rig,0.00178374492384,0.000295828172445,0.00589803150609,0.99927506593,-0.00580755922774,-0.0376127501658,0.000946514929992
1573179527396553045,0,1573179527116688348,rig,cam0,-2.06041516946e-25,-1.45597554313e-23,-4.72049828715e-25,1.08259848901e-23,-1.47378418351e-24,3.25364926882e-24,1.0
1573179527613444958,0,1573179527340797087,map,grasp_lab,-3.54859372289e-21,2.68264893468e-20,2.1004293365e-20,4.69558691625e-21,1.99324720144e-23,1.9916061016e-22,1.0
1573179527613758385,0,1573179527340797087,grasp_lab,tag_7,0.469,-0.018,-2.54,2.41933382152e-21,7.47933846411e-23,9.77920305219e-22,1.0
1573179527613770293,0,1573179527340797087,grasp_lab,tag_14,-1.21902180948,0.0381191633617,-3.07148908664,0.00535046110959,0.0385350559301,0.00208515563342,0.999240748847
1573179527613781908,0,1573179527340797087,grasp_lab,tag_8,-0.857361867367,-0.00588049872131,-1.21878616834,0.00392307804656,0.0346272155712,-0.00506232913788,0.999379776774
1573179527613786524,0,1573179527340797087,grasp_lab,tag_9,-0.644973308108,0.0241898716528,-3.11595071884,0.0108090058541,0.0372556570929,-0.0202470272636,0.999042160919
1573179527613798185,0,1573179527340797087,map,rig,0.00184915262902,0.00025603494764,0.00590784839134,0.99927452582,-0.00582170170964,-0.0376251462134,0.000937128331745
1573179527613805505,0,1573179527340797087,rig,cam0,1.26392536353e-26,-2.23272087183e-23,-1.01121933718e-25,7.65162907814e-24,9.44629030767e-25,2.78008509535e-24,1.0
1573179527830183984,0,1573179527563495047,map,grasp_lab,-2.67683966446e-20,-6.01530261338e-21,2.08234337862e-20,4.04376827637e-21,-7.3408071683e-23,3.99959181613e-23,1.0
1573179527830262256,0,1573179527563495047,grasp_lab,tag_7,0.469,-0.018,-2.54,2.44546823191e-21,2.21623921624e-22,6.07436046264e-22,1.0
1573179527830355666,0,1573179527563495047,grasp_lab,tag_14,-1.21899716119,0.0381481544577,-3.07159643754,0.00531820178157,0.0385143930525,0.00207235349411,0.999241744328
1573179527830439969,0,1573179527563495047,grasp_lab,tag_8,-0.857421297353,-0.00581394783483,-1.21886000346,0.00391198616753,0.0346063026434,-0.00507517208442,0.999380479502
1573179527830519230,0,1573179527563495047,grasp_lab,tag_9,-0.644942241649,0.024203003376,-3.11601817776,0.0108262090421,0.0372434671497,-0.0202652390151,0.999042059895
1573179527830623590,0,1573179527563495047,map,rig,0.00159644827174,0.000330748780422,0.00581423012003,0.999276092734,-0.00583516111263,-0.0375810668284,0.000951210750417
1573179527830687507,0,1573179527563495047,rig,cam0,2.27530653737e-25,-2.33948579995e-23,-5.13516098146e-25,8.20663304975e-24,4.32295955122e-25,3.05633379238e-24,1.0
1573179528051965857,0,1573179527782105636,map,grasp_lab,-9.83435961733e-21,3.83130442181e-20,2.12818624896e-20,4.44752650594e-21,2.41030834169e-22,3.77884618229e-22,1.0
1573179528052465075,0,1573179527782105636,grasp_lab,tag_7,0.469,-0.018,-2.54,2.03245808597e-21,7.87035944509e-22,1.10048929701e-21,1.0
1573179528053284369,0,1573179527782105636,grasp_lab,tag_14,-1.21900637543,0.038120119272,-3.07158324016,0.00529858204889,0.0385206181754,0.00207097815287,0.99924161145
1573179528053331807,0,1573179527782105636,grasp_lab,tag_8,-0.857394166065,-0.00575683433914,-1.21883838256,0.0038889773416,0.0346099712878,-0.00507601920427,0.999380437957
1573179528053445980,0,1573179527782105636,grasp_lab,tag_9,-0.644947597548,0.0241744122264,-3.1159969544,0.0108667305695,0.037219376892,-0.0202767848949,0.999042283462
1573179528053515749,0,1573179527782105636,map,rig,0.00175020446148,0.000429019107184,0.00586924529291,0.999275253417,-0.00582321392464,-0.0376048552221,0.000965893960266
1573179528053567922,0,1573179527782105636,rig,cam0,-1.11328557565e-24,-2.99199146189e-23,-6.79077738728e-25,3.70849864458e-24,1.06919662525e-24,2.54848782899e-24,1.0
1573179528282778519,0,1573179528001249444,map,grasp_lab,-2.48664459332e-20,1.56499845916e-19,1.7906973055e-20,3.21675446726e-21,1.28004440236e-22,-7.01097670345e-23,1.0
1573179528282791463,0,1573179528001249444,grasp_lab,tag_7,0.469,-0.018,-2.54,2.79713995173e-22,3.02658574534e-22,2.22524353421e-22,1.0
1573179528282795825,0,1573179528001249444,grasp_lab,tag_14,-1.21899444628,0.0381008924475,-3.07158547105,0.00526713441417,0.0385093571483,0.00206324639195,0.999242227751
1573179528282799978,0,1573179528001249444,grasp_lab,tag_8,-0.857402391907,-0.00562638812684,-1.21885026848,0.0038448355183,0.0346098208637,-0.00508244525635,0.999380581305
1573179528283092799,0,1573179528001249444,grasp_lab,tag_9,-0.644944758762,0.0241429318529,-3.11602132504,0.0108369303933,0.0372381690214,-0.0202857158255,0.999041725576
1573179528283232054,0,1573179528001249444,map,rig,0.0017530843385,0.000684668866443,0.00587975062158,0.999275073051,-0.00583851436215,-0.0376059059811,0.0010178230591
1573179528283240217,0,1573179528001249444,rig,cam0,-2.87264586612e-25,-1.55511783932e-23,-6.27374806542e-25,2.10446670897e-23,-1.62871120435e-24,7.24473401204e-25,1.0
1573179528480839873,0,1573179528228453310,map,grasp_lab,-2.45117473384e-20,7.02966060772e-20,1.84055769891e-20,3.46133670324e-21,1.63195996254e-22,-1.88246666714e-22,1.0
1573179528480933691,0,1573179528228453310,grasp_lab,tag_7,0.469,-0.018,-2.54,1.35658393343e-21,4.46895733574e-22,4.51763409388e-22,1.0
1573179528480996213,0,1573179528228453310,grasp_lab,tag_14,-1.21897680134,0.0380850463056,-3.07159816112,0.00524213730342,0.0384827910974,0.00205810739507,0.999243393263
1573179528481058599,0,1573179528228453310,grasp_lab,tag_8,-0.857428053338,-0.00555814742895,-1.21887064536,0.00382008270523,0.0345976905719,-0.00508448238806,0.99938108588
1573179528481136723,0,1573179528228453310,grasp_lab,tag_9,-0.644937327417,0.0241223093051,-3.11605811732,0.0108172395356,0.0372392736627,-0.0202882480904,0.999041846378
1573179528481234069,0,1573179528228453310,map,rig,0.0016143518345,0.000823183307684,0.00584621429243,0.999276035942,-0.00583203747663,-0.0375806458468,0.00104229966581
1573179528481309636,0,1573179528228453310,rig,cam0,8.98690549592e-25,-2.59158042902e-23,-6.53389008926e-25,1.72434691901e-23,7.42278116627e-25,1.64492927581e-24,1.0
1573179528705839476,0,1573179528407388974,map,grasp_lab,-3.06170708448e-20,4.59790698274e-20,3.04736841577e-20,3.33866719107e-21,1.48575855102e-22,-5.03201351773e-23,1.0
1573179528706039046,0,1573179528407388974,grasp_lab,tag_7,0.469,-0.018,-2.54,1.21096708152e-21,3.81525801885e-22,4.78053490611e-22,1.0
1573179528706049117,0,1573179528407388974,grasp_lab,tag_14,-1.2189718177,0.038082399888,-3.07159655314,0.00522428682467,0.0384761114671,0.00206303130834,0.999243733818
1573179528706054270,0,1573179528407388974,grasp_lab,tag_8,-0.857428754823,-0.00557627612253,-1.21887529582,0.00383717572334,0.0346036981985,-0.00508100672835,0.999380830076
1573179528706067422,0,1573179528407388974,grasp_lab,tag_9,-0.644938672344,0.024122109365,-3.11607994195,0.0108304105328,0.0372640910687,-0.0202880602291,0.999040782119
1573179528706159007,0,1573179528407388974,map,rig,0.001660476517,0.00078365264659,0.00581608449035,0.999275704286,-0.00583989818457,-0.0375884272679,0.00103563890093
1573179528706171780,0,1573179528407388974,rig,cam0,2.2042419048e-24,-2.85002982566e-23,-5.74992891105e-25,2.13888747073e-23,-2.27697800426e-24,2.10233721196e-24,1.0
1573179528922689734,0,1573179528639430718,map,grasp_lab,-3.32994384794e-20,-3.95441024416e-20,1.92291625483e-20,3.08774276445e-21,9.89695855203e-23,-3.20608315145e-22,1.0
1573179528922889915,0,1573179528639430718,grasp_lab,tag_7,0.469,-0.018,-2.54,2.13209692059e-21,3.05320093474e-22,7.09690422469e-22,1.0
1573179528922963407,0,1573179528639430718,grasp_lab,tag_14,-1.21898556409,0.0380511198608,-3.07153660259,0.005221589938,0.0384793371303,0.00206287739748,0.999243624022
1573179528923046196,0,1573179528639430718,grasp_lab,tag_8,-0.857396064169,-0.0055283030995,-1.21882947063,0.00381060670246,0.0346178877339,-0.00507761788721,0.999380457545
1573179528923061603,0,1573179528639430718,grasp_lab,tag_9,-0.644954037942,0.0240922088988,-3.11602977546,0.0108296613477,0.0372647669903,-0.0202845276943,0.999040836759
1573179528923350311,0,1573179528639430718,map,rig,0.00170898885922,0.000850792564879,0.00587573038941,0.999275222789,-0.00584423189658,-0.0376000476932,0.0010537965002
1573179528923360682,0,1573179528639430718,rig,cam0,2.23872328756e-24,-3.27066482218e-23,-6.64300855007e-25,2.62964829907e-23,-2.52225690915e-24,2.53312794836e-24,1.0
1573179529144914091,0,1573179528850947874,map,grasp_lab,-7.17025392008e-20,-1.65073241162e-20,2.87717712022e-20,3.93225686736e-21,-3.26728301592e-22,-3.61995773513e-22,1.0
1573179529144933910,0,1573179528850947874,grasp_lab,tag_7,0.469,-0.018,-2.54,2.20732563274e-21,-3.50510851632e-22,6.62084059173e-22,1.0
1573179529144939589,0,1573179528850947874,grasp_lab,tag_14,-1.21895433003,0.0380586720081,-3.07164495887,0.0052645699462,0.0384565906302,0.00205920612258,0.99924428175
1573179529145032414,0,1573179528850947874,grasp_lab,tag_8,-0.857470332908,-0.00554808589606,-1.21892105529,0.00381533799599,0.0345932805923,-0.00507537662476,0.99938130295
1573179529145039095,0,1573179528850947874,grasp_lab,tag_9,-0.644917906869,0.024100033867,-3.11609695033,0.0108910619995,0.0372435874678,-0.0202873873977,0.999040901001
1573179529145048899,0,1573179528850947874,map,rig,0.00159215508075,0.000866343167178,0.00589171367598,0.99927633205,-0.00583109152877,-0.0375725828388,0.00105432226412
1573179529145053324,0,1573179528850947874,rig,cam0,3.7586735026e-24,-2.9517831029e-23,-6.4162429253e-25,1.19527490229e-23,-4.26891930562e-24,8.61942906203e-26,1.0
1573179529360001285,0,1573179529071569876,map,grasp_lab,-1.13087166323e-20,2.14441438943e-20,9.63861598686e-21,3.910811042e-21,-1.76155966952e-22,-2.41840978544e-22,1.0
1573179529360115969,0,1573179529071569876,grasp_lab,tag_7,0.469,-0.018,-2.54,1.92838229933e-21,-8.84995253295e-23,3.5533792089e-22,1.0
1573179529360133681,0,1573179529071569876,grasp_lab,tag_14,-1.21897635255,0.0380843919578,-3.07155267014,0.00533323199865,0.038469657216,0.0020552032113,0.999243422921
1573179529360139506,0,1573179529071569876,grasp_lab,tag_8,-0.857413522772,-0.00564924452575,-1.21885439991,0.0038576583503,0.0346210034486,-0.00507555554865,0.999380179575
1573179529360143414,0,1573179529071569876,grasp_lab,tag_9,-0.644941160507,0.0241327209982,-3.11602255313,0.0109314747848,0.0372454081008,-0.0202884853562,0.999040369453
1573179529360147159,0,1573179529071569876,map,rig,0.00168147209379,0.000657748806516,0.00588064672088,0.999275737724,-0.00581709432138,-0.0375917608683,0.00101040820415
1573179529360163853,0,1573179529071569876,rig,cam0,2.15292506331e-25,-3.01581769869e-23,4.07336559902e-25,1.22397194877e-23,-5.87780743181e-24,1.09985818381e-24,1.0
1573179529559640843,0,1573179529293402103,map,grasp_lab,-2.02338577104e-20,5.68436894261e-20,9.29108706957e-21,3.16841261109e-21,-3.00727574776e-22,-3.17122235129e-22,1.0
1573179529559655307,0,1573179529293402103,grasp_lab,tag_7,0.469,-0.018,-2.54,5.80110645031e-22,-1.59052510319e-22,1.37482424291e-22,1.0
1573179529559660237,0,1573179529293402103,grasp_lab,tag_14,-1.21897310038,0.0380490668112,-3.07156566165,0.00530343459013,0.0384678311869,0.00205739630003,0.999243647298
1573179529559894255,0,1573179529293402103,grasp_lab,tag_8,-0.857416644122,-0.00557782682414,-1.21886331465,0.00383614523979,0.034621819121,-0.00507743325164,0.99938022459
1573179529559904736,0,1573179529293402103,grasp_lab,tag_9,-0.644937916965,0.0240966611488,-3.11603375617,0.0108857009912,0.0372423872842,-0.0202896037412,0.999040959162
1573179529559915980,0,1573179529293402103,map,rig,0.00165781630635,0.000775550663957,0.00585256608414,0.999275817434,-0.00582109562094,-0.037588354577,0.00103495809639
1573179529559923799,0,1573179529293402103,rig,cam0,2.38260316508e-24,-3.08588876463e-23,2.76594602272e-25,1.99367960449e-23,-5.11627405748e-24,1.9698133965e-24,1.0
1573179529784268896,0,1573179529488980702,map,grasp_lab,-2.36725191019e-22,1.52619899223e-20,2.05749524798e-20,3.41652150068e-21,-2.99606436444e-22,-4.95522066772e-22,1.0
1573179529784378014,0,1573179529488980702,grasp_lab,tag_7,0.469,-0.018,-2.54,2.32078352453e-21,-2.23758443694e-22,2.83233585358e-22,1.0
1573179529784441224,0,1573179529488980702,grasp_lab,tag_14,-1.21895591821,0.0380834945037,-3.07158270876,0.005317874098,0.0384605047541,0.00206310312875,0.999243840809
1573179529784512971,0,1573179529488980702,grasp_lab,tag_8,-0.857446564707,-0.00566954832108,-1.21889361907,0.00386944016294,0.0346182063139,-0.00507588175777,0.999380229267
1573179529784574508,0,1573179529488980702,grasp_lab,tag_9,-0.644927172715,0.0241344006729,-3.1160604554,0.01092435229,0.0372403289571,-0.0202839942777,0.9990407279
1573179529784735568,0,1573179529488980702,map,rig,0.00162054188549,0.000645292985458,0.00587295861049,0.999276112415,-0.00582209482895,-0.0375810822004,0.00100828054674
1573179529784746392,0,1573179529488980702,rig,cam0,2.74505246064e-24,-3.54091761062e-23,-3.54086237281e-25,9.71284505166e-24,-3.70835236866e-24,2.23690558089e-24,1.0
1573179529990800334,0,1573179529723835048,map,grasp_lab,2.49862807705e-20,2.86876386174e-20,2.87601079585e-20,3.53220846782e-21,2.98017598573e-22,-1.38007137972e-22,1.0
1573179529990875887,0,1573179529723835048,grasp_lab,tag_7,0.469,-0.018,-2.54,1.17552876257e-21,3.28723594833e-22,-2.7085855288e-22,1.0
1573179529991016387,0,1573179529723835048,grasp_lab,tag_14,-1.21896686989,0.0380250264176,-3.07155671221,0.00523212729157,0.0384666924729,0.00205619860434,0.999244069515
1573179529991126106,0,1573179529723835048,grasp_lab,tag_8,-0.857420091537,-0.00545355113055,-1.21886718052,0.00379096129351,0.0346280977851,-0.00508205203759,0.999380155998
1573179529991190680,0,1573179529723835048,grasp_lab,tag_9,-0.644938269917,0.0240616206568,-3.11604022222,0.0108684670619,0.0372439288515,-0.0203004369866,0.999040869257
1573179529993065346,0,1573179529723835048,map,rig,0.00173696135677,0.00102276787806,0.00590994150579,0.999275200609,-0.00583859836073,-0.0376007594862,0.00108032575806
1573179529993080418,0,1573179529723835048,rig,cam0,2.16078094295e-24,-2.61587764223e-23,-2.404185948e-25,7.82545787925e-24,-3.77154273889e-24,1.71092047201e-24,1.0
1573179530198581855,0,1573179529911101086,map,grasp_lab,9.1386128733e-21,-9.16164108461e-22,3.0288193632e-20,4.68954801355e-21,1.22640043071e-22,-5.69567803335e-22,1.0
1573179530198597252,0,1573179529911101086,grasp_lab,tag_7,0.469,-0.018,-2.54,8.96996010156e-22,1.87236772575e-22,-7.95327909713e-22,1.0
1573179530198607402,0,1573179529911101086,grasp_lab,tag_14,-1.21895894514,0.0380593449882,-3.07156011901,0.00528942877488,0.038461955579,0.00206300240591,0.999243936152
1573179530198614799,0,1573179529911101086,grasp_lab,tag_8,-0.857428285869,-0.00558929530102,-1.21887840607,0.00383741571333,0.0346249303976,-0.0050761924287,0.999380118226
1573179530198624685,0,1573179529911101086,grasp_lab,tag_9,-0.644933824968,0.024105811594,-3.11605104757,0.0109005953992,0.0372365635416,-0.0202945121693,0.999040914143
1573179530198628627,0,1573179529911101086,map,rig,0.00167510712379,0.000757709262677,0.00584935189271,0.999275576883,-0.00582944067415,-0.0375936227357,0.00102888133504
1573179530198730458,0,1573179529911101086,rig,cam0,3.5502128963e-24,-1.33532340299e-23,-1.63693955669e-25,8.03778080571e-24,-4.07444582322e-24,-2.56670091264e-24,1.0
1573179530408306685,0,1573179530140961316,map,grasp_lab,2.99238058496e-20,2.30975884537e-19,4.09836751351e-20,5.67829709183e-21,-4.55697429954e-23,-2.55025920115e-21,1.0
1573179530408502854,0,1573179530140961316,grasp_lab,tag_7,0.469,-0.018,-2.54,-6.81368317379e-22,2.43612823886e-22,-2.14892593647e-21,1.0
1573179530408673114,0,1573179530140961316,grasp_lab,tag_14,-1.21893590119,0.0379966593417,-3.07160347828,0.00520953854233,0.0384466149393,0.00204803573373,0.999244976999
1573179530408808616,0,1573179530140961316,grasp_lab,tag_8,-0.857458651863,-0.00532715159821,-1.21892181077,0.00374790790286,0.034616902263,-0.00509003093146,0.999380665637
1573179530408939604,0,1573179530140961316,grasp_lab,tag_9,-0.644915896847,0.0240243110509,-3.11609103054,0.0109091682949,0.0372218482332,-0.0203186827783,0.999040877638
1573179530409075257,0,1573179530140961316,map,rig,0.00145279911296,0.00129617432544,0.00580114860811,0.999277055133,-0.0058310682586,-0.0375511137249,0.00113118744125
1573179530409154920,0,1573179530140961316,rig,cam0,2.92258528176e-24,-4.956166186e-24,-3.36390523604e-26,4.04464073104e-24,-3.8709689171e-24,-4.43102071152e-24,1.0
1573179530614655446,0,1573179530363709120,map,grasp_lab,3.45897853249e-20,3.16358739479e-19,4.21441749751e-20,4.49107787509e-21,-6.34230443269e-23,-2.07130438007e-21,1.0
1573179530614837015,0,1573179530363709120,grasp_lab,tag_7,0.469,-0.018,-2.54,1.02435114829e-21,3.05673050136e-23,-1.42717508687e-21,1.0
1573179530615282876,0,1573179530363709120,grasp_lab,tag_14,-1.2189248188,0.0379755527257,-3.07164256009,0.00514802307808,0.0384393669889,0.00203927020728,0.999245592585
1573179530615291882,0,1573179530363709120,grasp_lab,tag_8,-0.857483023224,-0.00517333933161,-1.21895481291,0.00370499494926,0.0346143477338,-0.00510416540853,0.999380842041
1573179530615296785,0,1573179530363709120,grasp_lab,tag_9,-0.644907942085,0.0239884665487,-3.11613687899,0.0108247562914,0.0372474265105,-0.0203263573392,0.999040686392
1573179530615301633,0,1573179530363709120,map,rig,0.00157847910683,0.00148821753769,0.00582606363307,0.999276117361,-0.00585195448361,-0.0375716662663,0.00116867182854
1573179530615312183,0,1573179530363709120,rig,cam0,4.62621774286e-24,-1.67847871922e-23,-7.85641420854e-25,3.80856232872e-23,-4.18245809499e-24,-2.33473078075e-24,1.0
1573179530836878066,0,1573179530546680090,map,grasp_lab,1.89032994688e-20,5.47389898551e-19,3.89823601888e-20,3.09592359826e-21,-1.26301611526e-22,-3.12187504388e-21,1.0
1573179530836893142,0,1573179530546680090,grasp_lab,tag_7,0.469,-0.018,-2.54,-3.32451601868e-21,-6.01098150811e-23,-1.10077246825e-21,1.0
1573179530836899135,0,1573179530546680090,grasp_lab,tag_14,-1.21892074233,0.0379092139778,-3.07162161802,0.00506619574238,0.0384371881812,0.00203179036364,0.999246109851
1573179530836903998,0,1573179530546680090,grasp_lab,tag_8,-0.857478324256,-0.00496041157771,-1.21895170492,0.00363965632171,0.0346240424191,-0.00511382030048,0.999380696947
1573179530836916094,0,1573179530546680090,grasp_lab,tag_9,-0.644908265516,0.0239102931825,-3.11612285272,0.0108135388,0.0372314351148,-0.0203467436478,0.999040988969
1573179530837404627,0,1573179530546680090,map,rig,0.00153191084038,0.001891531993,0.00586077442692,0.999276375531,-0.00586176339258,-0.0375604894588,0.00125485720898
1573179530837456649,0,1573179530546680090,rig,cam0,6.1395211977e-24,-9.51785140474e-24,-4.52154169675e-25,5.0896561412e-23,-6.67792051012e-24,-6.20468041111e-24,1.0
1573179531049751156,0,1573179530761366566,map,grasp_lab,2.08835477001e-20,6.0159013683e-19,5.17978064929e-20,3.95562553194e-21,-6.76445604716e-24,-2.58093594633e-21,1.0
1573179531049768491,0,1573179530761366566,grasp_lab,tag_7,0.469,-0.018,-2.54,-1.08470767988e-21,-1.78825963104e-22,-1.52141376782e-21,1.0
1573179531049777343,0,1573179530761366566,grasp_lab,tag_14,-1.21888787817,0.0378932060076,-3.07172485692,0.0050435279222,0.0384118352329,0.00203684745818,0.999247189134
1573179531050106972,0,1573179530761366566,grasp_lab,tag_8,-0.857545632902,-0.00490818969949,-1.21904103598,0.0036091991764,0.0346075889792,-0.00511503073338,0.999381371113
1573179531050116965,0,1573179530761366566,grasp_lab,tag_9,-0.644875217441,0.0238917007259,-3.11620104184,0.0108119226191,0.0372027423906,-0.0203493421701,0.99904202242
1573179531050125007,0,1573179530761366566,map,rig,0.00147182764571,0.00198160327757,0.00572515775394,0.99927681603,-0.00585978600461,-0.0375484235844,0.00127426044223
1573179531050131858,0,1573179530761366566,rig,cam0,6.02265043671e-24,-1.51179387302e-23,-1.71058370812e-25,4.53250294601e-23,-5.34509033483e-24,-4.70218357268e-24,1.0
1573179531258786306,0,1573179531008190754,map,grasp_lab,1.33602002891e-20,6.73832134458e-19,4.53817092975e-20,3.06163803271e-21,-3.65234540631e-23,-2.37026093241e-21,1.0
1573179531258799185,0,1573179531008190754,grasp_lab,tag_7,0.469,-0.018,-2.54,-3.06391243435e-21,-9.56720176613e-23,-1.37514140176e-21,1.0
1573179531258804890,0,1573179531008190754,grasp_lab,tag_14,-1.21889723717,0.0378521433088,-3.07165084226,0.00502831766522,0.0384082258765,0.00203398814725,0.999247410354
1573179531258814976,0,1573179531008190754,grasp_lab,tag_8,-0.857511356087,-0.004830352214,-1.21899857965,0.00358133300366,0.0346229928895,-0.00511314752831,0.999380947457
1573179531258820858,0,1573179531008190754,grasp_lab,tag_9,-0.644896381572,0.0238507695415,-3.1161755211,0.0107323473673,0.0372341806747,-0.0203473210201,0.999041750397
1573179531258834623,0,1573179531008190754,map,rig,0.00158203592242,0.00212256997807,0.0058088329702,0.999276029889,-0.00585955986365,-0.0375681203906,0.00131071650576
1573179531258839820,0,1573179531008190754,rig,cam0,6.85046114274e-24,-1.32320824107e-23,-3.42352024814e-25,5.04771605655e-23,-3.7392366254e-24,-5.42723267633e-24,1.0
1573179531471347690,0,1573179531187179892,map,grasp_lab,1.74224383825e-20,6.74192457396e-19,4.50662332901e-20,3.14278378199e-21,-1.20251928333e-22,-2.38701441277e-21,1.0
1573179531471362129,0,1573179531187179892,grasp_lab,tag_7,0.469,-0.018,-2.54,-3.13243139006e-21,-2.33400242979e-22,-9.17857703072e-22,1.0
1573179531471367865,0,1573179531187179892,grasp_lab,tag_14,-1.21889567828,0.0378237249092,-3.07163867076,0.00498733888991,0.0384060339702,0.00204168358741,0.999247684277
1573179531471372605,0,1573179531187179892,grasp_lab,tag_8,-0.857504831532,-0.0047954140845,-1.21899219558,0.00356767232059,0.0346247846975,-0.00511064579248,0.999380947036
1573179531471383821,0,1573179531187179892,grasp_lab,tag_9,-0.644900641659,0.0238249108063,-3.1161857773,0.0107013449473,0.0372471195515,-0.0203447147211,0.999041653728
1573179531471391208,0,1573179531187179892,map,rig,0.00147453228912,0.00221615977342,0.00578149148012,0.999276751467,-0.00585970179557,-0.0375479667228,0.00133718608578
1573179531471398755,0,1573179531187179892,rig,cam0,6.95776245225e-24,-1.61050571461e-23,-6.16647184049e-25,4.86856653609e-23,-5.68575979142e-24,-5.40279944363e-24,1.0
1573179531685887176,0,1573179531410419501,map,grasp_lab,8.3734152087e-21,7.24405625063e-19,3.90193389182e-20,2.96283924332e-21,2.43467054093e-23,-2.35381805953e-21,1.0
1573179531686086222,0,1573179531410419501,grasp_lab,tag_7,0.469,-0.018,-2.54,-3.42878816515e-21,-1.37436848746e-22,-1.03113928014e-21,1.0
1573179531686096505,0,1573179531410419501,grasp_lab,tag_14,-1.21890170164,0.0378140395572,-3.07161174285,0.00498989275562,0.0384151346376,0.00203854228056,0.999247328116
1573179531686223564,0,1573179531410419501,grasp_lab,tag_8,-0.857487463246,-0.0047907623335,-1.21896876175,0.00356315990512,0.0346333799794,-0.00510947591918,0.999380671285
1573179531686302730,0,1573179531410419501,grasp_lab,tag_9,-0.64490556333,0.0238168106265,-3.11615134383,0.0107268674992,0.037237602603,-0.0203468447633,0.999041691409
1573179531686453585,0,1573179531410419501,map,rig,0.00143033036746,0.00224855598491,0.0057940189112,0.999277318796,-0.00585913138386,-0.0375327281077,0.00134351757722
1573179531686533588,0,1573179531410419501,rig,cam0,7.59948890973e-24,-1.5185172792e-23,-5.48888289319e-25,4.97858754667e-23,-5.05049069422e-24,-5.31452196858e-24,1.0
1573179531876390669,0,1573179531596175327,map,grasp_lab,1.06518351762e-20,5.82774235781e-19,3.4269337377e-20,4.00022647307e-21,-4.40310853599e-23,-2.11741520004e-21,1.0
1573179531876401119,0,1573179531596175327,grasp_lab,tag_7,0.469,-0.018,-2.54,-2.88682169345e-21,-1.95568126316e-22,-8.19397544887e-22,1.0
1573179531876405373,0,1573179531596175327,grasp_lab,tag_14,-1.21891451228,0.03783286026,-3.07156581211,0.00505098082404,0.0384279206132,0.00204994201204,0.999246506247
1573179531876409227,0,1573179531596175327,grasp_lab,tag_8,-0.857454402729,-0.0049533013573,-1.21892305323,0.00362044993425,0.0346444663686,-0.00510004063958,0.999380129319
1573179531876419299,0,1573179531596175327,grasp_lab,tag_9,-0.644919996058,0.0238522797426,-3.11612213131,0.010726742433,0.0372455692767,-0.0203258990816,0.999041822144
1573179531876424904,0,1573179531596175327,map,rig,0.00144592601942,0.00196536310738,0.0058088801242,0.999276840659,-0.00584404688792,-0.0375495445744,0.00129404030361
1573179531876430402,0,1573179531596175327,rig,cam0,7.61082650267e-24,-1.94257327962e-23,-6.51292496221e-25,5.50354970716e-23,-5.58849137145e-24,-3.97557851145e-24,1.0
1573179532100242791,0,1573179531813480997,map,grasp_lab,1.31635309781e-20,6.9752130688e-19,3.67865476588e-20,3.96692281077e-21,-1.22450899122e-22,-2.48097389266e-21,1.0
1573179532100255244,0,1573179531813480997,grasp_lab,tag_7,0.469,-0.018,-2.54,-3.1245870564e-21,-2.32916028864e-22,-1.06524533146e-21,1.0
1573179532100265172,0,1573179531813480997,grasp_lab,tag_14,-1.21890950539,0.03782919692,-3.07160059394,0.00503655774119,0.038428927451,0.00205076292944,0.999246538644
1573179532100269267,0,1573179531813480997,grasp_lab,tag_8,-0.857458836818,-0.00492205453267,-1.21893388661,0.00360355318928,0.0346432678562,-0.0051030052277,0.999380216802
1573179532100275249,0,1573179531813480997,grasp_lab,tag_9,-0.644909013745,0.0238448641684,-3.11612978818,0.0107309631743,0.0372364581168,-0.0203308679554,0.999042015345
1573179532100287036,0,1573179531813480997,map,rig,0.00140820163428,0.0020003447204,0.00571385888508,0.999276359344,-0.00584599626257,-0.0375616704255,0.00130495183699
1573179532100294104,0,1573179531813480997,rig,cam0,7.52793537918e-24,-1.53378799927e-23,-9.54562784082e-25,5.12911981184e-23,-5.41337959233e-24,-7.12784537292e-24,1.0
1573179532325302539,0,1573179532033288210,map,grasp_lab,2.9272636278e-20,6.67500737029e-19,2.79218267945e-20,4.71855962961e-21,-1.94652271575e-22,-2.31315050045e-21,1.0
1573179532325316730,0,1573179532033288210,grasp_lab,tag_7,0.469,-0.018,-2.54,-2.42489880906e-21,-4.26965549295e-22,-1.13694075201e-21,1.0
1573179532325449854,0,1573179532033288210,grasp_lab,tag_14,-1.21891021052,0.0378510781188,-3.0715980502,0.00509081563455,0.0384351627887,0.00205512560868,0.999246014911
1573179532325454424,0,1573179532033288210,grasp_lab,tag_8,-0.857456678164,-0.00502659215019,-1.21892302843,0.00363175721335,0.0346511352598,-0.00509872780979,0.999379863785
1573179532325626518,0,1573179532033288210,grasp_lab,tag_9,-0.644909582452,0.0238752710961,-3.11612804902,0.0107644963923,0.0372468607605,-0.0203242364354,0.999041401742
1573179532325631004,0,1573179532033288210,map,rig,0.00142088847043,0.00180238980012,0.00575765335288,0.999275770105,-0.00585023148646,-0.0375777687957,0.00127332824248
1573179532326180573,0,1573179532033288210,rig,cam0,8.26410175149e-24,-1.2610483679e-23,-5.45968314835e-25,5.24570400465e-23,-6.36230278991e-24,-8.28997527097e-24,1.0
1573179532537988252,0,1573179532279176455,map,grasp_lab,5.82889809948e-20,7.01552649047e-19,4.08739178388e-20,4.7049960457e-21,-9.16423316672e-23,-2.40259977898e-21,1.0
1573179532538001124,0,1573179532279176455,grasp_lab,tag_7,0.469,-0.018,-2.54,-2.43939995657e-21,1.64059542043e-22,-1.42469626421e-21,1.0
1573179532538006074,0,1573179532279176455,grasp_lab,tag_14,-1.21891136872,0.0378111641248,-3.07162246167,0.00503751903162,0.0384436787241,0.00206454370874,0.999245938009
1573179532538010254,0,1573179532279176455,grasp_lab,tag_8,-0.8574527033,-0.00495181890386,-1.21891798975,0.00358170391597,0.0346569613707,-0.00508785585069,0.999379897811
1573179532538014454,0,1573179532279176455,grasp_lab,tag_9,-0.64490578541,0.023835088381,-3.11613630615,0.0107457206297,0.0372513387852,-0.0203203614699,0.999041515732
1573179532538021535,0,1573179532279176455,map,rig,0.00126313113621,0.00201527965981,0.00573743548369,0.999276906118,-0.00586257445035,-0.0375440349321,0.00131930339924
1573179532538027900,0,1573179532279176455,rig,cam0,3.6144192762e-24,-1.3234243739e-23,-1.15363487886e-24,5.50987771724e-23,-3.07580662481e-24,-6.47473555044e-24,1.0
1573179532749729084,0,1573179532464606319,map,grasp_lab,4.21178966767e-20,6.7233040458e-19,3.6640949887e-20,4.77567874509e-21,-4.79832426042e-24,-2.7554538678e-21,1.0
1573179532749742789,0,1573179532464606319,grasp_lab,tag_7,0.469,-0.018,-2.54,-2.68894977769e-21,1.95337269608e-22,-1.38154178518e-21,1.0
1573179532749748482,0,1573179532464606319,grasp_lab,tag_14,-1.21892713618,0.0377913905935,-3.07159323886,0.00505460769218,0.0384642113138,0.00208558707796,0.999245017859
1573179532749769188,0,1573179532464606319,grasp_lab,tag_8,-0.857426130933,-0.00505009607763,-1.21888815577,0.00359091540912,0.0346809551776,-0.00507532986935,0.99937909609
1573179532749777803,0,1573179532464606319,grasp_lab,tag_9,-0.644916751855,0.0238325308759,-3.11610140559,0.0107979106741,0.0372395183637,-0.020309493544,0.999041614683
1573179532749782355,0,1573179532464606319,map,rig,0.00143264988481,0.00181566188024,0.00577999402754,0.999276409316,-0.00581754720355,-0.0375655232079,0.0012827292687
1573179532749787559,0,1573179532464606319,rig,cam0,4.59855898777e-24,-1.66519141927e-23,-6.34343551195e-25,4.6040475736e-23,-6.41354881022e-24,-4.79851666053e-24,1.0
1573179532972401451,0,1573179532700864277,map,grasp_lab,4.28809930513e-20,7.88728713244e-19,3.67438358745e-20,3.88968346323e-21,4.08051378301e-23,-2.80748319486e-21,1.0
1573179532972416396,0,1573179532700864277,grasp_lab,tag_7,0.469,-0.018,-2.54,-4.74020978381e-21,1.82897527947e-22,-1.42620749976e-21,1.0
1573179532972423797,0,1573179532700864277,grasp_lab,tag_14,-1.21893729841,0.0377880153113,-3.07153648724,0.00505180533559,0.0384764663876,0.00209417946015,0.999244542247
1573179532972429129,0,1573179532700864277,grasp_lab,tag_8,-0.857385813666,-0.00507416245236,-1.21884921657,0.00357994657789,0.0347089021532,-0.00507041345532,0.999378190177
1573179532972434281,0,1573179532700864277,grasp_lab,tag_9,-0.644931436888,0.0238334212993,-3.11606670446,0.0107788923983,0.0372548760747,-0.0203006932776,0.999041426338
1573179532972439092,0,1573179532700864277,map,rig,0.00152834217699,0.00180142901202,0.00572053204073,0.999275749971,-0.00583616435191,-0.0375800092261,0.00128748256599
1573179532972459376,0,1573179532700864277,rig,cam0,4.75492703971e-24,-9.50876015037e-24,-5.40323565646e-25,5.60074953494e-23,-7.22802883144e-24,-6.56070649529e-24,1.0
1573179533190467268,0,1573179532895060470,map,grasp_lab,5.92124230745e-20,7.94180141927e-19,2.74498196884e-20,3.31580125156e-21,-2.73503970037e-23,-2.56811936973e-21,1.0
1573179533190482079,0,1573179532895060470,grasp_lab,tag_7,0.469,-0.018,-2.54,-5.56485726453e-21,3.36983654137e-22,-1.94489723833e-21,1.0
1573179533190488791,0,1573179532895060470,grasp_lab,tag_14,-1.2189595054,0.037789020325,-3.07148775562,0.00509128751772,0.0384959952283,0.00210278090159,0.999243571636
1573179533190495133,0,1573179532895060470,grasp_lab,tag_8,-0.857345372214,-0.00516796659001,-1.21879645682,0.00359427808633,0.0347347000559,-0.00506187077315,0.999377285734
1573179533190501373,0,1573179532895060470,grasp_lab,tag_9,-0.644949749195,0.0238465712343,-3.11602135935,0.0107619221961,0.0372779007222,-0.0202899153077,0.999040969373
1573179533190506413,0,1573179532895060470,map,rig,0.00161017170576,0.00171594327149,0.0057591440227,0.999275464542,-0.00580214293001,-0.0375932822737,0.00127523728159
1573179533190517541,0,1573179532895060470,rig,cam0,4.69317892266e-24,-4.10430891714e-24,-4.22438902127e-25,6.13432873586e-23,-8.15643106911e-24,-6.44951746454e-24,1.0
1573179533404279595,0,1573179533129390016,map,grasp_lab,6.11792739523e-20,8.33077131417e-19,1.88381879784e-20,3.91390075926e-21,1.1528996127e-22,-2.79796529129e-21,1.0
1573179533404432355,0,1573179533129390016,grasp_lab,tag_7,0.469,-0.018,-2.54,-5.59455762916e-21,5.41027772756e-22,-2.02317462297e-21,1.0
1573179533404540058,0,1573179533129390016,grasp_lab,tag_14,-1.21898358937,0.0377904274136,-3.07146279644,0.00510858666443,0.0385141367621,0.00211462744853,0.999242759275
1573179533404546053,0,1573179533129390016,grasp_lab,tag_8,-0.857309690001,-0.0052457686746,-1.21874779618,0.00362159393399,0.0347399584399,-0.00505888164114,0.999377019478
1573179533404678295,0,1573179533129390016,grasp_lab,tag_9,-0.644962385245,0.0238573266736,-3.11597289613,0.0107813246116,0.037266948173,-0.0202811664637,0.999041346442
1573179533405051983,0,1573179533129390016,map,rig,0.00174158310766,0.00150506203032,0.0058221959373,0.99927507462,-0.00580816925157,-0.03760388042,0.00124039926147
1573179533405063239,0,1573179533129390016,rig,cam0,4.08080680908e-24,-8.88844074215e-24,-5.42654213302e-25,5.20019501489e-23,-7.79070899855e-24,-9.57020594209e-24,1.0
1573179533606079994,0,1573179533350252402,map,grasp_lab,4.99116780452e-20,8.19756221117e-19,2.331800248e-20,5.73859332377e-21,3.98586217588e-23,-2.6288662786e-21,1.0
1573179533606113399,0,1573179533350252402,grasp_lab,tag_7,0.469,-0.018,-2.54,-3.59829701655e-21,5.95621209953e-22,-2.09695338378e-21,1.0
1573179533606121884,0,1573179533350252402,grasp_lab,tag_14,-1.21899070035,0.0378142810135,-3.07144694904,0.00514228739614,0.038515506857,0.00211918339848,0.999242523952
1573179533606129798,0,1573179533350252402,grasp_lab,tag_8,-0.857294744791,-0.00536966680063,-1.21872670006,0.00366294786977,0.0347420811688,-0.00505198974909,0.999376829834
1573179533606135160,0,1573179533350252402,grasp_lab,tag_9,-0.644964500279,0.0238915539335,-3.11594273674,0.0108108865357,0.037246414453,-0.0202714298103,0.999041990347
1573179533606141085,0,1573179533350252402,map,rig,0.00171964834379,0.00136016822302,0.00583386223198,0.999275762172,-0.0057972084076,-0.0375883135401,0.00120921251478
1573179533606146690,0,1573179533350252402,rig,cam0,4.12658786418e-24,-9.91773024747e-24,5.43391523072e-26,3.78942004087e-23,-6.46213307226e-24,-8.75888307849e-24,1.0
1573179533821862243,0,1573179533533806914,map,grasp_lab,5.78417178524e-20,9.14830922531e-19,1.8833883711e-20,4.53953130336e-21,2.39294744535e-24,-2.4959627633e-21,1.0
1573179533821875549,0,1573179533533806914,grasp_lab,tag_7,0.469,-0.018,-2.54,-6.22281983784e-21,6.22444198228e-22,-1.99889848625e-21,1.0
1573179533821880624,0,1573179533533806914,grasp_lab,tag_14,-1.2189974695,0.03782328442,-3.07144300566,0.00519658406782,0.0385214082833,0.00212134518264,0.999242010983
1573179533821925637,0,1573179533533806914,grasp_lab,tag_8,-0.857288904878,-0.00546952127752,-1.21871412859,0.00368947189662,0.0347482246142,-0.00504262536957,0.999376565971
1573179533822014894,0,1573179533533806914,grasp_lab,tag_9,-0.644965809594,0.0239110193119,-3.11592423734,0.0108983037048,0.0372198407137,-0.0202662195839,0.999042136638
1573179533822019237,0,1573179533533806914,map,rig,0.00164118781595,0.00118275254643,0.00584107250614,0.999276411237,-0.00579328527158,-0.0375727425687,0.0011750771057
1573179533822023291,0,1573179533533806914,rig,cam0,4.23117731778e-24,-6.59472711754e-24,2.26872564266e-25,4.6531330861e-23,-7.56938725731e-24,-9.2644827977e-24,1.0
1573179534032790860,0,1573179533754223321,map,grasp_lab,5.23715531999e-20,9.74025630456e-19,2.15094576548e-20,3.0001909222e-21,7.19120094613e-24,-2.7145533002e-21,1.0
1573179534032804569,0,1573179533754223321,grasp_lab,tag_7,0.469,-0.018,-2.54,-7.20390172024e-21,5.31206070064e-22,-1.50009748574e-21,1.0
1573179534032809597,0,1573179533754223321,grasp_lab,tag_14,-1.21899405118,0.0378699652592,-3.07146021547,0.0052766935474,0.038514991714,0.0021292141047,0.999241821766
1573179534032814200,0,1573179533754223321,grasp_lab,tag_8,-0.857302755002,-0.0056724737887,-1.21872865571,0.00375655698621,0.0347487046947,-0.0050324124697,0.999376350844
1573179534032818195,0,1573179533754223321,grasp_lab,tag_9,-0.644956859975,0.0239730330368,-3.11591669611,0.0109659735329,0.0371959790107,-0.0202526533579,0.999042559955
1573179534032882062,0,1573179533754223321,map,rig,0.00165900738678,0.000820631562634,0.00584516233186,0.999276110498,-0.00578355963076,-0.0375843929343,0.00110400822661
1573179534032891113,0,1573179533754223321,rig,cam0,4.7747531808e-24,-2.53457857988e-24,2.68137480439e-25,4.53921070596e-23,-7.14292075469e-24,-1.09484700391e-23,1.0
1573179534235103451,0,1573179533975710386,map,grasp_lab,5.67138354533e-20,9.92660875329e-19,2.84639394355e-20,2.61417380417e-21,4.73866720749e-23,-2.1202670178e-21,1.0
1573179534235120352,0,1573179533975710386,grasp_lab,tag_7,0.469,-0.018,-2.54,-7.94009263874e-21,6.25251484975e-22,-1.84358264697e-21,1.0
1573179534235198168,0,1573179533975710386,grasp_lab,tag_14,-1.21897282325,0.0379203148313,-3.0715205878,0.00534624575349,0.0384958154436,0.00213720242922,0.999242173958
1573179534235226045,0,1573179533975710386,grasp_lab,tag_8,-0.857347300309,-0.00586741931425,-1.21877794733,0.00382528408647,0.0347307311382,-0.00502400997502,0.999376757204
1573179534235236209,0,1573179533975710386,grasp_lab,tag_9,-0.644936829322,0.0240368815931,-3.11597105308,0.0109844615915,0.0371800565938,-0.0202377435096,0.999043251683
1573179534235267000,0,1573179533975710386,map,rig,0.00160724998978,0.000459075594836,0.00584292104507,0.999276786313,-0.00577210639197,-0.0375701652299,0.00103431525093
1573179534235334474,0,1573179533975710386,rig,cam0,5.73774502812e-24,1.11889183688e-24,-1.8616857236e-25,4.88394963853e-23,-4.84692502247e-24,-6.96981750417e-24,1.0
1573179534441090409,0,1573179534187286769,map,grasp_lab,5.29740411983e-20,8.69501758222e-19,3.25278856369e-20,2.00528846316e-21,1.13434169637e-22,-1.85323155754e-21,1.0
1573179534441250695,0,1573179534187286769,grasp_lab,tag_7,0.469,-0.018,-2.54,-7.81378313141e-21,6.04617777563e-22,-1.46109177438e-21,1.0
1573179534441313823,0,1573179534187286769,grasp_lab,tag_14,-1.21897922835,0.0379431515875,-3.07152433325,0.00538049923817,0.0385046504686,0.00214230411821,0.999241638771
1573179534441319053,0,1573179534187286769,grasp_lab,tag_8,-0.857345173806,-0.00597641874599,-1.21877133407,0.00386062096986,0.034735890969,-0.00501941009882,0.999376465105
1573179534441323934,0,1573179534187286769,grasp_lab,tag_9,-0.644938210591,0.0240678275446,-3.11596343398,0.0110388267762,0.0371566650051,-0.020229426164,0.99904369117
1573179534441327901,0,1573179534187286769,map,rig,0.00166096450687,0.000300744397901,0.00587275516319,0.999276663745,-0.00575782467301,-0.0375765657348,0.000999228287329
1573179534441332067,0,1573179534187286769,rig,cam0,6.22523258506e-24,8.5653195988e-24,-4.68382756958e-26,7.19617872475e-23,-8.52429213538e-24,-1.17080316961e-23,1.0
1573179534649710313,0,1573179534371796104,map,grasp_lab,5.82741932406e-20,7.84103051349e-19,2.41807274098e-20,3.48396929697e-21,1.63289281773e-22,-1.91442493629e-21,1.0
1573179534649764817,0,1573179534371796104,grasp_lab,tag_7,0.469,-0.018,-2.54,-6.80795178074e-21,6.80353431193e-22,-1.41909561387e-21,1.0
1573179534649874814,0,1573179534371796104,grasp_lab,tag_14,-1.21899395761,0.0379780388423,-3.07149500556,0.00546876955371,0.0385172612913,0.00214602374741,0.999240665568
1573179534649981563,0,1573179534371796104,grasp_lab,tag_8,-0.857319419163,-0.00615001281904,-1.21873342117,0.00391935564471,0.0347426859781,-0.00501095025577,0.999376042739
1573179534650062132,0,1573179534371796104,grasp_lab,tag_9,-0.644950432663,0.0241164791746,-3.11594065623,0.0111067201211,0.0371767705531,-0.0202195987686,0.999042389654
1573179534650186709,0,1573179534371796104,map,rig,0.00173133326672,3.53000295121e-06,0.00583036891262,0.99927585685,-0.00575745181928,-0.0375994962898,0.000944215812951
1573179534650264676,0,1573179534371796104,rig,cam0,5.98013989913e-24,1.41712393098e-23,-1.17732935104e-25,8.18922049907e-23,-8.28859732187e-24,-1.18897530377e-23,1.0
1573179534848493870,0,1573179534605425591,map,grasp_lab,7.41035446885e-20,7.49972518047e-19,3.64676234205e-20,3.41284264097e-21,3.16252607431e-22,-1.99597122975e-21,1.0
1573179534848507015,0,1573179534605425591,grasp_lab,tag_7,0.469,-0.018,-2.54,-5.85529160777e-21,8.4524375481e-22,-1.12635200673e-21,1.0
1573179534848516871,0,1573179534605425591,grasp_lab,tag_14,-1.21896913365,0.0379621807417,-3.07157512967,0.00543912153259,0.0384985213459,0.00214960045807,0.999241541885
1573179534848523555,0,1573179534605425591,grasp_lab,tag_8,-0.857365759017,-0.00613374423435,-1.21879639158,0.00390954417264,0.0347204129135,-0.00500971804585,0.999376861407
1573179534848528730,0,1573179534605425591,grasp_lab,tag_9,-0.644926777943,0.0241026347411,-3.11601059756,0.0111100192554,0.0371861558902,-0.020216640224,0.999042063549
1573179534848534191,0,1573179534605425591,map,rig,0.00166016357952,3.90130601107e-05,0.00577635028614,0.999276213718,-0.00574707265912,-0.0375916942738,0.000940412617206
1573179534848578062,0,1573179534605425591,rig,cam0,5.65735972135e-24,6.15200232248e-24,-5.22567830565e-25,7.63820564649e-23,-7.21622920484e-24,-8.23293014424e-24,1.0
1573179535080607462,0,1573179534791560643,map,grasp_lab,4.42868438235e-20,8.80398818722e-19,4.01854095482e-20,3.73467911518e-21,6.79830756793e-23,-1.78058969461e-21,1.0
1573179535080630828,0,1573179534791560643,grasp_lab,tag_7,0.469,-0.018,-2.54,-6.81848649401e-21,4.0324437963e-22,-1.06634832508e-21,1.0
1573179535080639932,0,1573179534791560643,grasp_lab,tag_14,-1.2189588874,0.0379311195974,-3.07160782577,0.00544217475,0.0384921742271,0.00215148963152,0.999241765715
1573179535080645374,0,1573179534791560643,grasp_lab,tag_8,-0.857378093008,-0.00609410967068,-1.21881550339,0.00389038815035,0.0347127463541,-0.0050059696114,0.999377221268
1573179535080652330,0,1573179534791560643,grasp_lab,tag_9,-0.644913124214,0.0240741625724,-3.11602026059,0.0111053219444,0.0371603054498,-0.0202146679867,0.999043117549
1573179535080659654,0,1573179534791560643,map,rig,0.00160618472101,0.000111124256642,0.00581961197305,0.999276159025,-0.00575158348712,-0.0375921570132,0.000952377215933
1573179535080665103,0,1573179534791560643,rig,cam0,7.88707366604e-24,7.69855369719e-24,-1.77828481329e-26,7.25321401445e-23,-7.30987858993e-24,-1.15040484009e-23,1.0
1573179535265700788,0,1573179535015534079,map,grasp_lab,3.18877678652e-20,8.69733970055e-19,4.79035854919e-20,3.25738180336e-21,3.04759841444e-22,-1.65808508543e-21,1.0
1573179535265715352,0,1573179535015534079,grasp_lab,tag_7,0.469,-0.018,-2.54,-6.47913154936e-21,5.05989343798e-22,-1.37794436975e-21,1.0
1573179535265734022,0,1573179535015534079,grasp_lab,tag_14,-1.21892416526,0.0379633500151,-3.07165538662,0.00547169384605,0.0384669873275,0.00215197613311,0.999242573378
1573179535265742535,0,1573179535015534079,grasp_lab,tag_8,-0.857409494892,-0.00616954816263,-1.21886502691,0.00390909792751,0.0346872872767,-0.00500355912641,0.999378044311
1573179535265747086,0,1573179535015534079,grasp_lab,tag_9,-0.644887470501,0.0241086333975,-3.11607017984,0.0111348086439,0.0371277073705,-0.0202087933537,0.999044120173
1573179535265753454,0,1573179535015534079,map,rig,-0.000920312407452,0.000655438817018,-0.0213753502161,0.999305987664,-0.00557597484044,-0.0368299642404,-7.25039743265e-05
1573179535265764505,0,1573179535015534079,rig,cam0,8.61801263619e-24,-1.38729034027e-25,1.41046385851e-25,8.34988146503e-23,-4.64015665575e-24,-9.77393707611e-24,1.0
1573179535465345808,0,1573179535200966367,map,grasp_lab,1.06873847841e-19,8.94422088101e-19,1.81911972015e-20,3.61942574011e-21,-4.50541488763e-23,-1.7823723079e-21,1.0
1573179535465420053,0,1573179535200966367,grasp_lab,tag_7,0.469,-0.018,-2.54,-7.17186795785e-21,6.36550833465e-22,-1.58903999143e-21,1.0
1573179535465507331,0,1573179535200966367,grasp_lab,tag_14,-1.21899456028,0.0379655961018,-3.07152731098,0.00545430372504,0.0385329224528,0.00215146467055,0.999240129127
1573179535465589529,0,1573179535200966367,grasp_lab,tag_8,-0.857313957496,-0.00615472734956,-1.21873083797,0.00388592213357,0.0347436216609,-0.00500629059894,0.999376164123
1573179535465675482,0,1573179535200966367,grasp_lab,tag_9,-0.644950494714,0.024107960432,-3.1159860671,0.0111592521143,0.0372299372692,-0.0202111802772,0.999039994722
1573179535465800882,0,1573179535200966367,map,rig,-0.00243386589118,0.00123516090432,-0.046095103104,0.999350110123,-0.00532707144837,-0.0356507628389,-5.30651560765e-05
1573179535465867147,0,1573179535200966367,rig,cam0,7.53721158945e-24,1.23898687801e-23,1.04544109468e-24,7.87420069556e-23,-9.46928472047e-24,-1.10966873765e-23,1.0
1573179535698371120,0,1573179535389217674,map,grasp_lab,8.28137028659e-20,9.74612835176e-19,9.1403541166e-21,2.99939690456e-21,2.73506669694e-22,-1.75036550753e-21,1.0
1573179535698385682,0,1573179535389217674,grasp_lab,tag_7,0.469,-0.018,-2.54,-7.89046363867e-21,8.73043739347e-22,-1.5846520713e-21,1.0
1573179535698396798,0,1573179535389217674,grasp_lab,tag_14,-1.21902436963,0.0379664430754,-3.07143375244,0.00542237622312,0.0385476903447,0.00215162058396,0.999239732964
1573179535698403557,0,1573179535389217674,grasp_lab,tag_8,-0.857257394992,-0.00614921248405,-1.21865277116,0.00385585769285,0.0347710182499,-0.00500451871779,0.99937533662
1573179535698409767,0,1573179535389217674,grasp_lab,tag_9,-0.64498595832,0.0241081736246,-3.11594518851,0.0111491138088,0.0373126342381,-0.0202092777484,0.999037061215
1573179535698414267,0,1573179535389217674,map,rig,-0.00461193344612,0.00216634737738,-0.0770123306214,0.999356956621,-0.00503662908493,-0.035500421924,-0.000160198523072
1573179535698421796,0,1573179535389217674,rig,cam0,7.81222584819e-24,1.08585480257e-23,3.40214965671e-26,8.06100148532e-23,-1.08342872072e-23,-1.20235186539e-23,1.0
1573179535915031477,0,1573179535641568482,map,grasp_lab,7.33991058663e-20,1.0348012247e-18,1.28663563502e-20,2.65265366724e-21,2.67951978208e-22,-1.72355253368e-21,1.0
1573179535915140405,0,1573179535641568482,grasp_lab,tag_7,0.469,-0.018,-2.54,-7.38021268252e-21,8.14208472928e-22,-1.55591707817e-21,1.0
1573179535915262135,0,1573179535641568482,grasp_lab,tag_14,-1.21900096459,0.0379107315545,-3.0714673179,0.00533575483583,0.0385185279983,0.00214353462349,0.999241341209
1573179535915368092,0,1573179535641568482,grasp_lab,tag_8,-0.857285306532,-0.00598661076206,-1.21869854652,0.00373275045162,0.03474468538,-0.00500635373399,0.999376710672
1573179535915488009,0,1573179535641568482,grasp_lab,tag_9,-0.644966933835,0.0240453000788,-3.1159726018,0.0110956409634,0.0373028845306,-0.0202103235329,0.999037999467
