%time,field.transforms0.header.seq,field.transforms0.header.stamp,field.transforms0.header.frame_id,field.transforms0.child_frame_id,field.transforms0.transform.translation.x,field.transforms0.transform.translation.y,field.transforms0.transform.translation.z,field.transforms0.transform.rotation.x,field.transforms0.transform.rotation.y,field.transforms0.transform.rotation.z,field.transforms0.transform.rotation.w
1573179266155824901,0,1573179265862239758,map,grasp_lab,1.00200892658e-19,2.01287520364e-19,-2.37781516306e-21,-2.46048156893e-22,-2.61954461004e-22,-2.03005483241e-22,1.0
1573179266155863727,0,1573179265862239758,grasp_lab,tag_7,0.469,-0.018,-2.54,-3.34424617929e-21,9.09203288017e-22,-4.7229966138e-22,1.0
1573179266155873729,0,1573179265862239758,grasp_lab,tag_9,-0.646821040304,0.0265204709071,-3.11194448431,0.0158653145518,0.0400804081276,-0.0198726652117,0.998872829671
1573179266155879194,0,1573179265862239758,grasp_lab,tag_8,-0.854166597352,-0.0131741105176,-1.21384892049,0.00669822657989,0.0363947816332,-0.00476744352623,0.999303670119
1573179266156398930,0,1573179265862239758,grasp_lab,tag_14,-1.22063135741,0.0399522455497,-3.06514522942,0.00672601629508,0.0406986367192,0.00255568477119,0.999145560041
1573179266156434648,0,1573179265862239758,map,rig,0.00698919233835,-0.0128399685617,0.00491550293427,0.999369879459,-0.00527535715679,-0.0350588243907,-0.00170102010541
1573179266156444937,0,1573179265862239758,rig,cam0,-7.36175084252e-24,3.72121379382e-23,-2.26679796605e-24,2.79896804572e-23,-6.30851761464e-25,-4.54780181068e-24,1.0
1573179266361960289,0,1573179266113919757,map,grasp_lab,8.67266629333e-20,2.15493745068e-19,-6.97032653266e-22,1.74232842619e-22,-3.75162515041e-22,-1.92093040586e-22,1.0
1573179266361978699,0,1573179266113919757,grasp_lab,tag_7,0.469,-0.018,-2.54,-2.30232880614e-21,7.4889396037e-22,-4.03322398359e-22,1.0
1573179266361986760,0,1573179266113919757,grasp_lab,tag_9,-0.646823397309,0.0265345913778,-3.1119231281,0.0159162259468,0.0400687489686,-0.0198762400587,0.998872416372
1573179266361991799,0,1573179266113919757,grasp_lab,tag_8,-0.854163869052,-0.0132178658071,-1.21383907987,0.00666657682998,0.0364139410049,-0.00475901989261,0.999303223943
1573179266361998425,0,1573179266113919757,grasp_lab,tag_14,-1.22064491917,0.0399633226135,-3.06515171186,0.00676459700493,0.040704678654,0.00255377253588,0.999145058342
1573179266362002905,0,1573179266113919757,map,rig,0.00709595435615,-0.0129752217852,0.00479620156175,0.999369151412,-0.00526854071792,-0.0350791523002,-0.00173053717066
1573179266362362143,0,1573179266113919757,rig,cam0,-7.82666792565e-24,2.69260216952e-23,-2.30001762505e-24,2.26531992165e-23,-5.25728606506e-25,-7.13486840445e-24,1.0
1573179266560924679,0,1573179266297876546,map,grasp_lab,1.0158514996e-19,1.62352948164e-19,1.08135292665e-21,-1.82113068125e-22,-5.12216035245e-22,-3.14636064216e-22,1.0
1573179266560936702,0,1573179266297876546,grasp_lab,tag_7,0.469,-0.018,-2.54,-2.63612721081e-21,9.58449718383e-22,-5.09675359896e-22,1.0
1573179266560941221,0,1573179266297876546,grasp_lab,tag_9,-0.646811873474,0.026531148181,-3.11195576073,0.0158839094697,0.0400817312248,-0.0198726000902,0.998872482356
1573179266561134541,0,1573179266297876546,grasp_lab,tag_8,-0.854193150194,-0.0131971908708,-1.21386644357,0.00664813960084,0.0363935100668,-0.00476089284465,0.999304082131
1573179266561185177,0,1573179266297876546,grasp_lab,tag_14,-1.2206323805,0.0399616749054,-3.06518901372,0.00675686116764,0.0406913542785,0.00255191052422,0.999145658183
1573179266561233146,0,1573179266297876546,map,rig,0.0070658303559,-0.0129382392428,0.00489780431895,0.999369348833,-0.00527344344441,-0.0350732248545,-0.00172171580863
1573179266561265274,0,1573179266297876546,rig,cam0,-7.06754796804e-24,3.09353502914e-23,-2.50234774021e-24,2.27897347153e-23,-2.58722818948e-24,-6.5921283883e-24,1.0
1573179266748876157,0,1573179266513888537,map,grasp_lab,9.44139075311e-20,4.79985781551e-19,-6.20237268807e-21,7.50302588824e-22,-2.40328568371e-22,-2.73554966812e-23,1.0
1573179266748893936,0,1573179266513888537,grasp_lab,tag_7,0.469,-0.018,-2.54,-5.86467426281e-21,1.27046239219e-21,-6.55345111244e-22,1.0
1573179266748901576,0,1573179266513888537,grasp_lab,tag_9,-0.646793739521,0.0265862892508,-3.11200612888,0.0159008891474,0.0400835029809,-0.0198695455474,0.998872201872
1573179266748906728,0,1573179266513888537,grasp_lab,tag_8,-0.854237166386,-0.0133471859155,-1.21391523805,0.00668126966771,0.0363826035937,-0.0047528856173,0.999304296433
1573179266748917296,0,1573179266513888537,grasp_lab,tag_14,-1.22060887412,0.0400082819124,-3.06523585962,0.00678393829422,0.0406640648589,0.00256563762197,0.999146550569
1573179266749364451,0,1573179266513888537,map,rig,0.00686774535627,-0.0131887293025,0.00482671406336,0.999370603662,-0.00526306692397,-0.0350366550666,-0.00176902930692
1573179266756091856,0,1573179266513888537,rig,cam0,-6.09752339816e-24,4.20867828741e-23,-2.4160063149e-24,3.36382522278e-24,4.00093355337e-24,-7.12940925909e-24,1.0
1573179266964880312,0,1573179266700983907,map,grasp_lab,1.07493340003e-19,6.25589324129e-19,-9.26385551378e-21,-3.91978484787e-23,-2.68558865733e-22,-4.14803099487e-22,1.0
1573179266964895539,0,1573179266700983907,grasp_lab,tag_7,0.469,-0.018,-2.54,-6.84380215269e-21,1.3195786588e-21,-1.32183419739e-21,1.0
1573179266964900699,0,1573179266700983907,grasp_lab,tag_9,-0.646774187259,0.0265601531172,-3.11204302838,0.0159445497763,0.0400629002933,-0.0198746730914,0.998872230429
1573179266964905677,0,1573179266700983907,grasp_lab,tag_8,-0.854278352189,-0.0133036313951,-1.21396426662,0.00665602462111,0.036370132389,-0.00474893555447,0.999304937653
1573179266964918558,0,1573179266700983907,grasp_lab,tag_14,-1.22059093326,0.0399812406854,-3.06529245869,0.00677602445285,0.0406390685251,0.0025623734357,0.999147629655
1573179266964924309,0,1573179266700983907,map,rig,0.00682143755851,-0.0130701062566,0.00488459553845,0.999371021423,-0.00526769028148,-0.0350251044053,-0.00174786753387
1573179266964930245,0,1573179266700983907,rig,cam0,-6.36145533983e-24,5.22757307881e-23,-1.97401328084e-24,3.56723247242e-23,-1.43509591727e-24,-7.97451954889e-24,1.0
1573179267164378894,0,1573179266905773994,map,grasp_lab,1.42418163073e-19,6.70502265702e-19,-1.63105169942e-20,-9.39797661926e-22,-5.15889540596e-22,-1.47717911116e-22,1.0
1573179267165380253,0,1573179266905773994,grasp_lab,tag_7,0.469,-0.018,-2.54,-7.5072714322e-21,1.91829973152e-21,-1.1314087442e-21,1.0
1573179267165601688,0,1573179266905773994,grasp_lab,tag_9,-0.646756599915,0.0265427288101,-3.11208085606,0.0159199726523,0.040063797493,-0.0198683074845,0.998872713092
1573179267165736333,0,1573179266905773994,grasp_lab,tag_8,-0.854317901596,-0.0132635498304,-1.21400602909,0.00664277247617,0.0363565272556,-0.00474856122513,0.999305522684
1573179267165850971,0,1573179266905773994,grasp_lab,tag_14,-1.22057029412,0.0399648100553,-3.06533428638,0.00678908071189,0.0406162965325,0.00255217809221,0.999148493081
1573179267166014333,0,1573179266905773994,map,rig,0.00673640652144,-0.01303915381,0.00484986967874,0.999371531822,-0.0052802752996,-0.0350091070678,-0.00173853346894
1573179267166124509,0,1573179266905773994,rig,cam0,-9.21844358738e-24,5.27740513058e-23,-2.58009384841e-24,2.81469616242e-23,-1.69099665086e-24,-7.40194934198e-24,1.0
1573179267363843982,0,1573179267089012030,map,grasp_lab,1.44565423358e-19,8.08743060612e-19,-6.84967625314e-21,-2.94214134693e-21,-1.05624258452e-22,5.36660099058e-22,1.0
1573179267363863812,0,1573179267089012030,grasp_lab,tag_7,0.469,-0.018,-2.54,-9.61363881464e-21,1.76746703338e-21,-6.21108444191e-22,1.0
1573179267363916187,0,1573179267089012030,grasp_lab,tag_9,-0.646746559711,0.0266306984208,-3.11210162443,0.016090482266,0.0400541624928,-0.0198619898134,0.998870493011
1573179267363921145,0,1573179267089012030,grasp_lab,tag_8,-0.854342328058,-0.0135404682757,-1.21403158754,0.00674543767594,0.0363421815138,-0.00473661807552,0.999305413456
1573179267364187303,0,1573179267089012030,grasp_lab,tag_14,-1.22056419275,0.0400332256011,-3.06536909673,0.00690961782817,0.0406062208913,0.00255535073329,0.999148068201
1573179267364234986,0,1573179267089012030,map,rig,0.00670988114745,-0.0135331336075,0.00487460716923,0.999371682168,-0.00525356133873,-0.0350040609544,-0.00183212754744
1573179267364268984,0,1573179267089012030,rig,cam0,-5.45718771221e-24,7.34602303887e-23,-2.26914128618e-24,2.91473277786e-23,-6.3209757929e-24,-5.82384641133e-24,1.0
1573179267561954432,0,1573179267318493602,map,grasp_lab,1.53462650469e-19,6.42254515683e-19,-4.7807215154e-21,-3.03456993557e-21,-3.19269643176e-25,3.60993868856e-22,1.0
1573179267561999571,0,1573179267318493602,grasp_lab,tag_7,0.469,-0.018,-2.54,-8.28991205118e-21,1.60601619915e-21,-4.47866632402e-22,1.0
1573179267562008504,0,1573179267318493602,grasp_lab,tag_9,-0.646735536198,0.0266030263203,-3.11215989471,0.0160062955493,0.0400667839932,-0.0198685072385,0.998871209788
1573179267562017750,0,1573179267318493602,grasp_lab,tag_8,-0.854375375319,-0.0134416630176,-1.21406925795,0.00671694329223,0.0363270320853,-0.00474427516464,0.999306119898
1573179267562023662,0,1573179267318493602,grasp_lab,tag_14,-1.22055672344,0.0400135172466,-3.06543968553,0.00687753183329,0.0406011413763,0.00254819550067,0.999148514273
1573179267562028428,0,1573179267318493602,map,rig,0.00661393638127,-0.0133694986457,0.00479653974278,0.999372301668,-0.00526436979637,-0.0349863440831,-0.00180133196418
1573179267562048025,0,1573179267318493602,rig,cam0,-5.77503628379e-24,5.52484351587e-23,-2.26078306664e-24,3.39989075643e-23,-6.60258354517e-24,-5.2281388869e-24,1.0
1573179267755660893,0,1573179267505407628,map,grasp_lab,1.37005504442e-19,6.7719045521e-19,-1.26839655198e-20,-2.49372630921e-21,1.03427880498e-22,3.2523660924e-22,1.0
1573179267755730570,0,1573179267505407628,grasp_lab,tag_7,0.469,-0.018,-2.54,-8.79357597682e-21,1.51965926688e-21,-1.91656013447e-22,1.0
1573179267755811891,0,1573179267505407628,grasp_lab,tag_9,-0.64675819494,0.0266377646948,-3.11209713869,0.0160765090271,0.0400787384787,-0.0198680023579,0.998869612643
1573179267755888177,0,1573179267505407628,grasp_lab,tag_8,-0.854325000895,-0.0135338757345,-1.21401096104,0.00674906587166,0.0363507376187,-0.0047404313287,0.999305059677
1573179267755946858,0,1573179267505407628,grasp_lab,tag_14,-1.22057570652,0.0400436750157,-3.06535121396,0.00689235653873,0.0406071640733,0.00255029481697,0.999148162008
1573179267756081429,0,1573179267505407628,map,rig,0.00684711691397,-0.013542609587,0.00489395678025,0.999370803955,-0.00527738199022,-0.0350254539825,-0.00183385257016
1573179267756089626,0,1573179267505407628,rig,cam0,-6.97742728389e-24,6.2703709004e-23,-2.94323612105e-24,3.0263841942e-23,-8.46558330771e-24,-5.92845326235e-24,1.0
1573179267953091949,0,1573179267687132036,map,grasp_lab,1.27224890883e-19,7.13299266412e-19,-3.30467188229e-22,-2.99722189017e-21,2.05257779112e-22,2.77984188828e-22,1.0
1573179267953113328,0,1573179267687132036,grasp_lab,tag_7,0.469,-0.018,-2.54,-8.04586282591e-21,1.80008318385e-21,2.51662690954e-22,1.0
1573179267953119031,0,1573179267687132036,grasp_lab,tag_9,-0.646742400765,0.0266827379592,-3.11213081431,0.0161437740845,0.0400766188139,-0.0198616211898,0.998868739718
1573179267953122997,0,1573179267687132036,grasp_lab,tag_8,-0.854359772847,-0.0136698648726,-1.21404679387,0.00679827290245,0.0363322985486,-0.00473677305491,0.99930541405
1573179267953132575,0,1573179267687132036,grasp_lab,tag_14,-1.22055748623,0.0400802384698,-3.06538893482,0.00693315568647,0.0405823204125,0.00255818194183,0.999148868952
1573179267953136700,0,1573179267687132036,map,rig,0.00663091503434,-0.0137450962314,0.00481024170875,0.999372045145,-0.00525517208467,-0.0349912581341,-0.00187360709164
1573179267953142846,0,1573179267687132036,rig,cam0,-5.47002436295e-24,5.68796486913e-23,-2.62593992726e-24,2.55741153028e-23,-4.88755203148e-24,-5.84652800707e-24,1.0
1573179268165998804,0,1573179267905053810,map,grasp_lab,1.34412260236e-19,6.56833581728e-19,-1.08041833409e-20,-2.19991728545e-21,-8.09819374085e-23,2.20435230327e-22,1.0
1573179268166247214,0,1573179267905053810,grasp_lab,tag_7,0.469,-0.018,-2.54,-7.90410955013e-21,1.54661926733e-21,2.39337441429e-23,1.0
1573179268166412236,0,1573179267905053810,grasp_lab,tag_9,-0.646733421221,0.0266738915125,-3.11214056481,0.0161443876218,0.0400635236381,-0.019860647289,0.998869274486
1573179268166561722,0,1573179267905053810,grasp_lab,tag_8,-0.854374324666,-0.0136545938709,-1.21406343918,0.00679139375563,0.0363250653489,-0.00473326048972,0.999305740424
1573179268166695368,0,1573179267905053810,grasp_lab,tag_14,-1.22055247558,0.0400718443556,-3.06541618367,0.00692281722647,0.0405744171031,0.00255579261531,0.999149267729
1573179268166827675,0,1573179267905053810,map,rig,0.00660488379735,-0.0137311110003,0.00481401358693,0.999372313895,-0.0052530522054,-0.0349839104187,-0.00187341240651
1573179268166915291,0,1573179267905053810,rig,cam0,-6.61627436981e-24,6.30172251967e-23,-2.62872367997e-24,2.93393993518e-23,-8.62507871613e-24,-6.08203301068e-24,1.0
1573179268402290307,0,1573179268087183100,map,grasp_lab,1.60598151265e-19,6.46110001385e-19,-4.79911363951e-21,-2.88353865593e-21,-1.35531109042e-23,1.67331643545e-22,1.0
1573179268402577607,0,1573179268087183100,grasp_lab,tag_7,0.469,-0.018,-2.54,-8.3734566371e-21,2.01138602197e-21,1.31252667868e-22,1.0
1573179268402749545,0,1573179268087183100,grasp_lab,tag_9,-0.646730906731,0.0266466380777,-3.11217992033,0.016092028041,0.0400930155727,-0.019854971148,0.998869048903
1573179268402884149,0,1573179268087183100,grasp_lab,tag_8,-0.854387675249,-0.0135970310767,-1.21408205125,0.00676777112877,0.0363198057157,-0.00473278621898,0.999306094108
1573179268403014282,0,1573179268087183100,grasp_lab,tag_14,-1.22054716055,0.0400449751196,-3.06544309023,0.00690309149266,0.0405754088187,0.00255225203003,0.999149372985
1573179268403197037,0,1573179268087183100,map,rig,0.00661982790963,-0.0135766913815,0.00483522011363,0.99937231945,-0.00524673469012,-0.0349862972564,-0.00184333826797
1573179268403313552,0,1573179268087183100,rig,cam0,-6.77585107224e-24,6.79366955497e-23,-2.5579482462e-24,2.88435039262e-23,-7.41003149739e-24,-5.98153891331e-24,1.0
1573179268666735230,0,1573179268326761056,map,grasp_lab,1.70752809625e-19,6.4824805593e-19,-1.54508682802e-20,-2.33981116176e-21,-1.2481267808e-22,1.76621002568e-22,1.0
1573179268670265227,0,1573179268326761056,grasp_lab,tag_7,0.469,-0.018,-2.54,-7.61376402473e-21,1.64678358861e-21,2.53439047793e-22,1.0
1573179268670291160,0,1573179268326761056,grasp_lab,tag_9,-0.646729969198,0.0266605383428,-3.11218430085,0.0160997500261,0.0400943020264,-0.019849921179,0.998868973201
1573179268670588737,0,1573179268326761056,grasp_lab,tag_8,-0.854392111533,-0.0136333583029,-1.21408968492,0.00678313159895,0.0363233406131,-0.0047345766776,0.999305852998
1573179268670715977,0,1573179268326761056,grasp_lab,tag_14,-1.22054227197,0.0400571028853,-3.06543594727,0.00690944856909,0.0405678668052,0.00255199296416,0.999149635958
1573179268670895798,0,1573179268326761056,map,rig,0.00658653234366,-0.01369974268,0.00480870931904,0.999372553223,-0.00523785559154,-0.0349796549429,-0.00186774571458
1573179268670996751,0,1573179268326761056,rig,cam0,-6.98309942825e-24,6.05969379347e-23,-2.62048246548e-24,2.7703774031e-23,-8.60913749274e-24,-7.2688431823e-24,1.0
1573179268928481565,0,1573179268596839536,map,grasp_lab,1.81278076497e-19,6.78583367171e-19,-1.22115896657e-20,-2.42760303448e-21,6.01553761814e-23,3.23790186622e-22,1.0
1573179268928713914,0,1573179268596839536,grasp_lab,tag_7,0.469,-0.018,-2.54,-8.05203687013e-21,1.80816682218e-21,2.96018108167e-22,1.0
1573179268928850585,0,1573179268596839536,grasp_lab,tag_9,-0.646724578789,0.0266786447034,-3.11219827324,0.0161530931174,0.0400964776881,-0.0198491102078,0.998868040776
1573179268928961222,0,1573179268596839536,grasp_lab,tag_8,-0.85440560633,-0.0136965265574,-1.21410133749,0.00680425041013,0.0363125551744,-0.00473240865684,0.99930611167
1573179268929078371,0,1573179268596839536,grasp_lab,tag_14,-1.22053540733,0.0400703128951,-3.06545096693,0.006930445676,0.0405627072962,0.00255629093079,0.999149689024
1573179268929206389,0,1573179268596839536,map,rig,0.00663615778271,-0.0137382860343,0.00485071472454,0.999372325796,-0.00524920699998,-0.0349842107532,-0.0018722329357
1573179268929313664,0,1573179268596839536,rig,cam0,-6.56220895589e-24,6.43045422057e-23,-2.56734207851e-24,3.34116453068e-23,-9.18800504522e-24,-7.22978279958e-24,1.0
1573179269176744691,0,1573179268834448229,map,grasp_lab,1.85660543499e-19,6.84028481435e-19,-1.40741643541e-20,-2.77799808989e-21,1.79243554478e-22,3.71915755391e-22,1.0
1573179269177001595,0,1573179268834448229,grasp_lab,tag_7,0.469,-0.018,-2.54,-8.23504819202e-21,1.86858710199e-21,3.22639871617e-22,1.0
1573179269177165108,0,1573179268834448229,grasp_lab,tag_9,-0.646719226098,0.0266457597589,-3.11222127231,0.0160914264019,0.0400976387978,-0.0198403435652,0.998869163668
1573179269177298155,0,1573179268834448229,grasp_lab,tag_8,-0.85441718364,-0.0136435208267,-1.21411806337,0.00678185904417,0.0363071753234,-0.00472985311419,0.999306471458
1573179269177420387,0,1573179268834448229,grasp_lab,tag_14,-1.22053284136,0.0400356128186,-3.06548403847,0.00689952781319,0.0405629409748,0.00255889216516,0.999149886857
1573179269177577334,0,1573179268834448229,map,rig,0.00651880764795,-0.0136238402484,0.00483687713653,0.99937299568,-0.00525371160369,-0.0349656216293,-0.00184914153854
1573179269177689666,0,1573179268834448229,rig,cam0,-6.38393895923e-24,6.09982360632e-23,-2.44837916131e-24,3.2868769632e-23,-7.76664761438e-24,-7.62018043604e-24,1.0
1573179269426993678,0,1573179269082503240,map,grasp_lab,1.79818647023e-19,5.37535861128e-19,-7.20744445906e-21,-1.17452051468e-21,3.2898204439e-22,2.16298914534e-22,1.0
1573179269427181904,0,1573179269082503240,grasp_lab,tag_7,0.469,-0.018,-2.54,-6.11708954675e-21,1.83644913333e-21,-7.24453995992e-23,1.0
1573179269427286656,0,1573179269082503240,grasp_lab,tag_9,-0.646714774714,0.0266046601061,-3.11223531262,0.0160549684704,0.0400965433508,-0.0198527319851,0.998869548155
1573179269427389877,0,1573179269082503240,grasp_lab,tag_8,-0.854428168079,-0.0134938406641,-1.21412781046,0.00673011453733,0.0363003896242,-0.00473838413513,0.999307027388
1573179269427486293,0,1573179269082503240,grasp_lab,tag_14,-1.22052406337,0.0400067898699,-3.06549177196,0.00685304536402,0.0405558192727,0.00254965811242,0.999150519459
1573179269427613761,0,1573179269082503240,map,rig,0.00650602364515,-0.0134269630742,0.00480665206873,0.999373050489,-0.00525568175339,-0.0349656919606,-0.00181222301619
1573179269427707242,0,1573179269082503240,rig,cam0,-4.59911471999e-24,5.58226197982e-23,-2.0670545968e-24,3.45354809841e-23,-6.52856902993e-24,-7.95090024122e-24,1.0
1573179269692259371,0,1573179269335862455,map,grasp_lab,1.80304577229e-19,6.10239089356e-19,-1.20131876189e-20,-3.00501155029e-21,2.70237243998e-22,3.17767571434e-22,1.0
1573179269692444302,0,1573179269335862455,grasp_lab,tag_7,0.469,-0.018,-2.54,-8.07090945735e-21,1.77650204681e-21,-1.25280230367e-22,1.0
1573179269692578964,0,1573179269335862455,grasp_lab,tag_9,-0.646711395519,0.0265861930384,-3.11225054034,0.0160515932386,0.0401040067085,-0.0198471797576,0.998869413115
1573179269692710476,0,1573179269335862455,grasp_lab,tag_8,-0.854442479475,-0.0134756037975,-1.21414418726,0.00671149463213,0.0363004902873,-0.00473341540042,0.999307172507
1573179269692822869,0,1573179269335862455,grasp_lab,tag_14,-1.22051824882,0.039986095256,-3.06550328579,0.00681141192552,0.040542524549,0.00255750613772,0.999151323641
1573179269692979303,0,1573179269335862455,map,rig,0.00655307108543,-0.0133741803522,0.00480038181778,0.999372819179,-0.00525071176643,-0.0349735864889,-0.00180182139126
1573179269693077278,0,1573179269335862455,rig,cam0,-5.36557987269e-24,6.05274681475e-23,-2.63350646246e-24,4.42830081412e-23,-6.93390525024e-24,-8.84124259761e-24,1.0
1573179269929571196,0,1573179269613047444,map,grasp_lab,1.89786540913e-19,5.60733717638e-19,-1.62695599215e-20,-2.93711525166e-21,3.20241535304e-22,1.41830817944e-22,1.0
1573179269930968180,0,1573179269613047444,grasp_lab,tag_7,0.469,-0.018,-2.54,-7.75688555435e-21,2.17956862478e-21,-2.66238594361e-22,1.0
1573179269931379932,0,1573179269613047444,grasp_lab,tag_9,-0.646715940317,0.0265669391429,-3.11226171049,0.0160005883422,0.0401203194122,-0.0198409742624,0.998869699652
1573179269931388984,0,1573179269613047444,grasp_lab,tag_8,-0.85443517643,-0.013414796365,-1.21414239853,0.0066846688049,0.0363018216331,-0.00473476212265,0.99930729757
1573179269931394900,0,1573179269613047444,grasp_lab,tag_14,-1.22051694157,0.0399703868582,-3.06549213116,0.00679273204591,0.0405349060088,0.00255490783833,0.999151766566
1573179269931404834,0,1573179269613047444,map,rig,0.00654987669614,-0.0132608282682,0.00477769277467,0.99937280399,-0.00526924921765,-0.0349724836073,-0.00177737126195
1573179269931515345,0,1573179269613047444,rig,cam0,-4.45454369255e-24,5.65407027937e-23,-2.54764085518e-24,4.81688585533e-23,-6.32138578625e-24,-9.68904476788e-24,1.0
1573179270147286511,0,1573179269836801507,map,grasp_lab,1.89058578649e-19,5.94869334639e-19,-1.02167651143e-20,-3.04969152005e-21,3.24844083116e-22,-3.64639879658e-22,1.0
1573179270147313141,0,1573179269836801507,grasp_lab,tag_7,0.469,-0.018,-2.54,-8.66914395065e-21,1.85584393855e-21,-6.71303587022e-22,1.0
1573179270147321069,0,1573179269836801507,grasp_lab,tag_9,-0.64669549093,0.0265775698859,-3.11229871073,0.0160282212915,0.040089915948,-0.0198519800823,0.998870258666
1573179270147331894,0,1573179269836801507,grasp_lab,tag_8,-0.854478318968,-0.0133826472671,-1.21419101114,0.0066831602162,0.0362853089491,-0.00474130656535,0.99930787635
1573179270147459176,0,1573179269836801507,grasp_lab,tag_14,-1.22050418181,0.0399905974757,-3.0655654239,0.00680723656008,0.0405235932474,0.00254612415724,0.999152149161
1573179270147470010,0,1573179269836801507,map,rig,0.00646011612507,-0.0132093704885,0.00479997686121,0.99937338092,-0.00527734574547,-0.0349553269054,-0.00176642324391
1573179270147474841,0,1573179269836801507,rig,cam0,-5.09241212981e-24,5.64760551223e-23,-1.82268761326e-24,4.16929335238e-23,-9.15440385001e-24,-1.11832096074e-23,1.0
1573179270395889594,0,1573179270065610603,map,grasp_lab,1.95960687156e-19,3.46275360215e-19,-9.69517914649e-21,-4.00280265858e-21,4.2723847042e-22,-1.43877925722e-22,1.0
1573179270396019757,0,1573179270065610603,grasp_lab,tag_7,0.469,-0.018,-2.54,-6.18797120758e-21,2.37295826456e-21,-6.25502316342e-22,1.0
1573179270396070617,0,1573179270065610603,grasp_lab,tag_9,-0.646685259369,0.0265416543696,-3.1122868096,0.016099281172,0.0400453188605,-0.0198622903576,0.998870699843
1573179270396125202,0,1573179270065610603,grasp_lab,tag_8,-0.854491319703,-0.0133085644446,-1.21420246374,0.00664993654006,0.036275748226,-0.00473861818098,0.999308457851
1573179270396155837,0,1573179270065610603,grasp_lab,tag_14,-1.2204979658,0.0399563158601,-3.06558121999,0.00680952206487,0.0405198193343,0.00253816755297,0.999152306886
1573179270396251656,0,1573179270065610603,map,rig,0.00644458043067,-0.0130827634252,0.00482579377311,0.999373534869,-0.00527843531039,-0.034951923064,-0.00174327250698
1573179270396310314,0,1573179270065610603,rig,cam0,-5.60374748341e-24,5.48744987183e-23,-2.27930919153e-24,4.81672729906e-23,-7.98995986074e-24,-1.30016030167e-23,1.0
1573179270635243648,0,1573179270319272968,map,grasp_lab,1.98612458079e-19,3.14052412717e-19,-9.94487101391e-21,-4.7298072384e-21,3.51513722568e-22,-2.48139039511e-22,1.0
1573179270635257544,0,1573179270319272968,grasp_lab,tag_7,0.469,-0.018,-2.54,-6.70702267605e-21,2.01102555853e-21,1.58936863937e-22,1.0
1573179270635262028,0,1573179270319272968,grasp_lab,tag_9,-0.646679571244,0.0265286497476,-3.11231984391,0.0160591268921,0.0400559761718,-0.0198601252361,0.998870961958
1573179270635266236,0,1573179270319272968,grasp_lab,tag_8,-0.854503797494,-0.013243789153,-1.21422533383,0.00663941906557,0.0362713120419,-0.00474613593505,0.999308653135
1573179270635270370,0,1573179270319272968,grasp_lab,tag_14,-1.22049240791,0.0399500384286,-3.06561471787,0.00679774429069,0.0405246054893,0.00253634567868,0.999152197602
1573179270635604178,0,1573179270319272968,map,rig,0.00642700288287,-0.013016253127,0.0047949162618,0.999373697925,-0.00528186531977,-0.0349472986024,-0.00173208399709
1573179270635671589,0,1573179270319272968,rig,cam0,-7.03124695399e-24,5.40927489487e-23,-1.8525161237e-24,4.49789926903e-23,-7.57819400363e-24,-5.09701032803e-24,1.0
1573179270842360302,0,1573179270582648054,map,grasp_lab,1.87993224939e-19,3.40407313876e-19,-1.69219494202e-21,-4.47546765568e-21,4.20026476571e-22,-3.6570418515e-22,1.0
1573179270842380214,0,1573179270582648054,grasp_lab,tag_7,0.469,-0.018,-2.54,-6.52840999585e-21,2.01955207136e-21,2.81970005574e-23,1.0
1573179270842387425,0,1573179270582648054,grasp_lab,tag_9,-0.646690934386,0.0265409222173,-3.11228208707,0.0160743888306,0.0400579158147,-0.0198607085776,0.998870627088
1573179270842396238,0,1573179270582648054,grasp_lab,tag_8,-0.854481152137,-0.0132706234601,-1.21418854577,0.00664960145257,0.0362800867856,-0.00474533871867,0.999308270687
1573179270842402584,0,1573179270582648054,grasp_lab,tag_14,-1.22050276387,0.0399612124592,-3.06556766866,0.00681302558915,0.0405281034572,0.00253491192425,0.999151955277
1573179270842408961,0,1573179270582648054,map,rig,0.00640241163761,-0.0130212082604,0.0047586294072,0.999373830573,-0.00527416485181,-0.0349445611078,-0.00173424343137
1573179270842413342,0,1573179270582648054,rig,cam0,-5.32275495629e-24,5.14617704045e-23,-1.91881324086e-24,4.36929576233e-23,-7.67106256115e-24,-6.9653309182e-24,1.0
1573179271046441043,0,1573179270774101045,map,grasp_lab,1.81855197581e-19,3.35272488368e-19,-7.20777354105e-21,-6.45107247615e-21,3.47616445464e-22,-1.29325065617e-21,1.0
1573179271046452970,0,1573179270774101045,grasp_lab,tag_7,0.469,-0.018,-2.54,-6.85428265804e-21,2.28618323295e-21,-9.06877239703e-22,1.0
1573179271046477604,0,1573179270774101045,grasp_lab,tag_9,-0.646700333605,0.0264841992601,-3.11228154274,0.015998655577,0.0400900071827,-0.0198630947397,0.99887050803
1573179271046580673,0,1573179270774101045,grasp_lab,tag_8,-0.854470511226,-0.0130989983659,-1.21417079907,0.00658117588896,0.0362864867843,-0.00474881200299,0.999308474789
1573179271046664826,0,1573179270774101045,grasp_lab,tag_14,-1.22050948944,0.039915544017,-3.06555162727,0.00675852277979,0.0405304657753,0.00252726386437,0.999152248985
1573179271046817333,0,1573179270774101045,map,rig,0.0065625705046,-0.01269347252,0.00479891114093,0.999372835274,-0.00527667109166,-0.0349757029321,-0.00167124587942
1573179271046920195,0,1573179270774101045,rig,cam0,-5.05949584274e-24,4.55183810993e-23,-1.29218269343e-24,5.73690279504e-23,-7.09123569732e-24,-1.09944497196e-23,1.0
1573179271249675825,0,1573179270997360142,map,grasp_lab,1.96611213711e-19,2.64773061808e-19,-1.2198671072e-20,-6.55177996445e-21,4.27565199507e-22,-9.19672690293e-22,1.0
1573179271256053125,0,1573179270997360142,grasp_lab,tag_7,0.469,-0.018,-2.54,-6.6799009074e-21,1.87931904977e-21,-8.12597568352e-22,1.0
1573179271256064209,0,1573179270997360142,grasp_lab,tag_9,-0.646696449979,0.0264766117657,-3.1122985335,0.0159508373084,0.040093926378,-0.01986185597,0.998871140105
1573179271256074474,0,1573179270997360142,grasp_lab,tag_8,-0.854480078006,-0.0130769243975,-1.21418510975,0.00656608676199,0.0362805748042,-0.00474856167695,0.999308789894
1573179271256080228,0,1573179270997360142,grasp_lab,tag_14,-1.2205109778,0.0399092974094,-3.06558269972,0.00674874314668,0.0405274166249,0.00252587062596,0.999152442296
1573179271256087730,0,1573179270997360142,map,rig,0.00635356845549,-0.0127032678614,0.00479167340673,0.999374250994,-0.00528155982373,-0.0349343900014,-0.00167331131897
1573179271256229004,0,1573179270997360142,rig,cam0,-6.55417506835e-24,3.89750394439e-23,-1.23560891093e-24,5.1005345203e-23,-7.43674369057e-24,-7.31504789255e-24,1.0
1573179271451585420,0,1573179271182356141,map,grasp_lab,2.06493526526e-19,1.23578438129e-19,7.58312354765e-21,-6.71317983673e-21,5.59345806212e-22,-5.3132002318e-22,1.0
1573179271451599275,0,1573179271182356141,grasp_lab,tag_7,0.469,-0.018,-2.54,-6.61962591956e-21,1.99486071129e-21,-3.35600880152e-22,1.0
1573179271451663091,0,1573179271182356141,grasp_lab,tag_9,-0.646721759803,0.0265084602328,-3.11223550991,0.0160078835048,0.0401169082127,-0.0198487433656,0.998869565423
1573179271451711374,0,1573179271182356141,grasp_lab,tag_8,-0.854424369942,-0.0132334084115,-1.21412067808,0.00661321802809,0.0363015721966,-0.00473855875182,0.999307764037
1573179271451746835,0,1573179271182356141,grasp_lab,tag_14,-1.22054069972,0.0399244953905,-3.06551111379,0.00680268052985,0.0405530877834,0.00253786016387,0.999151004541
1573179271451920133,0,1573179271182356141,map,rig,0.00663439309193,-0.0129696463793,0.0048595278808,0.999372445764,-0.00525487763409,-0.0349876214566,-0.00172257197889
1573179271451967140,0,1573179271182356141,rig,cam0,-8.01469809284e-24,3.89363995515e-23,-1.272041716e-24,5.25793589278e-23,-5.44934474577e-24,-5.94597188465e-24,1.0
1573179271680831726,0,1573179271374905211,map,grasp_lab,1.73686468495e-19,2.41162049404e-19,1.25340391116e-20,-6.32402361769e-21,-1.57482364437e-22,-7.5947098519e-22,1.0
1573179271680848453,0,1573179271374905211,grasp_lab,tag_7,0.469,-0.018,-2.54,-6.92459483343e-21,1.28143974227e-21,-7.76361470031e-22,1.0
1573179271680855143,0,1573179271374905211,grasp_lab,tag_9,-0.64672541614,0.0265089788378,-3.11222066055,0.0159986840729,0.0401047834782,-0.0198483326892,0.998870207855
1573179271680861761,0,1573179271374905211,grasp_lab,tag_8,-0.854415996981,-0.0132290175389,-1.21410712304,0.00661838922903,0.0363023924967,-0.00474098410416,0.999307688499
1573179271680866876,0,1573179271374905211,grasp_lab,tag_14,-1.22054891722,0.0399253612676,-3.06550805047,0.0067864153876,0.0405544880674,0.00254018941716,0.999151052395
1573179271680905650,0,1573179271374905211,map,rig,0.00658755276416,-0.0129100138262,0.00478322621783,0.999372647272,-0.00526164130251,-0.0349813515061,-0.00171232642522
1573179271680910607,0,1573179271374905211,rig,cam0,-5.05288815091e-24,3.82447914509e-23,-1.53017539125e-24,5.77858811594e-23,-6.82504287095e-24,-6.15527059515e-24,1.0
1573179271906463557,0,1573179271606073198,map,grasp_lab,1.86058247789e-19,1.6160450936e-19,2.71155406325e-21,-6.77435331478e-21,-4.28250753026e-22,-1.31774789499e-21,1.0
1573179271911201883,0,1573179271606073198,grasp_lab,tag_7,0.469,-0.018,-2.54,-6.78528217781e-21,1.27301851397e-21,-1.06324684414e-21,1.0
1573179271911211898,0,1573179271606073198,grasp_lab,tag_9,-0.646724118037,0.0264754163748,-3.1122265224,0.0159588443078,0.0401047748967,-0.0198535916276,0.998870740996
1573179271911223059,0,1573179271606073198,grasp_lab,tag_8,-0.854412635204,-0.0131306319762,-1.21410894659,0.0065870212029,0.0363035222977,-0.00474585079458,0.999307831612
1573179271911230641,0,1573179271606073198,grasp_lab,tag_14,-1.22054554908,0.0398981078853,-3.06551043125,0.00675865450684,0.0405545939736,0.00253519263025,0.999151248958
1573179271911238948,0,1573179271606073198,map,rig,0.0065015129672,-0.0127571336994,0.00475402227861,0.999373141499,-0.00527259718755,-0.0349671160999,-0.00168064320487
1573179271911313626,0,1573179271606073198,rig,cam0,-6.5153272829e-24,2.6294170622e-23,-1.94346064503e-24,5.40358759632e-23,-7.66593985794e-24,-7.83301555558e-24,1.0
1573179272109630432,0,1573179271828345910,map,grasp_lab,1.91415276554e-19,2.23368391215e-19,-3.13037713588e-22,-8.81387131337e-21,-2.7913269781e-22,-1.55151729267e-21,1.0
1573179272109643566,0,1573179271828345910,grasp_lab,tag_7,0.469,-0.018,-2.54,-8.76031354672e-21,1.10588293102e-21,-1.31703803392e-21,1.0
1573179272109648035,0,1573179271828345910,grasp_lab,tag_9,-0.646706406951,0.02645698786,-3.11224508167,0.0160009604905,0.0400720445183,-0.0198655102504,0.998871143849
1573179272109652263,0,1573179271828345910,grasp_lab,tag_8,-0.854442849934,-0.0130723296582,-1.21414905671,0.00656611959905,0.0362936951125,-0.00474800312094,0.999308315904
1573179272109656747,0,1573179271828345910,grasp_lab,tag_14,-1.22053318937,0.0398840194886,-3.06556317942,0.00675398884939,0.0405490663023,0.00252601574736,0.999151528098
1573179272109669409,0,1573179271828345910,map,rig,0.00652209768175,-0.012643468825,0.0047708796732,0.999373190417,-0.0052711881009,-0.0349668923877,-0.00166050860685
1573179272109689236,0,1573179271828345910,rig,cam0,-4.09830189385e-24,5.26212360966e-23,-1.52246442471e-24,7.00353969785e-23,-6.36333499342e-24,-8.89702033188e-24,1.0
1573179272317834336,0,1573179272053323850,map,grasp_lab,1.90956930248e-19,2.04907245463e-19,-4.7812044265e-21,-7.66079862687e-21,-2.08987312203e-22,-1.51310582927e-21,1.0
1573179272317939327,0,1573179272053323850,grasp_lab,tag_7,0.469,-0.018,-2.54,-7.36039577724e-21,1.61513634519e-21,-1.41431912487e-21,1.0
1573179272328025373,0,1573179272053323850,grasp_lab,tag_9,-0.646710969557,0.0264506444678,-3.11223223739,0.0160127818565,0.0400909759992,-0.0198689824309,0.998870125691
1573179272328293501,0,1573179272053323850,grasp_lab,tag_8,-0.854437155341,-0.0130495664968,-1.21413992168,0.00656498592714,0.0362969999725,-0.00474897771677,0.999308198687
1573179272328357431,0,1573179272053323850,grasp_lab,tag_14,-1.22053670608,0.0398799598087,-3.06554546759,0.00673191648317,0.0405451073286,0.00252470458672,0.999151841033
1573179272329330092,0,1573179272053323850,map,rig,0.00657154623325,-0.0125898959725,0.00482839025258,0.999372821935,-0.00527150428943,-0.0349779782778,-0.0016477424712
1573179272329389956,0,1573179272053323850,rig,cam0,-5.55167574067e-24,4.39642357302e-23,-1.58464492759e-24,6.11550364569e-23,-6.28691443332e-24,-8.6721136555e-24,1.0
1573179272527389866,0,1573179272248257398,map,grasp_lab,1.88777736229e-19,6.16116680459e-20,3.13415161916e-21,-8.87345356683e-21,-2.03655080685e-22,-1.56497681823e-21,1.0
1573179272527460658,0,1573179272248257398,grasp_lab,tag_7,0.469,-0.018,-2.54,-6.65888340571e-21,1.79790714672e-21,-9.79707870118e-22,1.0
1573179272527494326,0,1573179272248257398,grasp_lab,tag_9,-0.64671307504,0.0263995795385,-3.1122342657,0.0159141645176,0.0400822681162,-0.0198728889902,0.998871973495
1573179272527557287,0,1573179272248257398,grasp_lab,tag_8,-0.854433650195,-0.0128897138034,-1.2141343696,0.00651544344155,0.0363014104052,-0.00475669524776,0.999308326018
1573179272527597348,0,1573179272248257398,grasp_lab,tag_14,-1.220536511,0.039840189723,-3.06554043107,0.00665990675911,0.0405411591358,0.00252310548341,0.99915248786
1573179272527645002,0,1573179272248257398,map,rig,0.0064995829644,-0.0123353917213,0.00476990896621,0.999373278093,-0.00528825687057,-0.0349647527473,-0.00159732212173
1573179272527688341,0,1573179272248257398,rig,cam0,-4.68355821804e-24,5.15916184683e-23,-1.81916581136e-24,7.8877803927e-23,-6.48523630574e-24,-1.00493069534e-23,1.0
1573179272741891700,0,1573179272467367974,map,grasp_lab,1.90897862137e-19,5.46448754532e-20,7.25986082418e-21,-7.88478336307e-21,-2.89876376311e-22,-1.65240231927e-21,1.0
1573179272741904989,0,1573179272467367974,grasp_lab,tag_7,0.469,-0.018,-2.54,-5.91192535474e-21,1.38885657553e-21,-1.08096020996e-21,1.0
1573179272741909216,0,1573179272467367974,grasp_lab,tag_9,-0.646705440304,0.0263917740167,-3.11227223984,0.0159030427373,0.0400984363513,-0.01987196672,0.998871520053
1573179272741913710,0,1573179272467367974,grasp_lab,tag_8,-0.854456602693,-0.0128717722288,-1.21416589337,0.00650753849097,0.0362919024945,-0.00475708560951,0.999308721013
1573179272741917606,0,1573179272467367974,grasp_lab,tag_14,-1.22052532477,0.0398330081479,-3.06557088874,0.00664687904412,0.0405299935615,0.00252639623375,0.999153019283
1573179272741921521,0,1573179272467367974,map,rig,0.00649104192453,-0.0122603592941,0.00477982936415,0.999373490783,-0.00528105748058,-0.0349603275891,-0.00158488078811
1573179272741932312,0,1573179272467367974,rig,cam0,-4.52387276214e-24,4.35530113342e-23,-1.84324185186e-24,6.66440124704e-23,-6.15033775767e-24,-9.06879484048e-24,1.0
1573179272978073347,0,1573179272670270905,map,grasp_lab,1.92803532916e-19,9.66744304169e-20,1.1195243505e-20,-6.52995032776e-21,-2.68766680619e-22,-1.98260714712e-21,1.0
1573179272979408735,0,1573179272670270905,grasp_lab,tag_7,0.469,-0.018,-2.54,-4.96465434874e-21,1.59208627948e-21,-1.58452358916e-21,1.0
1573179272979427341,0,1573179272670270905,grasp_lab,tag_9,-0.646707547744,0.0264094335502,-3.11226835733,0.0159148507796,0.0401043525873,-0.0198719761496,0.998871094282
1573179272979482976,0,1573179272670270905,grasp_lab,tag_8,-0.854456142473,-0.0129043847459,-1.2141650249,0.00651596353144,0.0362975757819,-0.00475673257391,0.999308461741
1573179272979519094,0,1573179272670270905,grasp_lab,tag_14,-1.22052547268,0.0398511985727,-3.06556062667,0.00664285441218,0.0405303619572,0.0025278260476,0.999153027489
1573179272979527386,0,1573179272670270905,map,rig,0.00658249443364,-0.0124016609129,0.00479016993047,0.999372858991,-0.00528267429585,-0.0349768705197,-0.00161263521238
1573179272979542024,0,1573179272670270905,rig,cam0,-4.62797634954e-24,4.69534508566e-23,-1.65147383754e-24,5.9607599206e-23,-5.6449278144e-24,-9.30427249855e-24,1.0
1573179273171528424,0,1573179272898472449,map,grasp_lab,1.99417817142e-19,5.74162430246e-20,-3.05268330191e-21,-7.59982951138e-21,-6.44923275433e-22,-1.91225377952e-21,1.0
1573179273171546498,0,1573179272898472449,grasp_lab,tag_7,0.469,-0.018,-2.54,-4.94150161337e-21,1.03935836738e-21,-1.15521192585e-21,1.0
1573179273172094991,0,1573179272898472449,grasp_lab,tag_9,-0.646689261397,0.0263759067593,-3.11230556873,0.0159274488728,0.040095192799,-0.0198830037129,0.998871041752
1573179273172161904,0,1573179272898472449,grasp_lab,tag_8,-0.854493492275,-0.0128013151994,-1.21420942924,0.00647986467151,0.0362807029478,-0.0047619904154,0.999309284153
1573179273172205353,0,1573179272898472449,grasp_lab,tag_14,-1.22050700624,0.0398249037264,-3.06561227458,0.00658306955894,0.0405058448384,0.00252855218349,0.99915441557
1573179273172215082,0,1573179272898472449,map,rig,0.00652641825284,-0.0122019064332,0.00481545363051,0.999373382856,-0.00527889829755,-0.0349641920287,-0.00157484848224
1573179273172220363,0,1573179272898472449,rig,cam0,-5.22536500197e-24,4.52988946691e-23,-2.6483982278e-24,6.85612517511e-23,-7.40122451841e-24,-9.69707058895e-24,1.0
1573179273544554917,0,1573179273092689435,map,grasp_lab,2.01827446708e-20,-4.76744624943e-20,1.9704894784e-21,1.01532599087e-22,1.65849140242e-22,7.37446234896e-23,1.0
1573179273544569653,0,1573179273092689435,grasp_lab,tag_7,0.469,-0.018,-2.54,7.09996007655e-22,2.7569604202e-22,1.60261152597e-22,1.0
1573179273544574968,0,1573179273092689435,grasp_lab,tag_9,-0.646701255303,0.0263914705876,-3.11225016249,0.0159476196816,0.0400897938935,-0.019876396152,0.99887106812
1573179273544579734,0,1573179273092689435,grasp_lab,tag_8,-0.854462278684,-0.0128724308274,-1.21416689544,0.00649933279949,0.0362933978524,-0.00475638602929,0.999308723437
1573179273544584119,0,1573179273092689435,grasp_lab,tag_14,-1.22052480216,0.039832986751,-3.06556783755,0.00660467672878,0.0405282953533,0.00253174703409,0.999153354485
1573179273544588368,0,1573179273092689435,map,rig,0.00648111714296,-0.0123085302061,0.00478526297765,0.999373503904,-0.00527796350289,-0.0349599045921,-0.00159620397383
1573179273544593388,0,1573179273092689435,rig,cam0,-1.33430876243e-24,-4.51953574684e-24,4.85765861103e-25,-8.77376407965e-25,2.63543089988e-25,1.30324686952e-25,1.0
1573179273663650980,0,1573179273341974448,map,grasp_lab,3.93173310346e-20,-1.17773108427e-19,-1.3816651371e-20,-1.49132613129e-21,1.27907782125e-22,1.18830376231e-22,1.0
1573179273663788216,0,1573179273341974448,grasp_lab,tag_7,0.469,-0.018,-2.54,5.49924051965e-22,4.50223101491e-22,6.57641067629e-22,1.0
1573179273663796951,0,1573179273341974448,grasp_lab,tag_9,-0.646692432209,0.0263521374562,-3.11228038474,0.0158823384553,0.0400932684263,-0.0198784173595,0.998871928565
1573179273663801162,0,1573179273341974448,grasp_lab,tag_8,-0.854484629629,-0.0127261793977,-1.21419272719,0.00644971408048,0.0362839361132,-0.00476371853818,0.999309353581
1573179273664041736,0,1573179273341974448,grasp_lab,tag_14,-1.22051484529,0.0398056758284,-3.06560240324,0.00658477783761,0.0405194453975,0.00251622505323,0.999153883972
1573179273664276064,0,1573179273341974448,map,rig,0.0064945901129,-0.0120419827674,0.00478009578265,0.999373369678,-0.00529624389344,-0.0349633554266,-0.00154322900041
1573179273664284808,0,1573179273341974448,rig,cam0,6.76593939668e-25,7.67979374038e-24,-5.51046877414e-26,-1.12310351091e-24,9.99806736652e-25,8.67730322106e-25,1.0
1573179273892704710,0,1573179273605140561,map,grasp_lab,2.90909002406e-20,-1.98187957796e-19,-1.02491336667e-20,-1.61684037878e-21,3.50105856955e-23,1.96036718854e-22,1.0
1573179273892942884,0,1573179273605140561,grasp_lab,tag_7,0.469,-0.018,-2.54,1.98008075517e-21,3.09470227293e-22,1.28064552118e-21,1.0
1573179273893167656,0,1573179273605140561,grasp_lab,tag_9,-0.646683454474,0.0263527165718,-3.11231194139,0.0158508152325,0.0400825755255,-0.0198738918346,0.998872948487
1573179273893327907,0,1573179273605140561,grasp_lab,tag_8,-0.85450495979,-0.0127160335171,-1.21421907712,0.00644411538703,0.0362765457589,-0.00476449112132,0.999309654326
1573179273893484317,0,1573179273605140561,grasp_lab,tag_14,-1.2205083105,0.0398077709168,-3.06564468639,0.00657974850205,0.0405155551962,0.00251484120059,0.999154078344
1573179273893648154,0,1573179273605140561,map,rig,0.00634502519789,-0.0120620612764,0.00468943147376,0.999374330868,-0.00529365325143,-0.0349360631795,-0.00154774889819
1573179273893751835,0,1573179273605140561,rig,cam0,3.22223789122e-25,-1.422847423e-24,-2.7199873579e-26,-3.31731113519e-24,1.25448016154e-24,1.54216567533e-24,1.0
1573179274113004471,0,1573179273828988589,map,grasp_lab,3.01856707166e-20,-1.51886815514e-19,-1.22294789038e-20,-1.98213272048e-21,-1.36451457683e-23,2.30738399339e-22,1.0
1573179274113019994,0,1573179273828988589,grasp_lab,tag_7,0.469,-0.018,-2.54,1.19662896381e-21,3.26233394101e-22,1.21470657246e-21,1.0
1573179274113026142,0,1573179273828988589,grasp_lab,tag_9,-0.646681372083,0.0263614884047,-3.1123192343,0.015883033285,0.0400978302055,-0.019874743634,0.998871807507
1573179274113038483,0,1573179273828988589,grasp_lab,tag_8,-0.854510487464,-0.0127294211851,-1.21422292538,0.00645414026959,0.0362716030321,-0.00476676130146,0.99930975822
1573179274113042733,0,1573179273828988589,grasp_lab,tag_14,-1.22050684468,0.0398171190139,-3.06565372154,0.00659255074691,0.0405129809339,0.00251348322491,0.999154101754
1573179274113060128,0,1573179273828988589,map,rig,0.0064009310232,-0.0120856659192,0.00477263652673,0.999374149848,-0.00528712985098,-0.0349420211043,-0.00155242873747
1573179274113065260,0,1573179273828988589,rig,cam0,1.44151740209e-25,-1.48994528236e-24,1.29528029458e-25,-2.85443248974e-24,1.71316467369e-24,1.80537676927e-24,1.0
1573179274346704877,0,1573179274030563533,map,grasp_lab,8.80147108434e-21,-2.16709645507e-19,-8.51351751865e-21,-1.348357092e-21,-1.88146543267e-22,1.35022374036e-22,1.0
1573179274346779920,0,1573179274030563533,grasp_lab,tag_7,0.469,-0.018,-2.54,1.86071996822e-21,-1.88998907167e-22,1.24312828189e-21,1.0
1573179274346941865,0,1573179274030563533,grasp_lab,tag_9,-0.646676923362,0.0263482439927,-3.11233598841,0.0158574326,0.0400962225314,-0.019882031169,0.998872133762
1573179274346949817,0,1573179274030563533,grasp_lab,tag_8,-0.854522584251,-0.0126622935643,-1.21423347815,0.00643312287306,0.0362670043111,-0.00477322586845,0.999310029792
1573179274347052826,0,1573179274030563533,grasp_lab,tag_14,-1.22049621492,0.0398107798344,-3.06565634735,0.00656634484426,0.0405068678189,0.00251173251895,0.999154526575
1573179274348873445,0,1573179274030563533,map,rig,0.00634838372811,-0.0119471142721,0.00475359121699,0.999374434837,-0.00529913666395,-0.0349332876284,-0.00152432293269
1573179274348989311,0,1573179274030563533,rig,cam0,2.09739755983e-25,-8.72916552717e-25,3.46737899454e-25,-3.35645868355e-24,1.42062545797e-24,1.4360784361e-24,1.0
1573179274537032861,0,1573179274286194008,map,grasp_lab,8.14475220418e-22,-2.31537926695e-19,-1.17964735451e-20,-9.66073783705e-22,-2.72494971811e-22,1.19421648977e-22,1.0
1573179274537120295,0,1573179274286194008,grasp_lab,tag_7,0.469,-0.018,-2.54,2.22611657008e-21,-1.24561562817e-22,1.10954624757e-21,1.0
1573179274537165902,0,1573179274286194008,grasp_lab,tag_9,-0.646673417642,0.0263455530502,-3.11232441887,0.0158924549973,0.0400774993913,-0.0198909490459,0.99887215101
1573179274537173394,0,1573179274286194008,grasp_lab,tag_8,-0.854523352053,-0.0126309701037,-1.21423626002,0.00642748785013,0.0362673833857,-0.00477617562694,0.999310038201
1573179274537268335,0,1573179274286194008,grasp_lab,tag_14,-1.2204934209,0.0398133073338,-3.0656541373,0.00655379042995,0.0405081145166,0.00250806843933,0.999154567663
1573179274537276178,0,1573179274286194008,map,rig,0.00639675942015,-0.0119326312774,0.00476975921248,0.999374089722,-0.00530229685016,-0.0349427039563,-0.00152377177163
1573179274537328682,0,1573179274286194008,rig,cam0,7.25593962142e-25,-1.89123009856e-25,-1.13712070379e-25,-3.57931594581e-24,2.06471947714e-24,3.28391519155e-24,1.0
1573179274782101539,0,1573179274474846994,map,grasp_lab,-4.59049141953e-21,-2.52405253706e-19,-7.86852196922e-21,-1.15707069259e-21,-3.765110438e-22,3.0750829158e-23,1.0
1573179274782205039,0,1573179274474846994,grasp_lab,tag_7,0.469,-0.018,-2.54,1.70759800866e-21,-2.59697909375e-22,9.9585940985e-22,1.0
1573179274782402518,0,1573179274474846994,grasp_lab,tag_9,-0.646664654833,0.0263355482193,-3.11231579127,0.0159514108099,0.0400513714155,-0.0198919034497,0.998872240238
1573179274782415849,0,1573179274474846994,grasp_lab,tag_8,-0.854531026193,-0.0126418699848,-1.21425313357,0.0064277591833,0.0362663481617,-0.00477196725008,0.999310094131
1573179274782453977,0,1573179274474846994,grasp_lab,tag_14,-1.22048594509,0.0397986749089,-3.06566227383,0.00654754034097,0.0405026002211,0.00251204487882,0.999154822198
1573179274782714557,0,1573179274474846994,map,rig,0.00637053052559,-0.0118909126354,0.00478619003792,0.999374422224,-0.00528379344937,-0.0349361888189,-0.00151935597594
1573179274782722782,0,1573179274474846994,rig,cam0,1.5172066748e-24,3.96650253042e-24,-3.78610162552e-25,-3.19234354762e-25,1.65825013495e-24,2.17523254638e-24,1.0
1573179275009905006,0,1573179274692212115,map,grasp_lab,8.06456279062e-22,-2.61871846918e-19,-8.74309570282e-21,-1.47615105389e-21,-2.20220929546e-22,-1.86629216111e-23,1.0
1573179275010023629,0,1573179274692212115,grasp_lab,tag_7,0.469,-0.018,-2.54,2.02521061155e-21,-2.06965091263e-22,1.17491617926e-21,1.0
1573179275010123597,0,1573179274692212115,grasp_lab,tag_9,-0.646670836242,0.026344280645,-3.11231582197,0.0159833719328,0.0400728590583,-0.0198857465051,0.998870990106
1573179275010191999,0,1573179274692212115,grasp_lab,tag_8,-0.854521990651,-0.0126896958748,-1.21424149279,0.00644307734383,0.0362679809426,-0.00476864397632,0.999309952091
1573179275010302853,0,1573179274692212115,grasp_lab,tag_14,-1.22049518268,0.0398018070414,-3.06566124333,0.00658463615263,0.0405114423007,0.00251261202867,0.999154218522
1573179275010413923,0,1573179274692212115,map,rig,0.00638061036935,-0.0119794965412,0.00476416382718,0.999374272536,-0.00528324804056,-0.0349399925599,-0.00153218888821
1573179275010422460,0,1573179274692212115,rig,cam0,6.00891221788e-25,1.13947275649e-25,-4.79054781288e-25,-2.28230631883e-25,1.67168619067e-24,1.88506736709e-24,1.0
1573179275217227220,0,1573179274953085254,map,grasp_lab,-2.24702345517e-21,-3.57561791297e-19,-1.31036298077e-20,-2.40879432113e-21,-2.41722031062e-22,1.38863974485e-23,1.0
1573179275217242323,0,1573179274953085254,grasp_lab,tag_7,0.469,-0.018,-2.54,2.2646635135e-21,-1.77274952027e-22,1.28576084604e-21,1.0
1573179275217248654,0,1573179274953085254,grasp_lab,tag_9,-0.646693456022,0.0263584006108,-3.11228513695,0.0159400250624,0.0401066674603,-0.0198823516323,0.998870393454
1573179275217267688,0,1573179274953085254,grasp_lab,tag_8,-0.854481356183,-0.0127000251968,-1.21418744215,0.0064473051961,0.0362836699232,-0.00477148001835,0.999309341761
1573179275217318314,0,1573179274953085254,grasp_lab,tag_14,-1.22051359118,0.0398186096778,-3.06559794309,0.00658124207717,0.0405297759491,0.00251480063525,0.999153491858
1573179275217323064,0,1573179274953085254,map,rig,0.00646351079402,-0.0120442313692,0.00478953638069,0.999373544776,-0.00530871091387,-0.034956488805,-0.00154255647703
1573179275217327125,0,1573179274953085254,rig,cam0,5.63082842694e-25,-1.02931041927e-24,-5.89995153466e-25,-7.09045960142e-24,1.71555479288e-24,1.42374958819e-24,1.0
1573179275438459341,0,1573179275144957895,map,grasp_lab,-7.53758900365e-21,-3.16158595195e-19,-1.29335166743e-20,-2.02963310445e-21,-2.46301985765e-22,-8.99928967281e-23,1.0
1573179275438552114,0,1573179275144957895,grasp_lab,tag_7,0.469,-0.018,-2.54,1.95571065021e-21,-2.58543277429e-22,1.87409023125e-21,1.0
1573179275438612781,0,1573179275144957895,grasp_lab,tag_9,-0.646690876369,0.0263376683004,-3.11227553014,0.0159289248416,0.0400812583293,-0.0198907064921,0.998871424098
1573179275438621718,0,1573179275144957895,grasp_lab,tag_8,-0.854481959359,-0.0126190318434,-1.21418578302,0.00642304541884,0.036282515705,-0.00477749115348,0.999309511173
1573179275438628057,0,1573179275144957895,grasp_lab,tag_14,-1.22051315055,0.0398056878578,-3.06560131897,0.00655241701388,0.0405244204105,0.00251070836274,0.999153908827
1573179275438698621,0,1573179275144957895,map,rig,0.00645746867047,-0.0118698874007,0.00478456284514,0.999373701085,-0.00530328790808,-0.0349542139526,-0.00151117325448
1573179275438804590,0,1573179275144957895,rig,cam0,2.67793209475e-25,2.78627491166e-24,-5.85494331438e-25,-1.94395223557e-23,1.38605199874e-24,5.94962857056e-24,1.0
1573179275667284169,0,1573179275361719440,map,grasp_lab,-1.40858365777e-20,-3.9848577432e-19,-1.12849039812e-20,-1.5304107925e-21,-2.06975198518e-22,7.87204739096e-23,1.0
1573179275667323897,0,1573179275361719440,grasp_lab,tag_7,0.469,-0.018,-2.54,3.11853206862e-21,-1.90107405523e-22,1.28682059283e-21,1.0
1573179275667402237,0,1573179275361719440,grasp_lab,tag_9,-0.64668901222,0.0263473607739,-3.11229113835,0.0159640430071,0.0401024000074,-0.0198912696445,0.998870003672
1573179275667526172,0,1573179275361719440,grasp_lab,tag_8,-0.854490147578,-0.0126338770924,-1.21419266413,0.00642798302046,0.0362766760441,-0.00477780523721,0.999309689929
1573179275667535847,0,1573179275361719440,grasp_lab,tag_14,-1.22050717689,0.0398158254525,-3.06560434375,0.00654346915884,0.040513900547,0.00251288116583,0.999154388622
1573179275672170515,0,1573179275361719440,map,rig,0.00651140983227,-0.0119276190426,0.00483391294662,0.999373306685,-0.00530636955893,-0.0349646175366,-0.00152047639756
1573179275672206514,0,1573179275361719440,rig,cam0,-1.12250875894e-24,7.86519039313e-25,-5.05041327398e-25,-1.74035385053e-23,2.80797356965e-24,4.36620668957e-24,1.0
1573179275861120813,0,1573179275591948541,map,grasp_lab,-6.3873771925e-21,-3.51800242157e-19,-4.04419958772e-21,-1.95445341979e-21,-1.75891009336e-22,7.04926558533e-23,1.0
1573179275864222204,0,1573179275591948541,grasp_lab,tag_7,0.469,-0.018,-2.54,2.23500271855e-21,-1.78303234962e-22,1.262596745e-21,1.0
1573179275864239866,0,1573179275591948541,grasp_lab,tag_9,-0.646678224054,0.0263446517957,-3.11231104591,0.0159725124943,0.0400924343432,-0.0198922224482,0.998870249351
1573179275864249349,0,1573179275591948541,grasp_lab,tag_8,-0.854514110734,-0.0126240328023,-1.2142227427,0.00642543152361,0.0362717193951,-0.00477998352128,0.999309875844
1573179275864254597,0,1573179275591948541,grasp_lab,tag_14,-1.22050065662,0.0398138930014,-3.06564323941,0.00654114472001,0.0405121416142,0.00251565116787,0.999154468191
1573179275864487409,0,1573179275591948541,map,rig,0.00649000608073,-0.0119357615969,0.00478252858766,0.999373426288,-0.00530260578275,-0.0349615213851,-0.00152617951067
1573179275864495609,0,1573179275591948541,rig,cam0,8.59021226005e-26,2.78583249055e-25,-6.48358531451e-25,-1.40821615751e-23,2.34487211685e-24,4.34472853745e-24,1.0
1573179276066864522,0,1573179275784147500,map,grasp_lab,-2.58858429332e-20,-3.68499571229e-19,-1.00173388655e-20,-1.7080062159e-21,-1.32579524582e-22,-1.09329723779e-22,1.0
1573179276066883452,0,1573179275784147500,grasp_lab,tag_7,0.469,-0.018,-2.54,3.69622949037e-21,-4.01984092211e-22,1.13423760764e-21,1.0
1573179276066985908,0,1573179275784147500,grasp_lab,tag_9,-0.646672785462,0.0263761173379,-3.11231231258,0.0160325194713,0.0400798684433,-0.0198898842155,0.998869838853
1573179276066998222,0,1573179275784147500,grasp_lab,tag_8,-0.854519120862,-0.0127231007479,-1.2142342231,0.00645654265992,0.0362685647464,-0.0047743422554,0.999309816786
1573179276067022253,0,1573179275784147500,grasp_lab,tag_14,-1.22049415752,0.0398384407665,-3.0656457977,0.00658640545813,0.0405072335852,0.00251761593288,0.999154364901
1573179276067032467,0,1573179275784147500,map,rig,0.00641016684281,-0.0120469969827,0.00479310852033,0.999374053163,-0.00529568856805,-0.0349437444995,-0.00154669542193
1573179276067076881,0,1573179275784147500,rig,cam0,6.41677791604e-25,-1.53727772319e-24,-3.21393424591e-25,-1.85591409831e-23,1.46711866215e-24,3.97707340589e-24,1.0
1573179276266479076,0,1573179276001445421,map,grasp_lab,-1.82383441687e-20,-4.18039412608e-19,-6.45529792228e-21,-1.19999226615e-21,-3.18786584574e-23,6.03888575287e-23,1.0
1573179276266492932,0,1573179276001445421,grasp_lab,tag_7,0.469,-0.018,-2.54,4.07867911789e-21,-4.24543824071e-22,1.33976209396e-21,1.0
1573179276266498505,0,1573179276001445421,grasp_lab,tag_9,-0.646673841531,0.0263728039565,-3.11230474567,0.0160084905527,0.0400786436477,-0.0198925319586,0.998870220662
1573179276266503049,0,1573179276001445421,grasp_lab,tag_8,-0.854517382617,-0.0126884470849,-1.21422793854,0.0064488792384,0.0362688925472,-0.00477822652902,0.999309835807
1573179276266507672,0,1573179276001445421,grasp_lab,tag_14,-1.22049121857,0.0398398784545,-3.06562750998,0.0065795194597,0.0405071964682,0.00251695787052,0.999154413432
1573179276266513950,0,1573179276001445421,map,rig,0.00642107265596,-0.0120029928212,0.00475281308664,0.999373920097,-0.00530436713078,-0.0349467762762,-0.00153438817581
1573179276266517647,0,1573179276001445421,rig,cam0,5.61103469374e-25,7.44896049191e-25,-3.38762174282e-25,-1.51806450177e-23,8.21449124568e-25,5.53064095516e-24,1.0
1573179276504085840,0,1573179276191455634,map,grasp_lab,-2.59394587686e-21,-3.94519705149e-19,-5.94574539537e-21,-1.10159527238e-21,1.42689003841e-22,-4.69704753068e-22,1.0
1573179276504426635,0,1573179276191455634,grasp_lab,tag_7,0.469,-0.018,-2.54,-6.28024336463e-23,-5.19416114143e-23,-9.41022542456e-23,1.0
1573179276504438502,0,1573179276191455634,grasp_lab,tag_9,-0.64667275042,0.0263115447198,-3.11230775536,0.0159822779031,0.040050489916,-0.0198989341278,0.99887164214
1573179276504443816,0,1573179276191455634,grasp_lab,tag_8,-0.854518822919,-0.0125352266891,-1.2142314089,0.00639724145847,0.0362677494572,-0.00478402045134,0.999310181475
1573179276504447611,0,1573179276191455634,grasp_lab,tag_14,-1.22049127234,0.039785890443,-3.06563727563,0.00652971146618,0.0405030068456,0.00250886674309,0.999154930375
1573179276504527257,0,1573179276191455634,map,rig,0.00640660551989,-0.0117253670601,0.00479593272704,0.999374201551,-0.00528619333221,-0.0349435288471,-0.00148701897085
1573179276504538843,0,1573179276191455634,rig,cam0,-1.05749920742e-24,3.89298281311e-24,-3.71598908268e-25,-3.81016356773e-23,1.32966894417e-24,-4.61793759671e-24,1.0
1573179276721687439,0,1573179276440509533,map,grasp_lab,8.55749858021e-21,-4.02876707116e-19,-8.47341177055e-21,-1.20780295277e-21,3.13573549933e-22,1.46236459567e-22,1.0
1573179276721700365,0,1573179276440509533,grasp_lab,tag_7,0.469,-0.018,-2.54,2.76889311938e-21,-2.82866849704e-23,8.05845174274e-22,1.0
1573179276721712245,0,1573179276440509533,grasp_lab,tag_9,-0.646673623322,0.0263269889055,-3.11229909468,0.0159939781561,0.0400417078937,-0.019899168192,0.998871802283
1573179276721718285,0,1573179276440509533,grasp_lab,tag_8,-0.854511793009,-0.0125646594419,-1.21422639594,0.0064086541694,0.0362661380433,-0.00478476657271,0.999310163259
1573179276721729409,0,1573179276440509533,grasp_lab,tag_14,-1.22049392801,0.0398011055684,-3.06563281336,0.0065464953385,0.0405053470468,0.00250638318135,0.999154731912
1573179276721735834,0,1573179276440509533,map,rig,0.0064086320889,-0.0118182442608,0.00478710399192,0.999374008244,-0.0053055154224,-0.0349455963726,-0.00149948209955
1573179276721741909,0,1573179276440509533,rig,cam0,1.4363049533e-24,8.32287005948e-24,-2.68086358051e-25,-1.60287629214e-23,4.09587885519e-25,4.79644344485e-24,1.0
1573179276926340348,0,1573179276660715728,map,grasp_lab,-1.03670548268e-20,-4.0954908241e-19,-5.44293816534e-21,-8.6645512174e-22,2.00088417455e-22,-1.91948058719e-22,1.0
1573179276926419213,0,1573179276660715728,grasp_lab,tag_7,0.469,-0.018,-2.54,3.46793099302e-21,-2.24391492153e-22,7.18752911437e-22,1.0
1573179276926487946,0,1573179276660715728,grasp_lab,tag_9,-0.646671066739,0.0263163487813,-3.11230776494,0.0159491156466,0.040043432504,-0.0198941470212,0.998872550498
1573179276926519022,0,1573179276660715728,grasp_lab,tag_8,-0.854518499718,-0.0125406962594,-1.21423314656,0.00639830872812,0.0362640678975,-0.00478366167619,0.999310309967
1573179276926560798,0,1573179276660715728,grasp_lab,tag_14,-1.22048919335,0.0397910395614,-3.06563766585,0.00650705336477,0.0404961102569,0.00251132672461,0.999155351559
1573179276926652079,0,1573179276660715728,map,rig,0.00637785449535,-0.0117434372662,0.0047367781548,0.999374185218,-0.00529849209898,-0.0349420586245,-0.00148877127286
1573179276926699451,0,1573179276660715728,rig,cam0,1.2254752639e-24,-1.6390591083e-24,-8.08049072519e-26,-1.66279444681e-23,3.21495338999e-24,3.72436535404e-24,1.0
1573179277151487866,0,1573179276857567037,map,grasp_lab,4.73853938672e-21,-3.53256493709e-19,4.63710818304e-21,-1.08746514789e-21,4.90407686111e-22,-1.24550881484e-22,1.0
1573179277151502846,0,1573179276857567037,grasp_lab,tag_7,0.469,-0.018,-2.54,2.18668144825e-21,-1.7336696698e-22,4.33109563128e-22,1.0
1573179277151506427,0,1573179276857567037,grasp_lab,tag_9,-0.646660448746,0.0263225148342,-3.11234078198,0.0159630928355,0.0400506364063,-0.0198926482102,0.998872068254
1573179277151515593,0,1573179276857567037,grasp_lab,tag_8,-0.854548091078,-0.0125807723264,-1.2142638635,0.00641035672007,0.0362518687963,-0.00477883635023,0.999310698461
1573179277151539847,0,1573179276857567037,grasp_lab,tag_14,-1.22047762171,0.039792252296,-3.06567303083,0.00650951997776,0.0404810565801,0.00251822151832,0.999155928155
1573179277151546217,0,1573179276857567037,map,rig,0.006300699436,-0.011786221032,0.00467941993818,0.999374705134,-0.00529554245006,-0.0349274870951,-0.00149218406571
1573179277151551746,0,1573179276857567037,rig,cam0,2.18231959129e-24,1.03630213231e-23,-7.81077930023e-26,-1.08084377924e-23,2.18432365643e-24,3.29068062517e-24,1.0
1573179277349360471,0,1573179277091447668,map,grasp_lab,-2.16702807118e-20,-4.38083216216e-19,8.5061911426e-22,-1.52391995117e-21,6.37009834397e-22,-1.69757447702e-22,1.0
1573179277349372563,0,1573179277091447668,grasp_lab,tag_7,0.469,-0.018,-2.54,2.28669033831e-21,-5.66603226314e-23,6.71851922344e-22,1.0
1573179277349377462,0,1573179277091447668,grasp_lab,tag_9,-0.646662555761,0.0263120451732,-3.11233017081,0.0159440533559,0.0400421343865,-0.019889098893,0.998872783883
1573179277349381797,0,1573179277091447668,grasp_lab,tag_8,-0.854546596266,-0.0125801185454,-1.21425828683,0.0064056921608,0.0362553147365,-0.00477367834898,0.999310628011
1573179277349385912,0,1573179277091447668,grasp_lab,tag_14,-1.22048118123,0.0397788431674,-3.06566559907,0.00648620787963,0.0404861675954,0.00252255929443,0.999155861733
