%time,field.transforms0.header.seq,field.transforms0.header.stamp,field.transforms0.header.frame_id,field.transforms0.child_frame_id,field.transforms0.transform.translation.x,field.transforms0.transform.translation.y,field.transforms0.transform.translation.z,field.transforms0.transform.rotation.x,field.transforms0.transform.rotation.y,field.transforms0.transform.rotation.z,field.transforms0.transform.rotation.w
1573179399888914469,0,1573179399605450736,map,grasp_lab,-2.35957219321e-20,2.0030252999e-19,1.59515270599e-22,-4.92710065811e-23,-1.28913006554e-22,1.45643770621e-22,1.0
1573179399889626728,0,1573179399605450736,grasp_lab,tag_7,0.469,-0.018,-2.54,-8.05273900879e-22,-1.83629322468e-22,-5.33060859297e-22,1.0
1573179399889651305,0,1573179399605450736,grasp_lab,tag_14,-1.22076163041,0.0350689190381,-3.0662681585,0.00171733957872,0.0403879507952,0.00150914673317,0.99918145832
1573179399889658229,0,1573179399605450736,grasp_lab,tag_8,-0.853009420967,0.00620531900502,-1.21415696411,1.01198871542e-05,0.0358138294727,-0.00585346945418,0.999341336287
1573179399889662017,0,1573179399605450736,grasp_lab,tag_9,-0.64690660293,0.0203328601317,-3.11304929083,0.00430248479913,0.0392939645014,-0.0204579137141,0.999008982314
1573179399889667736,0,1573179399605450736,map,rig,0.00848959489812,0.0220555978546,0.00285738016482,0.99931220483,-0.00577953547452,-0.0362631972957,0.00516669803511
1573179399889781613,0,1573179399605450736,rig,cam0,1.07666753839e-24,1.07261911149e-23,5.96613386685e-25,-3.47296413313e-24,-4.64873709604e-24,-2.20828658438e-24,1.0
1573179400108819917,0,1573179399830447154,map,grasp_lab,1.89573602253e-21,2.15722830108e-19,1.25499368507e-20,-3.48830634299e-21,-1.74824064438e-22,7.99219120874e-22,1.0
1573179400108929780,0,1573179399830447154,grasp_lab,tag_7,0.469,-0.018,-2.54,-4.29984160546e-21,7.2004906877e-23,-4.47473372433e-22,1.0
1573179400109001518,0,1573179399830447154,grasp_lab,tag_14,-1.22073604816,0.0350312825101,-3.06633306336,0.0017199377217,0.0403658117933,0.00150682696288,0.999182351988
1573179400109014578,0,1573179399830447154,grasp_lab,tag_8,-0.853047391939,0.00630537604846,-1.21421691497,-2.5606206959e-05,0.0357962005967,-0.00585487078781,0.999341959419
1573179400109018973,0,1573179399830447154,grasp_lab,tag_9,-0.646885071308,0.0202914616431,-3.11311015497,0.0043310900547,0.0392656197682,-0.0204695338666,0.999009735161
1573179400109025442,0,1573179399830447154,map,rig,0.00844779798352,0.022222814305,0.00284707099794,0.999312360024,-0.00578971014618,-0.0362525377645,0.00519998704188
1573179400109095219,0,1573179399830447154,rig,cam0,-8.88217015598e-25,3.20601682857e-24,1.3897924548e-25,1.02944334358e-23,-7.03795281555e-24,1.60593990367e-24,1.0
1573179400313553215,0,1573179400055297997,map,grasp_lab,3.00826298324e-20,3.08956566436e-19,1.06243022128e-20,-8.64363051643e-22,-2.95946643263e-22,-1.47755602453e-22,1.0
1573179400313833469,0,1573179400055297997,grasp_lab,tag_7,0.469,-0.018,-2.54,-4.46942735023e-21,2.0705373215e-22,-6.47986209138e-22,1.0
1573179400314008328,0,1573179400055297997,grasp_lab,tag_14,-1.22071941811,0.0351039508776,-3.06637678155,0.0018192009705,0.0403525265496,0.0015208027997,0.999182691637
1573179400314161524,0,1573179400055297997,grasp_lab,tag_8,-0.85308721432,0.00604082892275,-1.21425765188,6.47935516829e-05,0.0357845621042,-0.00584632420295,0.999342424502
1573179400314305935,0,1573179400055297997,grasp_lab,tag_9,-0.646871082185,0.0203802682461,-3.11315495054,0.00434397974282,0.039263062767,-0.0204544297248,0.999010089062
1573179400314519863,0,1573179400055297997,map,rig,0.00823230246428,0.0217210865279,0.00279393324569,0.999314233158,-0.00577489400626,-0.0362170033678,0.00510320243501
1573179400314664005,0,1573179400055297997,rig,cam0,-3.67613777421e-25,-3.99464212354e-25,3.32221845972e-25,-1.31521498275e-23,-7.81074983037e-24,-3.23155897661e-24,1.0
1573179400529043134,0,1573179400240803987,map,grasp_lab,4.35601975575e-20,2.49107217273e-19,9.25186991248e-21,-2.33133497461e-21,-2.56160156953e-22,7.21576875197e-22,1.0
1573179400529054272,0,1573179400240803987,grasp_lab,tag_7,0.469,-0.018,-2.54,-4.16102604448e-21,2.44999208209e-22,-8.11380010243e-23,1.0
1573179400529182595,0,1573179400240803987,grasp_lab,tag_14,-1.22071491581,0.0351266225765,-3.06637726221,0.00186456912788,0.0403556753483,0.00152758723071,0.999182470486
1573179400529193027,0,1573179400240803987,grasp_lab,tag_8,-0.853098020101,0.00595127423138,-1.21426325315,0.000110623039144,0.0357803394581,-0.00584510600926,0.999342578802
1573179400529207773,0,1573179400240803987,grasp_lab,tag_9,-0.646871717917,0.0204093041007,-3.11317354705,0.00432676166618,0.0392867030248,-0.0204422821874,0.999009483037
1573179400529286999,0,1573179400240803987,map,rig,0.00826911275089,0.021553025024,0.00281170820981,0.999314221033,-0.00576998790763,-0.0362230691735,0.00506795224096
1573179400529295507,0,1573179400240803987,rig,cam0,-1.03280294857e-24,4.49047615799e-25,3.12252648627e-25,-1.37740037881e-23,-7.37531904211e-24,-2.11978756924e-24,1.0
1573179400765062242,0,1573179400464122734,map,grasp_lab,5.02041836978e-20,2.83398744721e-19,1.18256177013e-20,-2.72868799987e-21,-2.79607209924e-22,6.90509761485e-22,1.0
1573179400765183664,0,1573179400464122734,grasp_lab,tag_7,0.469,-0.018,-2.54,-6.17320307148e-21,3.93328919076e-22,5.35434334108e-22,1.0
1573179400765304025,0,1573179400464122734,grasp_lab,tag_14,-1.22071400423,0.0351887187876,-3.06634721151,0.00192580629455,0.0403619773036,0.00153340552102,0.999182090875
1573179400765343396,0,1573179400464122734,grasp_lab,tag_8,-0.853090964091,0.00577717414929,-1.21425355166,0.000171230460854,0.0357865139229,-0.00583942230675,0.999342382394
1573179400766350409,0,1573179400464122734,grasp_lab,tag_9,-0.646877315673,0.020479503554,-3.11317067014,0.00432062530897,0.0393034002662,-0.0204286881596,0.999009130901
1573179400766387689,0,1573179400464122734,map,rig,0.00827500861966,0.0212077339387,0.00285147423535,0.999314582825,-0.00577259212414,-0.0362214223826,0.00500502681306
1573179400766452756,0,1573179400464122734,rig,cam0,-1.41619063958e-24,-4.07329581465e-24,1.27636326991e-25,-5.14519483125e-24,-7.20231353222e-24,1.74227428048e-25,1.0
1573179400982799837,0,1573179400705918108,map,grasp_lab,6.73287386834e-20,2.78972249596e-19,1.41483528628e-20,-2.91679898533e-21,-3.80196428012e-22,8.38231449754e-22,1.0
1573179400982815238,0,1573179400705918108,grasp_lab,tag_7,0.469,-0.018,-2.54,-4.89229487859e-21,3.07422401476e-22,5.82739187324e-22,1.0
1573179400982821209,0,1573179400705918108,grasp_lab,tag_14,-1.22068836083,0.0351410293249,-3.06644066583,0.00186655646172,0.0403433298555,0.00154356423243,0.999182940763
1573179400982826112,0,1573179400705918108,grasp_lab,tag_8,-0.853155592759,0.00586958355291,-1.21433562644,8.90480929742e-05,0.0357431075422,-0.00583693790296,0.999343961051
1573179400982830232,0,1573179400705918108,grasp_lab,tag_9,-0.646848563592,0.0204306507384,-3.11322984111,0.00430997881361,0.0392689601249,-0.0204274300001,0.99901055698
1573179400982834637,0,1573179400705918108,map,rig,0.00847655263734,0.0213972144132,0.00274181828082,0.999313431196,-0.00574650170436,-0.0362525788213,0.0050392934453
1573179400982838909,0,1573179400705918108,rig,cam0,-1.41115650903e-24,5.09113759587e-24,1.07913909396e-25,-2.48424424602e-23,-8.13162500431e-24,-1.43020098413e-24,1.0
1573179401222364766,0,1573179400921183196,map,grasp_lab,6.08828441864e-20,2.81402286782e-19,1.98226760944e-20,-2.88164425034e-21,-3.72488364489e-22,7.87016892573e-22,1.0
1573179401222636203,0,1573179400921183196,grasp_lab,tag_7,0.469,-0.018,-2.54,-4.83944114515e-21,4.37080331567e-22,6.13990719834e-22,1.0
1573179401222825760,0,1573179400921183196,grasp_lab,tag_14,-1.22069449928,0.0351306755605,-3.06639636816,0.00183879031139,0.0403546845467,0.0015485406147,0.999182526022
1573179401222974780,0,1573179400921183196,grasp_lab,tag_8,-0.85313618627,0.00587642171493,-1.21430468272,8.59862403184e-05,0.0357523864333,-0.00583091389858,0.999343664569
1573179401223096382,0,1573179400921183196,grasp_lab,tag_9,-0.646857158564,0.0204218596925,-3.11319416571,0.00434601323909,0.039261689452,-0.0204304796254,0.999010624274
1573179401223280260,0,1573179400921183196,map,rig,0.00811785018003,0.0214226852684,0.00272241972015,0.999315281064,-0.00577582190341,-0.0361952480264,0.00505103286916
1573179401223405923,0,1573179400921183196,rig,cam0,-1.3644134863e-24,5.16947137547e-24,3.08964704092e-25,-2.39300665986e-23,-7.35701965536e-24,-1.5520304252e-24,1.0
1573179401435642213,0,1573179401137627556,map,grasp_lab,5.33123310623e-20,2.70524800067e-19,1.3977576411e-20,-2.6902926983e-21,-3.0288226217e-22,7.25418246485e-22,1.0
1573179401435720041,0,1573179401137627556,grasp_lab,tag_7,0.469,-0.018,-2.54,-5.01695475907e-21,4.23954306402e-22,7.05746803118e-22,1.0
1573179401435729650,0,1573179401137627556,grasp_lab,tag_14,-1.22070210884,0.0351374990843,-3.06638402306,0.00186470458501,0.0403579552059,0.00155364737498,0.999182337969
1573179401435733962,0,1573179401137627556,grasp_lab,tag_8,-0.853119157266,0.00581399544196,-1.21428650115,0.000118810001786,0.0357572004297,-0.00582700966824,0.999343511742
1573179401435737391,0,1573179401137627556,grasp_lab,tag_9,-0.646861069496,0.0204346446557,-3.11317484782,0.00445308704913,0.0392460861432,-0.0204346782823,0.999010679954
1573179401435741770,0,1573179401137627556,map,rig,0.00816243257479,0.0213568516927,0.00281608841409,0.999315219962,-0.00575801370649,-0.0362020039279,0.00503501170807
1573179401435823177,0,1573179401137627556,rig,cam0,5.44453666749e-26,2.21418270022e-24,2.06236721648e-25,-2.21611969536e-23,-8.78726530354e-24,-1.52819692639e-24,1.0
1573179401654402686,0,1573179401370287249,map,grasp_lab,6.12615960755e-20,3.02247432126e-19,1.86225750136e-20,-3.14156016956e-21,-1.20129727325e-22,7.04814750907e-22,1.0
1573179401654415456,0,1573179401370287249,grasp_lab,tag_7,0.469,-0.018,-2.54,-5.11806271541e-21,8.16954241673e-22,6.31043745493e-22,1.0
1573179401654419535,0,1573179401370287249,grasp_lab,tag_14,-1.22070210633,0.0351309215956,-3.06640059926,0.0018238883415,0.0403722885403,0.00155805496776,0.999181827404
1573179401654423673,0,1573179401370287249,grasp_lab,tag_8,-0.85312100706,0.00588646909349,-1.21429550864,7.10573250853e-05,0.0357454324653,-0.00583499683098,0.999343890671
1573179401654429072,0,1573179401370287249,grasp_lab,tag_9,-0.646859609979,0.0204197945052,-3.11318754557,0.0043636216475,0.0392580857447,-0.020431368125,0.999010670967
1573179401654438125,0,1573179401370287249,map,rig,0.00845789703599,0.0214639106359,0.00275725645424,0.999313286169,-0.00576081158835,-0.0362521622337,0.00505468780293
1573179401654442277,0,1573179401370287249,rig,cam0,-2.48327176614e-24,7.51757125169e-24,4.58232430884e-25,-2.18132486153e-23,-7.73892147764e-24,-1.06683606979e-24,1.0
1573179401861122442,0,1573179401602537803,map,grasp_lab,5.01875963477e-20,2.45171321019e-19,1.84473179384e-20,-2.86690679038e-21,-2.10982414792e-22,6.70528396042e-22,1.0
1573179401861133916,0,1573179401602537803,grasp_lab,tag_7,0.469,-0.018,-2.54,-4.48743729882e-21,7.17553838484e-22,6.30547407166e-22,1.0
1573179401861138051,0,1573179401602537803,grasp_lab,tag_14,-1.22071043739,0.0351394773762,-3.06640688243,0.00182315560237,0.040394031355,0.0015561064322,0.999180953015
1573179401861141876,0,1573179401602537803,grasp_lab,tag_8,-0.853122788054,0.00588665772894,-1.2142821134,8.15696925252e-05,0.035746343419,-0.00583793621824,0.999343840117
1573179401861439630,0,1573179401602537803,grasp_lab,tag_9,-0.64685837078,0.0204264215533,-3.11316319295,0.00438517926697,0.0392311722796,-0.0204398513593,0.999011460295
1573179401861454847,0,1573179401602537803,map,rig,0.00815552956145,0.02148618717,0.00275857029891,0.999315104696,-0.00575671215708,-0.0362022857854,0.00505730121951
1573179401861460184,0,1573179401602537803,rig,cam0,-2.42699924667e-24,5.3734239001e-24,6.55593334447e-25,-2.26084972031e-23,-7.08924095832e-24,-1.23563210297e-24,1.0
1573179402053044165,0,1573179401790200201,map,grasp_lab,8.64021440768e-20,3.36126103681e-19,9.61808915985e-21,-3.14241711964e-21,-2.08913840676e-22,5.0446632314e-22,1.0
1573179402053120001,0,1573179401790200201,grasp_lab,tag_7,0.469,-0.018,-2.54,-4.54496357275e-21,1.23283951122e-21,7.81439434264e-22,1.0
1573179402053179562,0,1573179401790200201,grasp_lab,tag_14,-1.22073126092,0.0351976334257,-3.06637061233,0.00192195535549,0.0404121929298,0.00155587685933,0.999180033826
1573179402053186424,0,1573179401790200201,grasp_lab,tag_8,-0.853090272405,0.00569161199135,-1.21424329055,0.000156970406036,0.0357589810416,-0.00583108760926,0.999343418977
1573179402053190399,0,1573179401790200201,grasp_lab,tag_9,-0.646869773662,0.0204956409865,-3.11310837321,0.00448452721909,0.0392004818151,-0.0204333907232,0.999012356172
1573179402053194038,0,1573179401790200201,map,rig,0.008248256894,0.0210560387962,0.00281982170377,0.999314885547,-0.00575763361936,-0.0362195167079,0.00497551884387
1573179402053198247,0,1573179401790200201,rig,cam0,-4.0062363004e-24,6.65670221114e-24,-5.47309942029e-25,-2.16034873008e-23,-8.16163794824e-24,-1.2328957033e-24,1.0
1573179402250178681,0,1573179402010251749,map,grasp_lab,1.21604635517e-19,3.81106450339e-19,8.94181807887e-21,-2.58985222042e-21,-1.23986357832e-22,5.23458452692e-22,1.0
1573179402250191466,0,1573179402010251749,grasp_lab,tag_7,0.469,-0.018,-2.54,-4.94310662552e-21,1.43407533493e-21,1.01304894465e-21,1.0
1573179402250197344,0,1573179402010251749,grasp_lab,tag_14,-1.22070455853,0.0351817537677,-3.06648148489,0.00186917612159,0.0403903885083,0.0015532389402,0.999181019708
1573179402250202015,0,1573179402010251749,grasp_lab,tag_8,-0.853155912115,0.00578831852727,-1.21433206449,0.000132145279657,0.0357416533815,-0.00584037199098,0.999343988227
1573179402250206423,0,1573179402010251749,grasp_lab,tag_9,-0.646836831944,0.020470763917,-3.11317779154,0.00450291398206,0.0391690443463,-0.0204470060364,0.999013227978
1573179402250210210,0,1573179402010251749,map,rig,0.00814894640824,0.0212236376545,0.00274686228059,0.999315453517,-0.00577092750978,-0.0361975467821,0.00500583306125
1573179402250220538,0,1573179402010251749,rig,cam0,-2.63334385257e-24,4.58195056497e-24,-4.46363388881e-25,-2.13789814063e-23,-8.2533532511e-24,1.00445376455e-24,1.0
1573179402479005834,0,1573179402189370964,map,grasp_lab,1.22180941555e-19,2.83344346045e-19,1.440990508e-20,-1.92568789027e-21,-2.04786833178e-22,6.29215822831e-22,1.0
1573179402479144378,0,1573179402189370964,grasp_lab,tag_7,0.469,-0.018,-2.54,-4.05819940718e-21,1.28671180785e-21,1.07300132714e-21,1.0
1573179402479290853,0,1573179402189370964,grasp_lab,tag_14,-1.22069371915,0.0351711014437,-3.06655436155,0.00180972771152,0.0403845766417,0.00155915385719,0.999181354857
1573179402479401649,0,1573179402189370964,grasp_lab,tag_8,-0.853187286037,0.00583766032754,-1.21438248361,0.000119470789376,0.0357312500784,-0.00584062903188,0.999344360342
1573179402479513308,0,1573179402189370964,grasp_lab,tag_9,-0.646820627342,0.0204563078272,-3.11322781142,0.00446785284284,0.039162278312,-0.0204449945938,0.99901369182
1573179402479691110,0,1573179402189370964,map,rig,0.00810894919413,0.0213166586762,0.00272157943656,0.99931557533,-0.0057704912658,-0.0361915003082,0.00502569789835
1573179402479822430,0,1573179402189370964,rig,cam0,-2.26549451782e-24,-2.55676955196e-24,-3.77036681774e-25,-1.89150082945e-23,-8.67231087667e-24,2.74371548679e-25,1.0
1573179402680819095,0,1573179402402324304,map,grasp_lab,1.26102729359e-19,2.98482733245e-19,1.5097401976e-20,-2.44700195777e-21,-4.18809306e-22,5.33498400995e-22,1.0
1573179402681011492,0,1573179402402324304,grasp_lab,tag_7,0.469,-0.018,-2.54,-4.35488985717e-21,1.10250360361e-21,8.83996959423e-22,1.0
1573179402681026643,0,1573179402402324304,grasp_lab,tag_14,-1.22067764053,0.0351379534271,-3.06663022468,0.00173596967378,0.0403682891655,0.00155499486039,0.999182150376
1573179402681031817,0,1573179402402324304,grasp_lab,tag_8,-0.853226857132,0.00599420825862,-1.21444201378,6.92672405485e-05,0.0357166455494,-0.00584801016043,0.99934484399
1573179402681152194,0,1573179402402324304,grasp_lab,tag_9,-0.646800569256,0.0204105670506,-3.11327814108,0.00443537564932,0.0391727496888,-0.0204528018229,0.999013266189
1573179402681162763,0,1573179402402324304,map,rig,0.00799789103193,0.0216482622075,0.00276840504572,0.999315989908,-0.00578008728119,-0.0361695817322,0.00508962304305
1573179402681167531,0,1573179402402324304,rig,cam0,-2.16723859125e-24,3.69372571352e-24,-1.23632073264e-25,-2.37873879972e-23,-9.37749439295e-24,7.84611972905e-25,1.0
1573179402884197565,0,1573179402621513538,map,grasp_lab,1.30300656019e-19,2.55267567503e-19,9.15606922325e-21,-2.66506873138e-21,-1.90752174315e-22,5.81747293477e-22,1.0
1573179402884406612,0,1573179402621513538,grasp_lab,tag_7,0.469,-0.018,-2.54,-4.19502991063e-21,1.53772839528e-21,1.23279917396e-21,1.0
1573179402884553172,0,1573179402621513538,grasp_lab,tag_14,-1.22068666454,0.0351591403931,-3.06657948184,0.00175321119765,0.0403826884633,0.00155954836692,0.99918153132
1573179402884560303,0,1573179402621513538,grasp_lab,tag_8,-0.853204461284,0.00592783732541,-1.21440707706,9.4984390686e-05,0.0357282895818,-0.00584608775777,0.999344436898
1573179402884621142,0,1573179402621513538,grasp_lab,tag_9,-0.646813719362,0.0204349270207,-3.11325003991,0.00445714537522,0.0392171757475,-0.0204457534934,0.999011570576
1573179402884687015,0,1573179402621513538,map,rig,0.00807381639761,0.0214543837164,0.00273308646406,0.999315658239,-0.00578014339735,-0.036183510158,0.00505556460237
1573179402884752621,0,1573179402621513538,rig,cam0,-2.90555467726e-24,5.69873801979e-25,-2.49190745177e-25,-1.54416773221e-23,-8.42211796952e-24,-4.19079379478e-26,1.0
1573179403088519932,0,1573179402838221450,map,grasp_lab,1.15555799249e-19,1.92056622682e-19,8.12585552226e-21,-1.90693199399e-21,-2.58766804446e-22,3.81597776498e-22,1.0
1573179403088533938,0,1573179402838221450,grasp_lab,tag_7,0.469,-0.018,-2.54,-4.55389178322e-21,1.1257738782e-21,9.49366891113e-22,1.0
1573179403088539025,0,1573179402838221450,grasp_lab,tag_14,-1.22068706424,0.0351194594911,-3.06658109016,0.00176404923524,0.0403854754225,0.00155969618903,0.999181399373
1573179403088544152,0,1573179402838221450,grasp_lab,tag_8,-0.853195669234,0.00599045307788,-1.21440639195,8.03183003345e-05,0.0357256016922,-0.00584828206293,0.999344521439
1573179403088548587,0,1573179402838221450,grasp_lab,tag_9,-0.6468160565,0.0203963057183,-3.11325979942,0.00443825161384,0.0392299989685,-0.0204425789494,0.999011216188
1573179403088553267,0,1573179402838221450,map,rig,0.00807186398868,0.0216312132859,0.00271130438016,0.999315644688,-0.0057658735067,-0.0361819795249,0.00508540479517
1573179403088558302,0,1573179402838221450,rig,cam0,-1.71034895317e-24,1.93765961633e-24,-4.36013375301e-25,-1.83102810792e-23,-8.65428756962e-24,-1.91987944841e-24,1.0
1573179403275535691,0,1573179403022635686,map,grasp_lab,1.12473250958e-19,3.08926352294e-19,9.76458768276e-21,-2.25845309323e-21,-5.17567022876e-22,4.86385368419e-22,1.0
1573179403275547464,0,1573179403022635686,grasp_lab,tag_7,0.469,-0.018,-2.54,-5.0798488389e-21,8.06829007689e-22,1.05950101516e-21,1.0
1573179403275551361,0,1573179403022635686,grasp_lab,tag_14,-1.22068845262,0.0351118734038,-3.06661738257,0.00173908602923,0.0403881130718,0.00155554335396,0.999181342994
1573179403275555196,0,1573179403022635686,grasp_lab,tag_8,-0.853203410891,0.00603878483241,-1.21442058325,6.59586115491e-05,0.0357236788611,-0.00585126976368,0.999344573738
1573179403275565214,0,1573179403022635686,grasp_lab,tag_9,-0.646807948095,0.0203838195855,-3.11326085059,0.00446178714419,0.0392200642603,-0.0204501885749,0.999011345682
1573179403275570852,0,1573179403022635686,map,rig,0.00807040862639,0.0217247420626,0.00272511336878,0.999315599793,-0.00576799957911,-0.0361803890358,0.00510310108244
1573179403275576723,0,1573179403022635686,rig,cam0,-1.72795571597e-24,2.99359479796e-24,-5.16127617101e-25,-1.34507517868e-23,-8.64581807006e-24,-1.28645246463e-24,1.0
1573179403472542567,0,1573179403205870783,map,grasp_lab,1.21372041865e-19,2.68640937066e-19,1.1220678206e-20,-1.84292173313e-21,-6.04203361408e-22,4.59071480344e-22,1.0
1573179403472693036,0,1573179403205870783,grasp_lab,tag_7,0.469,-0.018,-2.54,-4.87859628156e-21,7.8419824543e-22,1.27803539502e-21,1.0
1573179403472794141,0,1573179403205870783,grasp_lab,tag_14,-1.22067416748,0.035085990611,-3.06665905117,0.00173106215616,0.0403707424606,0.00155247666078,0.999182063687
1573179403472859502,0,1573179403205870783,grasp_lab,tag_8,-0.853233301938,0.00608696439995,-1.21445690828,3.89842450928e-05,0.0357165191468,-0.0058502748832,0.999344836893
1573179403472920617,0,1573179403205870783,grasp_lab,tag_9,-0.646793972227,0.0203576153417,-3.11329168683,0.00437525190091,0.0391897726703,-0.0204427369245,0.999013069682
1573179403473010062,0,1573179403205870783,map,rig,0.00806730364795,0.0218384259941,0.00271265368266,0.999315438929,-0.00577497470678,-0.0361800576154,0.00512899759415
1573179403473080493,0,1573179403205870783,rig,cam0,-1.4053298912e-24,7.03459366012e-24,-7.35814318817e-25,-1.63593209609e-23,-7.89668616244e-24,-1.39224524458e-24,1.0
1573179403679055821,0,1573179403427886181,map,grasp_lab,1.19368373129e-19,2.89919545525e-19,9.33566010445e-21,-1.94363117979e-21,-4.30562537229e-22,4.67148271828e-22,1.0
1573179403679069427,0,1573179403427886181,grasp_lab,tag_7,0.469,-0.018,-2.54,-4.90880787973e-21,9.86596319836e-22,1.11421280581e-21,1.0
1573179403679073768,0,1573179403427886181,grasp_lab,tag_14,-1.22067557647,0.0350752852091,-3.06662500019,0.00173085081107,0.0403703543846,0.00155895656792,0.999182069643
1573179403679085504,0,1573179403427886181,grasp_lab,tag_8,-0.853221182723,0.00606500305761,-1.21443691548,4.14725410897e-05,0.0357202651554,-0.00584487570411,0.999344734496
1573179403679089389,0,1573179403427886181,grasp_lab,tag_9,-0.646799400729,0.0203519361224,-3.11326701096,0.00436705703814,0.0391869130704,-0.0204338831702,0.999013398847
1573179403679114903,0,1573179403427886181,map,rig,0.00804355092968,0.0217526596863,0.00266280574686,0.99931570174,-0.00576929126806,-0.0361760619945,0.00511234518116
1573179403679138947,0,1573179403427886181,rig,cam0,-1.7709325293e-24,7.39609311438e-24,-6.25304941556e-25,-1.7354411826e-23,-7.90449768792e-24,-1.34306894229e-24,1.0
1573179403870588414,0,1573179403625027510,map,grasp_lab,1.02869600192e-19,2.70989021556e-19,2.07793378409e-20,-7.29001220437e-22,-4.61500058165e-22,2.59467316704e-22,1.0
1573179403870603656,0,1573179403625027510,grasp_lab,tag_7,0.469,-0.018,-2.54,-3.32602016321e-21,8.03341149472e-22,9.19293070722e-22,1.0
1573179403870609683,0,1573179403625027510,grasp_lab,tag_14,-1.22066780398,0.0351370819952,-3.06663724287,0.00175825213804,0.0403680511591,0.00156707844787,0.999182102152
1573179403870614702,0,1573179403625027510,grasp_lab,tag_8,-0.853242719678,0.00591275771715,-1.21445420203,9.99424870845e-05,0.0357177949499,-0.00584204233852,0.999344835218
1573179403870619130,0,1573179403625027510,grasp_lab,tag_9,-0.646791865311,0.0204187794599,-3.11327288816,0.00440736634521,0.0391691073543,-0.0204284106634,0.999014032028
1573179403870623547,0,1573179403625027510,map,rig,0.00795866604604,0.0214690880411,0.00271423128099,0.999316585766,-0.00577082857313,-0.0361590892801,0.00505758956531
1573179403870628049,0,1573179403625027510,rig,cam0,-1.52658893816e-24,2.73569111327e-24,-1.11683719488e-24,3.21025838576e-25,-8.12923162039e-24,-2.61635772989e-24,1.0
1573179404070339738,0,1573179403804366908,map,grasp_lab,9.59384203167e-20,1.73402874555e-19,2.16391449445e-20,-1.03584432711e-21,-3.62523740691e-22,6.02458200039e-22,1.0
1573179404070354679,0,1573179403804366908,grasp_lab,tag_7,0.469,-0.018,-2.54,-2.60392930516e-21,7.07347332577e-22,1.5808517349e-21,1.0
1573179404070445172,0,1573179403804366908,grasp_lab,tag_14,-1.22067600854,0.0351422777497,-3.06660018032,0.00173868323875,0.0403879298329,0.0015620261872,0.999181340988
1573179404070535348,0,1573179403804366908,grasp_lab,tag_8,-0.853222847814,0.0059582951072,-1.21442935546,9.0248479491e-05,0.0357302160534,-0.00584550892389,0.999344371847
1573179404070583463,0,1573179403804366908,grasp_lab,tag_9,-0.646803873571,0.0204171656532,-3.11325608592,0.00437366591752,0.0391939377678,-0.0204305804418,0.999013161911
1573179404070662595,0,1573179403804366908,map,rig,0.00797607926664,0.0215727644458,0.00270175629455,0.999316199579,-0.00577047140235,-0.0361673080247,0.00507550488032
1573179404070792090,0,1573179403804366908,rig,cam0,-1.5479103332e-24,-9.91902405385e-25,-3.71710020113e-25,1.01523155703e-24,-6.48308534984e-24,-2.88602758113e-24,1.0
1573179404265734152,0,1573179404020618477,map,grasp_lab,8.43320082311e-20,2.4980156174e-19,2.64751667972e-20,-1.77919234928e-21,-5.03803692453e-22,7.49895779842e-22,1.0
1573179404265749483,0,1573179404020618477,grasp_lab,tag_7,0.469,-0.018,-2.54,-3.17829767842e-21,1.08902812719e-21,1.20154628791e-21,1.0
1573179404265755847,0,1573179404020618477,grasp_lab,tag_14,-1.22064389659,0.0351007145372,-3.06669407197,0.0016849761203,0.0403554039923,0.00155102019891,0.999182764343
1573179404265767572,0,1573179404020618477,grasp_lab,tag_8,-0.853290616716,0.00612022933384,-1.21450579402,2.97909156814e-05,0.0357061935825,-0.0058528480878,0.999345191123
1573179404265772323,0,1573179404020618477,grasp_lab,tag_9,-0.646773889881,0.0203643509183,-3.11333150706,0.00430090151518,0.0391900246143,-0.0204335012299,0.999013571602
1573179404265789912,0,1573179404020618477,map,rig,0.00785923634021,0.0218497860679,0.00261859551843,0.99931672108,-0.00578612791134,-0.036143137217,0.00512692168416
1573179404265808601,0,1573179404020618477,rig,cam0,-6.08416676907e-25,-3.89534725409e-24,-4.63479587735e-25,-3.61040763273e-24,-3.95494584252e-24,-4.81100541484e-24,1.0
1573179404459077559,0,1573179404206668440,map,grasp_lab,1.16744380874e-19,3.33318485711e-19,2.92694078668e-20,-3.23303096396e-21,-8.848246465e-22,5.1604470547e-22,1.0
1573179404459361943,0,1573179404206668440,grasp_lab,tag_7,0.469,-0.018,-2.54,-3.22950811149e-21,1.12201368363e-21,1.43359092202e-21,1.0
1573179404459444782,0,1573179404206668440,grasp_lab,tag_14,-1.22063952514,0.0351189971347,-3.06670604323,0.00170568167236,0.0403522807694,0.00155753458581,0.999182845215
1573179404459487340,0,1573179404206668440,grasp_lab,tag_8,-0.85330343606,0.00604736690708,-1.21451783879,2.23537880185e-05,0.0357144455231,-0.00584852031729,0.999344921782
1573179404459555183,0,1573179404206668440,grasp_lab,tag_9,-0.646769616911,0.0203875939108,-3.11334292842,0.00425886289512,0.0391985310851,-0.0204207699291,0.999013678286
1573179404459664917,0,1573179404206668440,map,rig,0.0078846129839,0.0217151382183,0.00258725698433,0.999316798611,-0.00577014275718,-0.036147218017,0.00510098975811
1573179404459723692,0,1573179404206668440,rig,cam0,-2.5631226186e-24,1.77064407451e-24,7.56044535355e-25,1.23955521225e-23,-4.47443228086e-24,-9.34159569463e-25,1.0
1573179404690905688,0,1573179404390080847,map,grasp_lab,1.22526093085e-19,3.65635888158e-19,1.85622732884e-20,-2.54403126689e-21,-9.89943929186e-22,5.70539959708e-22,1.0
1573179404691110373,0,1573179404390080847,grasp_lab,tag_7,0.469,-0.018,-2.54,-3.35160035915e-21,9.89823695399e-22,1.70504593343e-21,1.0
1573179404691250715,0,1573179404390080847,grasp_lab,tag_14,-1.22062777227,0.0351377032311,-3.06671757205,0.00173061127919,0.0403399762106,0.00154902578932,0.999183312422
1573179404691374676,0,1573179404390080847,grasp_lab,tag_8,-0.85332305769,0.00605604217114,-1.21453916355,3.10790527877e-05,0.0357112027368,-0.00585610713008,0.999344993004
1573179404691476069,0,1573179404390080847,grasp_lab,tag_9,-0.646761106936,0.0204005495546,-3.1133565466,0.0042585072095,0.0392093186877,-0.0204190319934,0.999013291992
1573179404691632438,0,1573179404390080847,map,rig,0.00783690290846,0.0216835586161,0.00268997425692,0.999317232694,-0.00579240662886,-0.0361322075268,0.00509706246265
1573179404691744298,0,1573179404390080847,rig,cam0,-3.78790868782e-24,1.3118224141e-23,1.29476035482e-24,4.94098274619e-24,-3.38949771412e-24,-5.3093425065e-24,1.0
1573179404910232515,0,1573179404641928953,map,grasp_lab,1.10982152824e-19,3.66622353699e-19,1.8560121621e-20,-2.6511000323e-21,-1.34545810252e-21,4.80867214268e-22,1.0
1573179404910487584,0,1573179404641928953,grasp_lab,tag_7,0.469,-0.018,-2.54,-3.18467593141e-21,9.44096982453e-22,1.66559396876e-21,1.0
1573179404910499536,0,1573179404641928953,grasp_lab,tag_14,-1.22062951657,0.0351276864557,-3.06669886899,0.00172617494932,0.0403406869415,0.00155295242198,0.999183285307
1573179404910505155,0,1573179404641928953,grasp_lab,tag_8,-0.853316027541,0.00603657206348,-1.21452717086,3.95920171735e-05,0.0357142106969,-0.00585198492651,0.999344909358
1573179404910510466,0,1573179404641928953,grasp_lab,tag_9,-0.646765630899,0.0203957070302,-3.11334974275,0.00423237189186,0.0392268224827,-0.0204075583327,0.999012950361
1573179404910555860,0,1573179404641928953,map,rig,0.00788663695948,0.0216764096613,0.00268715238863,0.999316903427,-0.00577642812487,-0.036144055901,0.00509574581953
1573179404910560841,0,1573179404641928953,rig,cam0,-5.16496520746e-24,1.14185364284e-23,3.00504510494e-25,5.9648988099e-24,-4.95339679162e-24,-5.90255654403e-24,1.0
1573179405130597925,0,1573179404842675810,map,grasp_lab,1.22747498068e-19,3.33737005202e-19,1.85503874079e-20,-3.0218976242e-21,-1.41724006823e-21,2.82295893835e-22,1.0
1573179405130615790,0,1573179404842675810,grasp_lab,tag_7,0.469,-0.018,-2.54,-3.26747336618e-21,9.33512931707e-22,1.75848608806e-21,1.0
1573179405130792666,0,1573179404842675810,grasp_lab,tag_14,-1.22065082018,0.0351282602658,-3.06664585235,0.0017134471978,0.0403714036188,0.00156323203299,0.999182050566
1573179405130802150,0,1573179404842675810,grasp_lab,tag_8,-0.853273281881,0.00599813847848,-1.21448059545,5.57613939296e-05,0.0357306132215,-0.00584838755039,0.999344343323
1573179405130809151,0,1573179404842675810,grasp_lab,tag_9,-0.646787431998,0.0204014428828,-3.11331964465,0.00416520756855,0.0392573517106,-0.020397202405,0.999012244928
1573179405130833184,0,1573179404842675810,map,rig,0.00793649789277,0.0216349115611,0.00271617371076,0.999316593686,-0.00577197293763,-0.0361544406341,0.0050878615039
1573179405130840440,0,1573179404842675810,rig,cam0,-6.3052423342e-24,2.01950963646e-23,4.41025549146e-25,6.44081479763e-24,-4.45004546843e-24,-7.64968508287e-24,1.0
1573179405347956476,0,1573179405066778345,map,grasp_lab,1.12304844964e-19,2.84770430033e-19,1.77410262686e-20,-2.98764582386e-21,-1.49535513908e-21,5.66668503836e-22,1.0
1573179405348061859,0,1573179405066778345,grasp_lab,tag_7,0.469,-0.018,-2.54,-2.24089754264e-21,6.25285338702e-22,1.90859958439e-21,1.0
1573179405348123527,0,1573179405066778345,grasp_lab,tag_14,-1.22063511831,0.035121800598,-3.06672047936,0.0016979925779,0.0403602716348,0.00156688160143,0.999182520952
1573179405348162532,0,1573179405066778345,grasp_lab,tag_8,-0.853315067175,0.0059909964917,-1.21453571337,6.57973800542e-05,0.0357175554176,-0.00584847993194,0.999344808956
1573179405348204975,0,1573179405066778345,grasp_lab,tag_9,-0.646765698642,0.0203970074139,-3.11336330507,0.00418724960153,0.0392353458645,-0.0203981010398,0.999012998939
1573179405348245196,0,1573179405066778345,map,rig,0.00777298518791,0.021622565312,0.00265951237864,0.999317717303,-0.00576869526922,-0.0361239851841,0.00508721276326
1573179405348249757,0,1573179405066778345,rig,cam0,-3.08962905193e-24,1.22381783645e-23,1.78607147188e-25,7.01337495213e-24,-5.40918880452e-24,-4.98446828405e-24,1.0
1573179405565184458,0,1573179405289488232,map,grasp_lab,9.49419070118e-20,2.52498120289e-19,2.71480724682e-20,-2.93720268819e-21,-1.68916854791e-21,8.21347082838e-22,1.0
1573179405565253880,0,1573179405289488232,grasp_lab,tag_7,0.469,-0.018,-2.54,-2.62663343031e-21,4.7189692562e-22,1.58032884047e-21,1.0
1573179405569421582,0,1573179405289488232,grasp_lab,tag_14,-1.22064506512,0.0351180762315,-3.06666426842,0.00172156409892,0.040361116559,0.00155301037499,0.999182468144
1573179405570338742,0,1573179405289488232,grasp_lab,tag_8,-0.853281218068,0.0060521868469,-1.21449745954,5.45756081208e-05,0.0357263334747,-0.0058538673447,0.999344464314
1573179405570737997,0,1573179405289488232,grasp_lab,tag_9,-0.646780541883,0.020386911468,-3.1133302901,0.00416378733883,0.0392470646101,-0.0204025760168,0.99901254531
1573179405570747549,0,1573179405289488232,map,rig,0.00795007111229,0.0217045488502,0.00269963318226,0.999316126956,-0.00577624933173,-0.036163840778,0.00510783403735
1573179405570753244,0,1573179405289488232,rig,cam0,-3.76977060041e-24,1.18780773255e-23,1.9821543757e-27,8.58914292477e-24,-5.55287220364e-24,-4.17923752626e-24,1.0
1573179405767073526,0,1573179405503143949,map,grasp_lab,8.33013011257e-20,2.79605701775e-19,1.78557934043e-20,-3.63138717036e-21,-1.77185303737e-21,7.46910719695e-22,1.0
1573179405767086187,0,1573179405503143949,grasp_lab,tag_7,0.469,-0.018,-2.54,-3.79361105596e-21,3.03675932928e-22,1.73806932781e-21,1.0
1573179405767093380,0,1573179405503143949,grasp_lab,tag_14,-1.22063669179,0.0350989750608,-3.06665620023,0.00170826593614,0.0403504705288,0.00155333256997,0.999182920447
1573179405767193968,0,1573179405503143949,grasp_lab,tag_8,-0.853292953946,0.00609130907736,-1.21450470488,4.44485498635e-05,0.0357262979614,-0.00585555060562,0.999344456224
1573179405767202268,0,1573179405503143949,grasp_lab,tag_9,-0.646777348515,0.0203673577136,-3.11332928509,0.0041728237431,0.039226926864,-0.0204090889195,0.999013165499
1573179405767212513,0,1573179405503143949,map,rig,0.0079249040335,0.0218131806272,0.0026677325117,0.999316157727,-0.00577230196817,-0.0361600739377,0.00513288311237
1573179405767217298,0,1573179405503143949,rig,cam0,-4.99324645371e-24,1.01181435149e-23,8.15777715964e-25,1.72390790772e-23,-5.99171428968e-24,-3.36884484391e-24,1.0
1573179405977574695,0,1573179405698531724,map,grasp_lab,8.60524093044e-20,2.68081188078e-19,2.1116997128e-20,-4.6991962171e-21,-1.78064828416e-21,8.52031945183e-22,1.0
1573179405977588557,0,1573179405698531724,grasp_lab,tag_7,0.469,-0.018,-2.54,-4.03235341517e-21,5.28207437429e-22,1.92138935363e-21,1.0
1573179405977595189,0,1573179405698531724,grasp_lab,tag_14,-1.22064441037,0.0350601689336,-3.06661387762,0.00168006924389,0.0403527472746,0.00155666083085,0.999182871131
1573179405977599760,0,1573179405698531724,grasp_lab,tag_8,-0.853268241203,0.00613073953964,-1.2144824164,2.49669990029e-05,0.0357384557229,-0.00584994019372,0.999344055048
1573179405977604441,0,1573179405698531724,grasp_lab,tag_9,-0.646792482966,0.0203327772331,-3.11332190854,0.00412159538941,0.0392512543697,-0.0203990632802,0.999012627397
1573179405977608943,0,1573179405698531724,map,rig,0.00802652351509,0.0219213169604,0.00276780448295,0.999315687144,-0.00576392968064,-0.0361709329658,0.00515733943083
1573179405977619043,0,1573179405698531724,rig,cam0,-6.52771001181e-24,1.1359527971e-23,1.06389796642e-24,1.69911350149e-23,-2.39571050569e-24,-3.57435775923e-24,1.0
1573179406184025499,0,1573179405911107698,map,grasp_lab,7.14815085593e-20,3.33633097748e-19,1.73756302189e-20,-3.97339542519e-21,-1.71596643579e-21,6.58059355865e-22,1.0
1573179406184040134,0,1573179405911107698,grasp_lab,tag_7,0.469,-0.018,-2.54,-3.11184530099e-21,4.79712895713e-22,1.43324649417e-21,1.0
1573179406184158514,0,1573179405911107698,grasp_lab,tag_14,-1.2206532687,0.0350388346279,-3.0666053458,0.00165240428405,0.0403563976197,0.00155585897909,0.999182771085
1573179406184177091,0,1573179405911107698,grasp_lab,tag_8,-0.853257868621,0.00620020163837,-1.21446869472,9.34307484175e-06,0.0357484909568,-0.00585309917418,0.999343677889
1573179406184267343,0,1573179405911107698,grasp_lab,tag_9,-0.646796918634,0.0203073793702,-3.11330219939,0.00410342882297,0.0392440406125,-0.0204011317787,0.999012943345
1573179406184274867,0,1573179405911107698,map,rig,0.0078943697068,0.0219991549847,0.00270277784167,0.999316299336,-0.00577614757598,-0.0361483994714,0.00518297375701
1573179406184360210,0,1573179405911107698,rig,cam0,-7.19693630147e-24,1.83947039134e-23,4.15644405236e-25,7.08527129422e-24,-2.22572086928e-25,-2.94005214308e-24,1.0
1573179406414522631,0,1573179406137777321,map,grasp_lab,7.28892056981e-20,2.55241274982e-19,2.41332308805e-20,-5.05579509158e-21,-1.59293827816e-21,8.37548475971e-22,1.0
1573179406414538514,0,1573179406137777321,grasp_lab,tag_7,0.469,-0.018,-2.54,-3.68099003234e-21,6.28660416697e-22,1.78496514837e-21,1.0
1573179406414661556,0,1573179406137777321,grasp_lab,tag_14,-1.22064894953,0.0350191835478,-3.06664438832,0.00163761804624,0.0403519762994,0.00156628603908,0.999182957703
1573179406414679479,0,1573179406137777321,grasp_lab,tag_8,-0.853277230046,0.0062021493008,-1.21448790048,1.27548819977e-05,0.035744706461,-0.00584980359605,0.99934383252
1573179406414704029,0,1573179406137777321,grasp_lab,tag_9,-0.646791019363,0.0202919950983,-3.11333737355,0.00406388033688,0.0392563257063,-0.020396044203,0.99901272622
1573179406414793727,0,1573179406137777321,map,rig,0.00788446035164,0.0220570733279,0.00268887169986,0.999316296666,-0.00577534135762,-0.0361454926478,0.00520461440463
1573179406414846304,0,1573179406137777321,rig,cam0,-7.021080212e-24,1.71229156049e-23,7.695273107e-25,1.96547397491e-23,-1.43599496445e-24,-3.27357873336e-24,1.0
1573179406633984868,0,1573179406350470090,map,grasp_lab,1.34960258508e-19,2.20700665116e-19,2.06037855615e-20,-4.9464041075e-21,-1.70425424011e-21,9.49116358898e-22,1.0
1573179406634000697,0,1573179406350470090,grasp_lab,tag_7,0.469,-0.018,-2.54,-2.8418390614e-21,1.07816751491e-21,1.97752222976e-21,1.0
1573179406634006195,0,1573179406350470090,grasp_lab,tag_14,-1.22061741372,0.0350086301655,-3.06671045399,0.00160960897016,0.0403147076335,0.00156332077013,0.999184512258
1573179406634010989,0,1573179406350470090,grasp_lab,tag_8,-0.853329965932,0.00625191541553,-1.21455044287,-2.30356999868e-05,0.0357202670799,-0.00585364140342,0.999344683716
1573179406634015377,0,1573179406350470090,grasp_lab,tag_9,-0.646767209034,0.0202779435708,-3.11340884507,0.00398432563992,0.0392548313276,-0.0203916111331,0.99901319589
1573179406634022721,0,1573179406350470090,map,rig,0.00786403313126,0.0220874009529,0.00255296267158,0.999316425415,-0.00576278734654,-0.0361430222714,0.00521096134975
1573179406634027508,0,1573179406350470090,rig,cam0,-8.69852118463e-24,1.65852019477e-23,1.9528476568e-25,1.83454922429e-23,-3.77093876639e-24,-2.77854833247e-24,1.0
1573179406870232414,0,1573179406567698914,map,grasp_lab,1.23447267982e-19,2.48592637231e-19,3.54076261262e-20,-3.76012094311e-21,-1.17833489631e-21,1.02672462912e-21,1.0
1573179406870249570,0,1573179406567698914,grasp_lab,tag_7,0.469,-0.018,-2.54,-2.74271834977e-21,8.70644627144e-22,1.93488966561e-21,1.0
1573179406870460189,0,1573179406567698914,grasp_lab,tag_14,-1.22059183877,0.0350096910762,-3.06678154497,0.00160000869156,0.0402923596548,0.001569325809,0.999185419701
1573179406870475734,0,1573179406567698914,grasp_lab,tag_8,-0.853373151271,0.0062304037308,-1.21460580319,-1.94161096494e-05,0.0357089425575,-0.00585148320682,0.999345101148
1573179406870654450,0,1573179406567698914,grasp_lab,tag_9,-0.64674522317,0.0202817459263,-3.11347690084,0.00392313820281,0.0392487934413,-0.0203822700315,0.999013865904
1573179406870740036,0,1573179406567698914,map,rig,0.00765560113589,0.0220693224609,0.00248785744478,0.999317392456,-0.0057709258783,-0.036114515339,0.00521414722584
1573179406870752091,0,1573179406567698914,rig,cam0,-6.30174732278e-24,2.2085206218e-23,1.37009860932e-24,1.67714723822e-23,-2.06834630415e-24,-1.99314954605e-24,1.0
1573179407086218590,0,1573179406800178734,map,grasp_lab,1.2839213271e-19,2.42512323681e-19,4.38328630799e-20,-4.25885187858e-21,-1.24660946877e-21,1.12517934664e-21,1.0
1573179407086237042,0,1573179406800178734,grasp_lab,tag_7,0.469,-0.018,-2.54,-2.54144908781e-21,1.37328347397e-21,2.06670615398e-21,1.0
1573179407086243158,0,1573179406800178734,grasp_lab,tag_14,-1.22058142028,0.0349996702354,-3.06682225523,0.00157873438969,0.0402797271611,0.0015665584481,0.999185967211
1573179407086249527,0,1573179406800178734,grasp_lab,tag_8,-0.853389127787,0.0062846530756,-1.21462898308,-3.89311718496e-05,0.0357089952925,-0.0058541326043,0.999345083177
1573179407086632648,0,1573179406800178734,grasp_lab,tag_9,-0.646736591167,0.0202674024614,-3.11351870854,0.00385965074981,0.0392566042469,-0.0203774345051,0.999013904949
1573179407086641377,0,1573179406800178734,map,rig,0.00759706823327,0.0221486580016,0.00253394505088,0.999317738508,-0.00578450381265,-0.0361000367272,0.0052330075592
1573179407086649204,0,1573179406800178734,rig,cam0,-9.72464871036e-24,1.59941547584e-23,1.36172732244e-24,1.41129238244e-23,-1.74954209501e-24,-2.85006056541e-24,1.0
1573179407315379113,0,1573179407009449774,map,grasp_lab,1.51637749203e-19,2.66010663245e-19,4.21182471568e-20,-4.60300030214e-21,-1.60267486471e-21,1.09136172476e-21,1.0
1573179407315459894,0,1573179407009449774,grasp_lab,tag_7,0.469,-0.018,-2.54,-2.45299454926e-21,1.45031427276e-21,1.91570501175e-21,1.0
1573179407315564798,0,1573179407009449774,grasp_lab,tag_14,-1.22057351769,0.0350029827892,-3.06683089413,0.00156224176317,0.0402661959001,0.00156582646345,0.999186539669
1573179407315679941,0,1573179407009449774,grasp_lab,tag_8,-0.85339183754,0.00630129701179,-1.21463836391,-2.18185659031e-05,0.0357203869893,-0.00585918486494,0.999344646971
1573179407315787319,0,1573179407009449774,grasp_lab,tag_9,-0.64673388607,0.0202680653171,-3.11354364219,0.00384028742431,0.0392798097823,-0.0203757077046,0.999013102653
1573179407315935584,0,1573179407009449774,map,rig,0.00762824236024,0.0222238064704,0.00240783633752,0.999317750481,-0.00578719402086,-0.0360968921175,0.00524941306411
1573179407315999306,0,1573179407009449774,rig,cam0,-1.0006250592e-23,1.88174346872e-23,1.17865840443e-24,1.5952856548e-23,-2.79110304658e-24,-2.49910210583e-24,1.0
1573179407531522169,0,1573179407258529373,map,grasp_lab,1.31283592297e-19,4.44523798223e-19,5.10542643687e-20,-4.84371167851e-21,-1.49781407531e-21,1.05196866644e-21,1.0
1573179407531533966,0,1573179407258529373,grasp_lab,tag_7,0.469,-0.018,-2.54,-3.30262602554e-21,1.43450469689e-21,1.93133695193e-21,1.0
1573179407531559327,0,1573179407258529373,grasp_lab,tag_14,-1.22057280545,0.0350344665911,-3.06683143655,0.00158487656676,0.0402671163091,0.0015754306201,0.999186451834
1573179407531719446,0,1573179407258529373,grasp_lab,tag_8,-0.853384519461,0.00620234487577,-1.21463231124,1.25884906439e-05,0.0357298769285,-0.00585621829862,0.999344325267
1573179407531728641,0,1573179407258529373,grasp_lab,tag_9,-0.646733123089,0.0203053319681,-3.11354552997,0.00386628206678,0.039283799779,-0.020370898125,0.999012943584
1573179407531781712,0,1573179407258529373,map,rig,0.0076572587672,0.0219904239299,0.00250410412687,0.999317838127,-0.00578938401952,-0.0361001112645,0.00520801307936
1573179407531871254,0,1573179407258529373,rig,cam0,-9.53952412857e-24,1.06059165282e-23,1.48423673499e-24,5.97647411651e-24,-6.13349244136e-25,-3.70342776106e-24,1.0
1573179407742685538,0,1573179407480574284,map,grasp_lab,2.31866686447e-19,4.24817425305e-19,4.93397018819e-20,-5.02250716516e-21,-8.82698837103e-22,1.34190668896e-21,1.0
1573179407742700440,0,1573179407480574284,grasp_lab,tag_7,0.469,-0.018,-2.54,-3.66639564952e-21,2.28932595558e-21,1.70501892488e-21,1.0
1573179407742704675,0,1573179407480574284,grasp_lab,tag_14,-1.22054032854,0.0350208682395,-3.06695397628,0.00156916211589,0.0402399720339,0.0015837191039,0.999187557076
1573179407742914068,0,1573179407480574284,grasp_lab,tag_8,-0.853460206511,0.00620549965954,-1.21472696133,5.59583540131e-06,0.0357152114063,-0.00585360993274,0.999344864846
1573179407742922881,0,1573179407480574284,grasp_lab,tag_9,-0.646699177654,0.0202946662682,-3.11364446574,0.0037662832135,0.0392807743325,-0.0203597562392,0.99901367168
1573179407742926890,0,1573179407480574284,map,rig,0.00752387080417,0.022003987986,0.00245014526242,0.999318639568,-0.00577900609444,-0.0360792424737,0.00521037071031
1573179407742930799,0,1573179407480574284,rig,cam0,-8.07588609997e-24,2.6112239211e-23,2.00874193128e-24,1.07732185286e-23,-1.6669224532e-24,-7.97781389421e-25,1.0
1573179407951700981,0,1573179407675665007,map,grasp_lab,2.25293579965e-19,4.85849579263e-19,3.97422574372e-20,-4.08048480246e-21,-7.65834707326e-22,2.0169406656e-21,1.0
1573179407951719418,0,1573179407675665007,grasp_lab,tag_7,0.469,-0.018,-2.54,-2.91200515656e-21,2.13716484918e-21,1.78951706277e-21,1.0
1573179407951737612,0,1573179407675665007,grasp_lab,tag_14,-1.22053321574,0.0349760160424,-3.0669790163,0.00149345859055,0.0402301253193,0.00158006508066,0.999188075385
1573179407951743065,0,1573179407675665007,grasp_lab,tag_8,-0.853466501159,0.00637906521956,-1.2147403858,-6.40377552373e-05,0.0357163395753,-0.00586061764025,0.999344781418
1573179407951755498,0,1573179407675665007,grasp_lab,tag_9,-0.646692270978,0.0202380302832,-3.11366400925,0.00371044690371,0.0392863282816,-0.0203704796622,0.999013443629
1573179407951760502,0,1573179407675665007,map,rig,0.00746434710718,0.02232102171,0.00239989503152,0.999318525228,-0.00578120335033,-0.0360736637809,0.00526816901381
1573179407951766109,0,1573179407675665007,rig,cam0,-1.27394510622e-23,3.21198636886e-23,1.79319388201e-25,-2.3199346928e-25,-4.59460177299e-24,1.8669477515e-24,1.0
1573179408146769811,0,1573179407891368044,map,grasp_lab,2.26306970558e-19,4.22274154092e-19,4.24540156964e-20,-5.53587737412e-21,-1.17200838994e-21,1.88961001527e-21,1.0
1573179408146785773,0,1573179407891368044,grasp_lab,tag_7,0.469,-0.018,-2.54,-4.59288362152e-21,1.9403381512e-21,2.36168518156e-21,1.0
1573179408146792009,0,1573179407891368044,grasp_lab,tag_14,-1.2205140635,0.0349754248689,-3.06704660026,0.00148638673882,0.0402136966629,0.00157708113073,0.999188751973
1573179408146797067,0,1573179407891368044,grasp_lab,tag_8,-0.853500821472,0.00642604374735,-1.21478722665,-7.92947003449e-05,0.0357043833959,-0.00586563158315,0.999345178147
1573179408146801488,0,1573179407891368044,grasp_lab,tag_9,-0.646672936928,0.0202315204579,-3.11371923093,0.00364340608543,0.0392766046713,-0.020370031028,0.999014081859
1573179408146805683,0,1573179407891368044,map,rig,0.00735068639026,0.0224535313592,0.00243947134255,0.999319059759,-0.00579061314839,-0.0360530547719,0.00529743740626
1573179408146810491,0,1573179407891368044,rig,cam0,-1.1995461603e-23,3.91100499592e-23,1.10116145017e-24,1.00253543874e-23,-6.0819098366e-24,4.05460502032e-24,1.0
1573179408344405607,0,1573179408081055676,map,grasp_lab,2.29248612125e-19,3.81491872701e-19,5.48422472868e-20,-5.74158829276e-21,-1.19888273872e-21,1.95383220248e-21,1.0
1573179408344420279,0,1573179408081055676,grasp_lab,tag_7,0.469,-0.018,-2.54,-4.0010895348e-21,1.80221056265e-21,2.33918848226e-21,1.0
1573179408344424928,0,1573179408081055676,grasp_lab,tag_14,-1.22048769977,0.0350064645636,-3.06713480195,0.00153544076796,0.0401847227825,0.00157445075973,0.999189847617
1573179408344429111,0,1573179408081055676,grasp_lab,tag_8,-0.853557323206,0.00635353839191,-1.21485994188,-5.68376128637e-05,0.0356874746649,-0.00586405586183,0.999345792892
1573179408344433377,0,1573179408081055676,grasp_lab,tag_9,-0.646647551988,0.0202645357607,-3.11379836209,0.00366201919387,0.0392841413376,-0.0203744225185,0.999013627916
1573179408344451456,0,1573179408081055676,map,rig,0.00731490583482,0.0222715452013,0.0024236611812,0.999319480234,-0.00578795607759,-0.0360469645065,0.00526235114691
1573179408344461622,0,1573179408081055676,rig,cam0,-9.41664953139e-24,3.7976742364e-23,1.27622951265e-24,1.71618014949e-23,-7.24782161319e-24,2.81994238916e-24,1.0
1573179408550596743,0,1573179408265475082,map,grasp_lab,2.36545798122e-19,3.79356607215e-19,4.83007788392e-20,-4.61579721526e-21,-1.28798046969e-21,1.75317984111e-21,1.0
1573179408550613435,0,1573179408265475082,grasp_lab,tag_7,0.469,-0.018,-2.54,-3.8662222625e-21,1.75770872301e-21,1.92814848915e-21,1.0
1573179408550619674,0,1573179408265475082,grasp_lab,tag_14,-1.22048179276,0.0350123137795,-3.06713809318,0.00155138115043,0.0401801119698,0.00157968597305,0.999190000156
1573179408550647238,0,1573179408265475082,grasp_lab,tag_8,-0.853568526831,0.00630835450231,-1.21486848404,-4.25587679542e-05,0.0356900314627,-0.00586154108153,0.999345717046
1573179408550873139,0,1573179408265475082,grasp_lab,tag_9,-0.646645249167,0.0202749636951,-3.11381258924,0.00360710798599,0.0392856043643,-0.0203649750593,0.999013962792
1573179408550934168,0,1573179408265475082,map,rig,0.00730356330186,0.0221814404251,0.00242914869349,0.999319605179,-0.00578615679651,-0.0360463108024,0.00524505213935
1573179408550949704,0,1573179408265475082,rig,cam0,-1.10178810873e-23,3.98670236092e-23,9.64982718732e-25,7.33556819159e-24,-6.13091496321e-24,2.93236466269e-24,1.0
1573179408766718854,0,1573179408493363914,map,grasp_lab,2.35739850228e-19,4.34759282507e-19,6.10417634393e-20,-4.86155678866e-21,-1.18745400866e-21,1.80291388786e-21,1.0
1573179408766731257,0,1573179408493363914,grasp_lab,tag_7,0.469,-0.018,-2.54,-4.29036725727e-21,1.65411962326e-21,2.21536075986e-21,1.0
1573179408766739507,0,1573179408493363914,grasp_lab,tag_14,-1.22046595799,0.0350273437869,-3.06718355098,0.00156495493822,0.0401688754089,0.00158339067406,0.999190424913
1573179408766818659,0,1573179408493363914,grasp_lab,tag_8,-0.853599547908,0.0062760423615,-1.21490910736,-2.69610181042e-05,0.0356764287442,-0.00586056172701,0.999346209039
1573179408766850713,0,1573179408493363914,grasp_lab,tag_9,-0.646634216995,0.0202909769857,-3.11387142221,0.00356726687327,0.0393221500234,-0.0203624059355,0.999012720414
1573179408766973927,0,1573179408493363914,map,rig,0.00721382241259,0.0221232230435,0.00243807459704,0.999320215422,-0.00579290341814,-0.0360304880161,0.00523003369596
1573179408766981666,0,1573179408493363914,rig,cam0,-9.13994963578e-24,3.1296445298e-23,5.57732844704e-25,3.13346869252e-24,-1.05151925182e-23,2.4955952977e-24,1.0
1573179408970042972,0,1573179408675965990,map,grasp_lab,2.26404588341e-19,5.22956707257e-19,7.30719703561e-20,-5.69201855858e-21,-6.34076342853e-22,1.30918065736e-21,1.0
1573179408970054857,0,1573179408675965990,grasp_lab,tag_7,0.469,-0.018,-2.54,-2.36151217203e-21,2.17382441345e-21,2.37116290537e-21,1.0
1573179408970122574,0,1573179408675965990,grasp_lab,tag_14,-1.22045348296,0.0349880870363,-3.06723904107,0.00151442598416,0.0401609119629,0.00158193332547,0.999190825194
1573179408970127292,0,1573179408675965990,grasp_lab,tag_8,-0.853621069923,0.00641506419741,-1.21495076791,-7.02178159161e-05,0.0356664013762,-0.00586710735879,0.999346526453
1573179408970133241,0,1573179408675965990,grasp_lab,tag_9,-0.646622183786,0.0202425929466,-3.11392433285,0.00356263777738,0.0393444395536,-0.0203730221068,0.999011642904
1573179408970137112,0,1573179408675965990,map,rig,0.00716957305857,0.0224500415825,0.00244226082921,0.999320161584,-0.00578876934851,-0.0360237483016,0.00529096964038
1573179408970140699,0,1573179408675965990,rig,cam0,-9.87082796141e-24,3.71020150147e-23,1.24585675387e-24,1.81148991906e-24,-8.40849048013e-24,1.09154931052e-24,1.0
1573179409183730501,0,1573179408911380565,map,grasp_lab,2.46764377687e-19,3.38198118426e-19,5.32175019382e-20,-4.24975651202e-21,-9.43892031318e-22,1.89320643736e-21,1.0
1573179409183742615,0,1573179408911380565,grasp_lab,tag_7,0.469,-0.018,-2.54,-3.55309454192e-21,1.78200247667e-21,2.35097174361e-21,1.0
1573179409183751288,0,1573179408911380565,grasp_lab,tag_14,-1.22044254458,0.0349682253936,-3.06729414147,0.00147447638048,0.0401554771459,0.00158494535168,0.999191098601
1573179409183756685,0,1573179408911380565,grasp_lab,tag_8,-0.85364485494,0.00650646742407,-1.21498535686,-9.81850580136e-05,0.0356580619221,-0.00587324360726,0.99934678565
1573179409184040619,0,1573179408911380565,grasp_lab,tag_9,-0.6466082566,0.0202152278748,-3.1139625409,0.00356385556288,0.039357294566,-0.0203833938368,0.999010920638
1573179409184049985,0,1573179408911380565,map,rig,0.00697336726676,0.0225590303812,0.00235660550246,0.999321323056,-0.00579030061542,-0.0359879240948,0.0053136638907
1573179409184054132,0,1573179408911380565,rig,cam0,-1.00909363538e-23,2.36959299067e-23,6.74250556893e-25,1.93374300377e-24,-1.1762315408e-23,8.23330190894e-25,1.0
1573179409384429025,0,1573179409114048334,map,grasp_lab,2.30359104486e-19,2.69377109256e-19,4.61659545738e-20,-4.68199272778e-21,-4.7698458927e-22,2.27582406405e-21,1.0
1573179409384611993,0,1573179409114048334,grasp_lab,tag_7,0.469,-0.018,-2.54,-2.9484623978e-21,2.13752212718e-21,2.29746111912e-21,1.0
1573179409384739735,0,1573179409114048334,grasp_lab,tag_14,-1.22045541616,0.0349805179903,-3.06726987467,0.00149548191639,0.0401668764465,0.00159065270414,0.999190600133
1573179409384835234,0,1573179409114048334,grasp_lab,tag_8,-0.853614694969,0.00643862260535,-1.21495836082,-7.75646470298e-05,0.0356731828806,-0.00586878635687,0.999346273998
1573179409384946374,0,1573179409114048334,grasp_lab,tag_9,-0.646620724195,0.0202331387281,-3.11395203483,0.00359418552213,0.0393924771359,-0.020379667673,0.999009501317
1573179409385052681,0,1573179409114048334,map,rig,0.00714452738768,0.0224187650657,0.00238767258226,0.999320557442,-0.00579343791516,-0.0360120161026,0.00529095891236
1573179409385118213,0,1573179409114048334,rig,cam0,-7.79293576019e-24,2.07791416208e-23,8.34568131738e-25,3.89865680803e-24,-1.12165930519e-23,3.58277317322e-24,1.0
1573179409596477983,0,1573179409331295686,map,grasp_lab,2.25295427466e-19,1.80682862554e-19,5.55448847435e-20,-2.65547672492e-21,-2.30087652565e-22,2.62184845662e-21,1.0
1573179409596502835,0,1573179409331295686,grasp_lab,tag_7,0.469,-0.018,-2.54,1.07679731523e-21,1.85238815734e-21,3.3964675955e-21,1.0
1573179409596509152,0,1573179409331295686,grasp_lab,tag_14,-1.22042866073,0.0349580145822,-3.06737425161,0.00145666322711,0.0401410784402,0.00158805577727,0.999191698341
1573179409596514312,0,1573179409331295686,grasp_lab,tag_8,-0.85367202545,0.00655201191152,-1.21503410959,-0.000116706652166,0.0356540366475,-0.00587648414154,0.999346908228
1573179409596518586,0,1573179409331295686,grasp_lab,tag_9,-0.646589424998,0.0202005510494,-3.11401981839,0.00363211922543,0.0393649783487,-0.0203943586807,0.999010148259
1573179409596523167,0,1573179409331295686,map,rig,0.0069043531665,0.0227258268458,0.00223575026989,0.999321729879,-0.00580092065777,-0.0359681916301,0.00535898333743
1573179409596537887,0,1573179409331295686,rig,cam0,-4.84265107367e-24,1.5192331856e-23,-1.7244834217e-25,-1.23151824402e-24,-1.05053593581e-23,2.67707626376e-24,1.0
1573179409917045993,0,1573179409528681038,map,grasp_lab,-1.338557905e-20,-2.38016935153e-20,3.0351377306e-22,1.07825386386e-22,7.33672624053e-23,4.41224495091e-23,1.0
1573179409917252819,0,1573179409528681038,grasp_lab,tag_7,0.469,-0.018,-2.54,4.07022446708e-22,-3.81801394757e-23,1.30419434259e-22,1.0
1573179409917279042,0,1573179409528681038,grasp_lab,tag_14,-1.22047309018,0.034917093879,-3.06726090598,0.0012538498664,0.0401641998898,0.00164334024713,0.999190954893
1573179409917341148,0,1573179409528681038,grasp_lab,tag_8,-0.853552673787,0.00655753266349,-1.21484550661,-8.19089426679e-05,0.0356395276054,-0.00589246309895,0.999347335135
1573179409917437046,0,1573179409528681038,grasp_lab,tag_9,-0.646651277724,0.0201703248393,-3.11402839841,0.00328802819323,0.0395452765187,-0.0203326404032,0.999005477317
1573179409917448198,0,1573179409528681038,map,rig,0.00658557046234,0.0225484439653,0.00144543882803,0.999356283342,-0.00569750472507,-0.0352690271068,0.00326391042556
1573179409917471167,0,1573179409528681038,rig,cam0,6.2290959356e-25,-2.42069026262e-24,-5.99267808102e-26,-4.70429771263e-25,-1.16645402259e-25,7.4382487826e-26,1.0
1573179410024698274,0,1573179409745703682,map,grasp_lab,1.58385263645e-20,-1.6887786203e-19,7.46943815965e-21,9.8565489798e-22,3.26586124009e-22,5.81387922857e-22,1.0
1573179410024711529,0,1573179409745703682,grasp_lab,tag_7,0.469,-0.018,-2.54,1.13126860646e-21,4.77427674163e-23,4.75046540763e-22,1.0
1573179410024717606,0,1573179409745703682,grasp_lab,tag_14,-1.22046941761,0.0349451676409,-3.06731260464,0.00126653047002,0.0401687182492,0.0016472482925,0.999190750832
1573179410024793567,0,1573179409745703682,grasp_lab,tag_8,-0.853581537373,0.00646314193235,-1.21488050622,-7.70560736337e-05,0.0356465092299,-0.00588631536644,0.999347122742
1573179410024835610,0,1573179409745703682,grasp_lab,tag_9,-0.646641714736,0.0202036371878,-3.11405904586,0.00334807239054,0.03955454669,-0.0203266889241,0.999005032002
1573179410024976944,0,1573179409745703682,map,rig,0.00372522530231,0.0234579048888,-0.0327643500622,0.999333393699,-0.00464002884073,-0.0357139138916,0.00597952553093
1573179410024987520,0,1573179409745703682,rig,cam0,5.09693158519e-25,6.03979109783e-24,-5.51410152683e-26,-3.16045425953e-24,4.23203615296e-25,1.90797094189e-24,1.0
1573179410226136927,0,1573179409966756317,map,grasp_lab,6.00878739766e-21,-1.60381133295e-19,2.69726391566e-20,1.37152004219e-21,-1.70063852319e-22,8.78432351983e-22,1.0
1573179410226209602,0,1573179409966756317,grasp_lab,tag_7,0.469,-0.018,-2.54,1.71442108051e-21,-2.1013148153e-22,-9.69542411843e-23,1.0
1573179410226278093,0,1573179409966756317,grasp_lab,tag_14,-1.22051380158,0.0349824801142,-3.06721436444,0.00127694064632,0.0402281384111,0.00164594377334,0.999188349197
1573179410226361309,0,1573179409966756317,grasp_lab,tag_8,-0.853515361266,0.00640880165583,-1.21479054546,-8.76322888858e-05,0.0356831609217,-0.00588435871434,0.999345825363
1573179410226515645,0,1573179409966756317,grasp_lab,tag_9,-0.646680309349,0.0202389900352,-3.11397889234,0.00341509940494,0.0396068733032,-0.0203350743294,0.999002561276
1573179410226707637,0,1573179409966756317,map,rig,0.00256383309687,0.0236884279727,-0.0617115308233,0.999331738479,-0.00538946666486,-0.0358513892919,0.00465918475369
1573179410226815317,0,1573179409966756317,rig,cam0,1.08159267066e-25,2.36669900846e-24,3.49955912913e-25,1.1772173469e-23,-1.82961584646e-25,4.69042311638e-25,1.0
1573179410450727363,0,1573179410152251199,map,grasp_lab,-4.84563311308e-21,7.19649679623e-19,1.93559822483e-20,-2.76920440962e-21,5.64839451058e-23,1.06840280436e-21,1.0
1573179410450740197,0,1573179410152251199,grasp_lab,tag_7,0.469,-0.018,-2.54,-3.77694750231e-21,-3.84792269811e-22,4.81246085406e-22,1.0
1573179410450804082,0,1573179410152251199,grasp_lab,tag_14,-1.22053220548,0.0350619614706,-3.06717507425,0.00136347402323,0.0402466461588,0.00165743782787,0.999187470554
1573179410450885860,0,1573179410152251199,grasp_lab,tag_8,-0.853497751172,0.006096684747,-1.21476097479,-1.10564198055e-05,0.0356972187816,-0.00586658004915,0.999345431614
1573179410450992579,0,1573179410152251199,grasp_lab,tag_9,-0.646691144877,0.0203392492219,-3.11392755745,0.00360538872337,0.0396091485201,-0.0203284294404,0.999001937677
1573179410451071366,0,1573179410152251199,map,rig,0.000496634239463,0.0238860210922,-0.0973204231485,0.999327098399,-0.00551491270716,-0.0360529944629,0.00388815305142
1573179410451146060,0,1573179410152251199,rig,cam0,1.21850597895e-24,9.36641437201e-25,-6.24513140246e-25,1.83804429334e-23,1.21603186557e-24,-4.2728377471e-24,1.0
1573179410692700965,0,1573179410387299835,map,grasp_lab,-3.81643841575e-21,3.31561800727e-19,1.38934025522e-20,-2.36701881546e-21,6.20443028926e-23,2.31164647134e-21,1.0
1573179410692712900,0,1573179410387299835,grasp_lab,tag_7,0.469,-0.018,-2.54,2.20071842222e-21,-3.39811418371e-22,3.90523285521e-21,1.0
1573179410692717693,0,1573179410387299835,grasp_lab,tag_14,-1.22053376016,0.0351025424085,-3.06725001831,0.00140815618339,0.0402462826861,0.00167392828972,0.999187395732
1573179410692721984,0,1573179410387299835,grasp_lab,tag_8,-0.85354908745,0.00587043044867,-1.21482330223,2.54327239669e-05,0.0357037324739,-0.00585010405883,0.999345295242
1573179410692726292,0,1573179410387299835,grasp_lab,tag_9,-0.646684896549,0.0203992845415,-3.11399415075,0.00364315551174,0.0396759927772,-0.0203067154606,0.998999589751
1573179410692729982,0,1573179410387299835,map,rig,-0.00214896512164,0.0236977128352,-0.129167589421,0.999348925312,-0.00525677731903,-0.0354462382861,0.00420189963485
